[
  {
    "station_name": "Vastral Gam",
    "raw_name": "Vastral Gam",
    "lat": 22.9971313,
    "lon": 72.6674512,
    "coord_match_method": "direct",
    "operational": true,
    "line": "blue"
  },
  {
    "station_name": "Nirant Cross Road",
    "raw_name": "Nirant Cross Road",
    "lat": 22.9998991,
    "lon": 72.6585088,
    "coord_match_method": "alias",
    "operational": true,
    "line": "blue"
  },
  {
    "station_name": "Vastral",
    "raw_name": "Vastral",
    "lat": 23.0034916,
    "lon": 72.6476943,
    "coord_match_method": "direct",
    "operational": true,
    "line": "blue"
  },
  {
    "station_name": "Rabari Colony",
    "raw_name": "Rabari Colony",
    "lat": 23.005413,
    "lon": 72.6355917,
    "coord_match_method": "direct",
    "operational": true,
    "line": "blue"
  },
  {
    "station_name": "Amraivadi",
    "raw_name": "Amraivadi",
    "lat": 23.0078462,
    "lon": 72.6283735,
    "coord_match_method": "alias",
    "operational": true,
    "line": "blue"
  },
  {
    "station_name": "Apparel Park",
    "raw_name": "Apparel Park",
    "lat": 23.0106557,
    "lon": 72.6182366,
    "coord_match_method": "direct",
    "operational": true,
    "line": "blue"
  },
  {
    "station_name": "Kankaria East",
    "raw_name": "Kankaria East",
    "lat": 23.0154573,
    "lon": 72.6070016,
    "coord_match_method": "direct",
    "operational": true,
    "line": "blue"
  },
  {
    "station_name": "Kalupur Metro Station",
    "raw_name": "Kalupur Metro Station",
    "lat": 23.0246913,
    "lon": 72.6031447,
    "coord_match_method": "alias",
    "operational": true,
    "line": "blue"
  },
  {
    "station_name": "Gheekanta",
    "raw_name": "Gheekanta",
    "lat": 23.028794,
    "lon": 72.5867752,
    "coord_match_method": "direct",
    "operational": true,
    "line": "blue"
  },
  {
    "station_name": "Shahpur",
    "raw_name": "Shahpur",
    "lat": 23.0392105,
    "lon": 72.5810327,
    "coord_match_method": "alias",
    "operational": true,
    "line": "blue"
  },
  {
    "station_name": "Old High Court",
    "raw_name": "Old High Court",
    "lat": 23.0372892,
    "lon": 72.5672065,
    "coord_match_method": "direct",
    "operational": true,
    "line": "blue"
  },
  {
    "station_name": "SP Stadium",
    "raw_name": "SP Stadium",
    "lat": 23.0398414,
    "lon": 72.5616768,
    "coord_match_method": "alias",
    "operational": true,
    "line": "blue"
  },
  {
    "station_name": "Commerce Six Road",
    "raw_name": "Commerce Six Road",
    "lat": 23.0407013,
    "lon": 72.552973,
    "coord_match_method": "alias",
    "operational": true,
    "line": "blue"
  },
  {
    "station_name": "Gujarat University",
    "raw_name": "Gujarat University",
    "lat": 23.0448477,
    "lon": 72.5435296,
    "coord_match_method": "alias",
    "operational": true,
    "line": "blue"
  },
  {
    "station_name": "Gurukul Road",
    "raw_name": "Gurukul Road",
    "lat": 23.0458829,
    "lon": 72.5348734,
    "coord_match_method": "direct",
    "operational": true,
    "line": "blue"
  },
  {
    "station_name": "Doordarshan Kendra",
    "raw_name": "Doordarshan Kendra",
    "lat": 23.0481764,
    "lon": 72.5244209,
    "coord_match_method": "direct",
    "operational": true,
    "line": "blue"
  },
  {
    "station_name": "Thaltej",
    "raw_name": "Thaltej",
    "lat": 23.049748,
    "lon": 72.5160152,
    "coord_match_method": "direct",
    "operational": true,
    "line": "blue"
  },
  {
    "station_name": "Thaltej Gam",
    "raw_name": "Thaltej Gam",
    "lat": 23.0502062,
    "lon": 72.5070123,
    "coord_match_method": "direct",
    "operational": true,
    "line": "blue"
  },
  {
    "station_name": "APMC",
    "raw_name": "APMC",
    "lat": 22.9977445,
    "lon": 72.5371222,
    "coord_match_method": "direct",
    "operational": true,
    "line": "red"
  },
  {
    "station_name": "Jivraj Park",
    "raw_name": "Jivraj Park",
    "lat": 23.0054989,
    "lon": 72.5334928,
    "coord_match_method": "direct",
    "operational": true,
    "line": "red"
  },
  {
    "station_name": "Rajivnagar",
    "raw_name": "Rajivnagar",
    "lat": 23.0097229,
    "lon": 72.5367523,
    "coord_match_method": "alias",
    "operational": true,
    "line": "red"
  },
  {
    "station_name": "Shreyas",
    "raw_name": "Shreyas",
    "lat": 23.0135977,
    "lon": 72.5492225,
    "coord_match_method": "direct",
    "operational": true,
    "line": "red"
  },
  {
    "station_name": "Paldi",
    "raw_name": "Paldi",
    "lat": 23.0185053,
    "lon": 72.5624076,
    "coord_match_method": "direct",
    "operational": true,
    "line": "red"
  },
  {
    "station_name": "Gandhigram",
    "raw_name": "Gandhigram",
    "lat": 23.0270955,
    "lon": 72.5690238,
    "coord_match_method": "direct",
    "operational": true,
    "line": "red"
  },
  {
    "station_name": "Usmanpura",
    "raw_name": "Usmanpura",
    "lat": 23.0458371,
    "lon": 72.564982,
    "coord_match_method": "direct",
    "operational": true,
    "line": "red"
  },
  {
    "station_name": "Vijaynagar",
    "raw_name": "Vijaynagar",
    "lat": 23.0561913,
    "lon": 72.5623389,
    "coord_match_method": "alias",
    "operational": true,
    "line": "red"
  },
  {
    "station_name": "Vadaj",
    "raw_name": "Vadaj",
    "lat": 23.0676671,
    "lon": 72.5657588,
    "coord_match_method": "direct",
    "operational": true,
    "line": "red"
  },
  {
    "station_name": "Ranip",
    "raw_name": "Ranip",
    "lat": 23.0676741,
    "lon": 72.5740838,
    "coord_match_method": "direct",
    "operational": true,
    "line": "red"
  },
  {
    "station_name": "Sabarmati Railway Station",
    "raw_name": "Sabarmati Railway Station (WORK IN PROGRESS)",
    "lat": 23.0856303,
    "lon": 72.592206,
    "coord_match_method": "substring",
    "operational": false,
    "line": "red"
  },
  {
    "station_name": "AEC",
    "raw_name": "AEC",
    "lat": 23.0751088,
    "lon": 72.593291,
    "coord_match_method": "direct",
    "operational": true,
    "line": "red"
  },
  {
    "station_name": "Sabarmati",
    "raw_name": "Sabarmati",
    "lat": 23.0856303,
    "lon": 72.592206,
    "coord_match_method": "direct",
    "operational": true,
    "line": "red"
  },
  {
    "station_name": "Motera Stadium",
    "raw_name": "Motera Stadium",
    "lat": 23.0967726,
    "lon": 72.596692,
    "coord_match_method": "direct",
    "operational": true,
    "line": "red"
  },
  {
    "station_name": "Koteshwar Road",
    "raw_name": "Koteshwar Road",
    "lat": 23.1031114,
    "lon": 72.6021329,
    "coord_match_method": "direct",
    "operational": true,
    "line": "violet"
  },
  {
    "station_name": "Vishwakarma College",
    "raw_name": "Vishwakarma College",
    "lat": 23.1141999,
    "lon": 72.6083864,
    "coord_match_method": "direct",
    "operational": true,
    "line": "violet"
  },
  {
    "station_name": "Tapovan Circle",
    "raw_name": "Tapovan Circle",
    "lat": 23.1201271,
    "lon": 72.6157987,
    "coord_match_method": "direct",
    "operational": true,
    "line": "violet"
  },
  {
    "station_name": "Narmada Canal",
    "raw_name": "Narmada Canal",
    "lat": 23.1251457,
    "lon": 72.6220979,
    "coord_match_method": "direct",
    "operational": true,
    "line": "violet"
  },
  {
    "station_name": "Koba Circle",
    "raw_name": "Koba Circle",
    "lat": 23.1322508,
    "lon": 72.631042,
    "coord_match_method": "direct",
    "operational": true,
    "line": "violet"
  },
  {
    "station_name": "Juna Koba",
    "raw_name": "Juna Koba",
    "lat": 23.1419718,
    "lon": 72.6386122,
    "coord_match_method": "direct",
    "operational": true,
    "line": "violet"
  },
  {
    "station_name": "Koba Gam",
    "raw_name": "Koba Gam",
    "lat": 23.1476098,
    "lon": 72.6439055,
    "coord_match_method": "direct",
    "operational": true,
    "line": "violet"
  },
  {
    "station_name": "GNLU",
    "raw_name": "GNLU",
    "lat": 23.1544724,
    "lon": 72.6474689,
    "coord_match_method": "direct",
    "operational": true,
    "line": "violet"
  },
  {
    "station_name": "Raysan",
    "raw_name": "Raysan",
    "lat": 23.1663954,
    "lon": 72.6483252,
    "coord_match_method": "direct",
    "operational": true,
    "line": "violet"
  },
  {
    "station_name": "Randesan",
    "raw_name": "Randesan",
    "lat": 23.1790845,
    "lon": 72.6472905,
    "coord_match_method": "direct",
    "operational": true,
    "line": "violet"
  },
  {
    "station_name": "Dholakuva Circle",
    "raw_name": "Dholakuva Circle",
    "lat": 23.1859445,
    "lon": 72.6433202,
    "coord_match_method": "direct",
    "operational": true,
    "line": "violet"
  },
  {
    "station_name": "Infocity",
    "raw_name": "Infocity",
    "lat": 23.1922574,
    "lon": 72.6397126,
    "coord_match_method": "direct",
    "operational": true,
    "line": "violet"
  },
  {
    "station_name": "Sector-1",
    "raw_name": "Sector-1",
    "lat": 23.2049077,
    "lon": 72.6431519,
    "coord_match_method": "direct",
    "operational": true,
    "line": "violet"
  },
  {
    "station_name": "Sector 10A",
    "raw_name": "Sector 10A",
    "lat": 23.2114841,
    "lon": 72.6501927,
    "coord_match_method": "alias",
    "operational": true,
    "line": "violet"
  },
  {
    "station_name": "Sachivalaya",
    "raw_name": "Sachivalaya",
    "lat": 23.2150688,
    "lon": 72.6587511,
    "coord_match_method": "direct",
    "operational": true,
    "line": "violet"
  },
  {
    "station_name": "Akshardham",
    "raw_name": "Akshardham",
    "lat": 23.2236772,
    "lon": 72.6641817,
    "coord_match_method": "direct",
    "operational": true,
    "line": "violet"
  },
  {
    "station_name": "Juna Sachivalaya",
    "raw_name": "Juna Sachivalaya",
    "lat": 23.228926,
    "lon": 72.6594151,
    "coord_match_method": "direct",
    "operational": true,
    "line": "violet"
  },
  {
    "station_name": "Sector-16",
    "raw_name": "Sector-16",
    "lat": 23.2338826,
    "lon": 72.6501659,
    "coord_match_method": "direct",
    "operational": true,
    "line": "violet"
  },
  {
    "station_name": "Sector-24",
    "raw_name": "Sector-24",
    "lat": 23.2385075,
    "lon": 72.6414782,
    "coord_match_method": "direct",
    "operational": true,
    "line": "violet"
  },
  {
    "station_name": "Mahatama Mandir",
    "raw_name": "Mahatama Mandir",
    "lat": 23.2339412,
    "lon": 72.6338714,
    "coord_match_method": "alias",
    "operational": true,
    "line": "violet"
  },
  {
    "station_name": "PDEU",
    "raw_name": "PDEU",
    "lat": 23.1548645,
    "lon": 72.6612117,
    "coord_match_method": "alias",
    "operational": true,
    "line": "violet"
  },
  {
    "station_name": "Gift City",
    "raw_name": "Gift City",
    "lat": 23.1533555,
    "lon": 72.6855536,
    "coord_match_method": "alias",
    "operational": true,
    "line": "violet"
  }
]