[
  {
    "stopName": "Gujarat University",
    "stopCode": 1051,
    "stationCode": 1625,
    "stopType": "MUNICIPAL_BUS",
    "shortStopName": null,
    "Position": {
      "stopLongitude": "72.548851",
      "stopLatitude": "23.034453"
    },
    "RouteCodes": null,
    "Sequence": 1,
    "routeFlow": "LINESTRING (72.54887 23.03446, 72.54865 23.03578, 72.54864 23.03694, 72.54865 23.03848, 72.54865 23.03857, 72.54865 23.03857, 72.54864 23.04006, 72.54869 23.04094, 72.54883 23.04195, 72.54892 23.04228, 72.54906 23.04269, 72.54909 23.04274, 72.54914 23.04271, 72.54968 23.04242, 72.5502 23.04214, 72.55043 23.04203, 72.55043 23.04203, 72.55128 23.04167, 72.5522 23.04124, 72.55301 23.04079, 72.5534 23.04055, 72.55394 23.0402, 72.55394 23.0402, 72.55428 23.03998, 72.55453 23.03986, 72.5547 23.03985, 72.55473 23.03987, 72.55478 23.0399, 72.55483 23.03991, 72.55494 23.0399, 72.55502 23.03983, 72.55505 23.03972, 72.555 23.03961, 72.55514 23.03927, 72.55525 23.03908, 72.55551 23.03894, 72.55579 23.03889, 72.55612 23.03883, 72.55612 23.03883, 72.5566 23.03871, 72.55694 23.03857, 72.55728 23.0384, 72.55776 23.03813, 72.55776 23.03813, 72.55893 23.03755, 72.55993 23.0371, 72.56066 23.0368, 72.56066 23.0368, 72.56123 23.03657, 72.563733 23.035522, 72.56387 23.03555, 72.56409 23.03551, 72.56418 23.03548, 72.56418 23.03548, 72.56445 23.03537, 72.56452 23.03534, 72.5645 23.03524, 72.56447 23.03515, 72.56423 23.03458, 72.56417 23.03436, 72.56409 23.03407, 72.56402 23.03378, 72.56396 23.03309, 72.56396 23.03266, 72.56398 23.03239, 72.56408 23.03182, 72.56409 23.03176, 72.56409 23.03176, 72.56416 23.03157, 72.5642 23.03134, 72.56422 23.03133, 72.56427 23.03129, 72.5643 23.03124, 72.56431 23.03106, 72.56424 23.031, 72.56416 23.031, 72.56425 23.03076, 72.56427 23.03063, 72.56427 23.03037, 72.56424 23.02973, 72.5642 23.0294, 72.56418 23.02928, 72.56461 23.02931, 72.56461 23.02931, 72.56551 23.02935, 72.56676 23.02944, 72.56695 23.02946, 72.56695 23.02946, 72.56704 23.02947, 72.56704 23.02923, 72.56703 23.02903, 72.56687 23.0286, 72.56665 23.02805, 72.56658 23.02781, 72.56647 23.02736, 72.5664 23.02689, 72.56641 23.02644, 72.56643 23.0262, 72.56642 23.0262, 72.5664 23.0262, 72.56639 23.02618, 72.56638 23.02615, 72.56639 23.02612, 72.56643 23.02611, 72.56644 23.02611, 72.56645 23.02611, 72.56648 23.026, 72.56651 23.02586, 72.56651 23.02586, 72.56658 23.02532, 72.56676 23.02383, 72.56683 23.02352, 72.56705 23.02257, 72.56705 23.02257, 72.56715 23.0222, 72.56723 23.02203, 72.56726 23.02197, 72.56734 23.02191, 72.56748 23.02189, 72.5681 23.022, 72.56985 23.02208, 72.57066 23.02219, 72.57066 23.02219, 72.57078 23.0222, 72.57088 23.02226, 72.57105 23.02232, 72.57128 23.02247, 72.57125 23.02299, 72.57124 23.02334, 72.57126 23.02409, 72.57126 23.02409, 72.57125 23.025, 72.57123 23.025, 72.57115 23.02616, 72.57111 23.02667, 72.57251 23.02678, 72.57841 23.02725, 72.57865 23.02727, 72.57869 23.02727, 72.58005 23.02736, 72.58111 23.02732, 72.5813 23.02725, 72.58135 23.02722, 72.58136 23.02709, 72.5814 23.02643, 72.58107 23.0264, 72.58082 23.02643, 72.58059 23.02624, 72.58062 23.02571, 72.58064 23.02532, 72.58073 23.02532, 72.58063 23.02532, 72.58064 23.02513, 72.58062 23.02472, 72.58064 23.02449, 72.58059 23.02439, 72.58049 23.02415, 72.58041 23.02401, 72.58031 23.02393, 72.57974 23.02367, 72.57949 23.02352, 72.57918 23.02352, 72.57912 23.02356, 72.57906 23.0237, 72.57906 23.02384, 72.57905 23.02408, 72.57904 23.02436, 72.57898 23.02436, 72.57898 23.02434, 72.57864 23.02437, 72.5784 23.02436, 72.5784 23.02443, 72.5784 23.02443, 72.5784 23.02437, 72.57855 23.02437, 72.5789 23.02438, 72.5791 23.02438, 72.57907 23.02504, 72.57968 23.02508, 72.57977 23.02505, 72.58006 23.02505, 72.58067 23.02493, 72.58067 23.02466, 72.58067 23.02448, 72.58061 23.02425, 72.58057 23.02413, 72.58051 23.02407, 72.58033 23.02392, 72.57975 23.02366, 72.57953 23.02355, 72.57962 23.02301, 72.57967 23.02228, 72.57966 23.02217, 72.57997 23.02214, 72.5804 23.02208, 72.5808 23.02201, 72.580795 23.022007, 72.58198 23.02181, 72.58305 23.02162, 72.58365 23.0215, 72.58365 23.0215, 72.5841 23.02141, 72.5845 23.02126, 72.58474 23.02112, 72.58512 23.02084, 72.58542 23.02055, 72.58613 23.01988, 72.58622 23.01977, 72.58622 23.01977, 72.58649 23.01954, 72.58665 23.01943, 72.58719 23.01919, 72.58857 23.0187, 72.58857 23.0187, 72.58902 23.01854, 72.5894 23.01832, 72.58957 23.01813, 72.58976 23.01768, 72.58998 23.0173, 72.59014 23.01713, 72.59046 23.01694, 72.59064 23.01691, 72.59084 23.01692, 72.59091 23.01696, 72.59099 23.01696, 72.59106 23.01693, 72.5911 23.0169, 72.59139 23.01685, 72.5922 23.0169, 72.59285 23.01694, 72.59329 23.017, 72.59329 23.017, 72.59549 23.01739, 72.59549 23.01739, 72.59589 23.01747, 72.59657 23.01764, 72.59731 23.0179, 72.59782 23.0182, 72.59789 23.01824, 72.59789 23.01824, 72.59826 23.01848, 72.59852 23.01869, 72.59881 23.01901, 72.59906 23.01931, 72.59913 23.01942, 72.59913 23.01942, 72.59923 23.01963, 72.59929 23.01993, 72.59929 23.02022, 72.59881 23.02232, 72.5987 23.02233, 72.59864 23.02237, 72.5985 23.02252, 72.5985 23.02252, 72.59838 23.02272, 72.59826 23.02301, 72.59826 23.02315, 72.59795 23.02386, 72.59754 23.02479, 72.59735 23.02522, 72.59739 23.02523, 72.59758 23.02529, 72.59758 23.02529, 72.5977 23.02534, 72.59784 23.02544, 72.59858 23.02598, 72.59889 23.02622, 72.59899 23.0263, 72.59899 23.0263, 72.60022 23.02725, 72.60016 23.02763, 72.60016 23.02792, 72.60013 23.02836, 72.60009 23.02849, 72.59968 23.02931, 72.59931 23.03006, 72.59931 23.03006, 72.59879 23.03114, 72.59873 23.03129, 72.59906 23.03154, 72.59928 23.0317, 72.60015 23.0326, 72.60036 23.03282, 72.60064 23.03305, 72.60083 23.03314, 72.60102 23.0332, 72.60129 23.03322, 72.6026 23.03314, 72.60284 23.03311, 72.60306 23.03306, 72.60307 23.03307, 72.60308 23.03307, 72.6031 23.03308, 72.60314 23.03309, 72.60316 23.03308, 72.60316 23.03307, 72.60339 23.03323, 72.60434 23.03429, 72.60437 23.03439, 72.60491 23.03493, 72.60528 23.03533, 72.60609 23.0362, 72.60677 23.03699, 72.60739 23.0377, 72.60748 23.03763, 72.60777 23.0376, 72.60836 23.03763, 72.60897 23.03766, 72.6092 23.03765, 72.60939 23.03756, 72.60975 23.03736, 72.61018 23.03708, 72.61024 23.03701, 72.61037 23.03684, 72.61054 23.03669, 72.6107 23.03658, 72.61096 23.03641, 72.61121 23.03635, 72.61153 23.03635, 72.61221 23.03651, 72.61228 23.03624, 72.61236 23.03598, 72.61253 23.03562, 72.61304 23.03493, 72.61371 23.034, 72.61383 23.03381, 72.61394 23.03357, 72.61395 23.03358, 72.61396 23.03358, 72.61398 23.03358, 72.61401 23.03357, 72.61403 23.03355, 72.61406 23.0335, 72.61405 23.03344, 72.614 23.0334, 72.61397 23.0334, 72.61399 23.03331, 72.61399 23.03331, 72.61396 23.0334, 72.61394 23.0334, 72.61391 23.03341, 72.61387 23.03346, 72.61387 23.03352, 72.61391 23.03357, 72.61393 23.03357, 72.61394 23.03357, 72.61383 23.03381, 72.61371 23.034, 72.61341 23.03444, 72.61304 23.03493, 72.61253 23.03562, 72.61236 23.03598, 72.61228 23.03624, 72.61223 23.03643, 72.61223 23.03643, 72.61221 23.03651, 72.61231 23.03654, 72.6122 23.03701, 72.61215 23.03711, 72.61214 23.0372, 72.61205 23.03761, 72.61195 23.03831, 72.61195 23.03831, 72.61191 23.0385, 72.61188 23.0385, 72.61183 23.03853, 72.61171 23.03897, 72.61149 23.03982, 72.61141 23.04019, 72.61134 23.04058, 72.61127 23.0408, 72.61121 23.04092, 72.61126 23.04095, 72.61129 23.04098, 72.612 23.04152, 72.612 23.04152, 72.614 23.04296, 72.614 23.04296, 72.61655 23.04484, 72.61655 23.04484, 72.61799 23.04588, 72.61955 23.04693, 72.61955 23.04693, 72.6218 23.04839, 72.6218 23.04839, 72.62507 23.05051, 72.62507 23.05051, 72.62814 23.05252, 72.62814 23.05252, 72.63042 23.05398, 72.63183 23.05489, 72.63183 23.05489, 72.6331 23.05572, 72.6331 23.05572, 72.63493 23.05691, 72.63493 23.05691, 72.63554 23.05731, 72.63633 23.05781, 72.63679 23.05812, 72.63713 23.05839, 72.63729 23.05826, 72.63757 23.05805, 72.63757 23.05805, 72.63784 23.05781, 72.63817 23.05767, 72.6387 23.05748, 72.63951 23.05724, 72.6408 23.05689, 72.64082 23.05693, 72.64134 23.0568, 72.64178 23.0567, 72.64241 23.0566, 72.64252 23.05658, 72.64257 23.05704, 72.64257 23.05704, 72.64259 23.0572, 72.64266 23.05801, 72.64257 23.05801, 72.64265 23.05919, 72.64272 23.05968, 72.64274 23.05987, 72.64274 23.05987, 72.6429 23.0615, 72.64291 23.06165, 72.6429 23.06221, 72.64276 23.06319, 72.64272 23.06352, 72.64273 23.06413, 72.64274 23.06419, 72.64274 23.06419, 72.64276 23.06441, 72.64275 23.06444, 72.64272 23.06448, 72.64267 23.0645, 72.64261 23.0645, 72.64253 23.06457, 72.64262 23.06465, 72.64282 23.06484, 72.64282 23.06487, 72.64285 23.06492, 72.6429 23.06496, 72.64295 23.06498, 72.64302 23.06498, 72.64307 23.06495, 72.64311 23.0649, 72.64311 23.06479, 72.64318 23.06463, 72.64321 23.06442, 72.64318 23.06384, 72.64318 23.06365, 72.64321 23.06324, 72.64335 23.06236, 72.64336 23.06206, 72.64336 23.06142, 72.64335 23.06132, 72.64359 23.06139, 72.64359 23.06139, 72.64507 23.06186, 72.64688 23.0623, 72.64688 23.0623, 72.6475 23.06246, 72.6481 23.06261, 72.64843 23.06269, 72.64879 23.06276, 72.6488 23.06276, 72.64921 23.0628, 72.64964 23.06277, 72.65022 23.06267, 72.65047 23.06265, 72.65066 23.06266, 72.6508 23.06271, 72.65126 23.06298, 72.65135 23.06304, 72.65135 23.06304, 72.65177 23.06333, 72.65187 23.06344, 72.65211 23.06381, 72.65228 23.06405, 72.6526 23.06428, 72.65288 23.06439, 72.65328 23.06451, 72.65384 23.06485, 72.65384 23.06485, 72.65539 23.06605, 72.65539 23.06605, 72.65635 23.06682, 72.65635 23.06682, 72.65694 23.06727, 72.65728 23.06754, 72.6574 23.06769, 72.65779 23.06811, 72.65791 23.0682, 72.65866 23.06858, 72.65904 23.06884, 72.6594 23.06911, 72.65975 23.06935, 72.65977 23.06936, 72.66 23.06948, 72.6601 23.0695, 72.66023 23.06938, 72.66036 23.06922, 72.66064 23.06885, 72.66083 23.0685, 72.66104 23.06804, 72.66109 23.06759, 72.66109 23.06759, 72.66112 23.06711, 72.6611 23.06653, 72.66101 23.06567, 72.66101 23.06567, 72.66085 23.06464, 72.66067 23.06371, 72.66067 23.06371, 72.66046 23.06277, 72.66036 23.06245, 72.66025 23.06215, 72.66025 23.06215, 72.66002 23.06162, 72.65993 23.06135, 72.65986 23.06088, 72.65986 23.06082, 72.65986 23.06082, 72.65983 23.06052, 72.66066 23.06057, 72.66115 23.06061, 72.66158 23.06063, 72.66158 23.06063, 72.66218 23.06069, 72.66364 23.06091, 72.66387 23.06095, 72.66387 23.06095, 72.66444 23.06105, 72.66456 23.06104, 72.66461 23.06107, 72.66464 23.06107, 72.66468 23.06104, 72.66469 23.06099, 72.66466 23.06095, 72.665 23.05952, 72.665 23.05952, 72.66529 23.05833, 72.66531 23.05799, 72.66529 23.05763, 72.66516 23.05676, 72.66516 23.05676, 72.66512 23.05646, 72.66622 23.05638, 72.66651 23.05635, 72.66651 23.05635, 72.66975 23.05613, 72.6698 23.05613, 72.67101 23.05604, 72.67108 23.05603, 72.67107 23.05597, 72.67107 23.05597, 72.67094 23.05508, 72.67077 23.05424, 72.67063 23.05339, 72.67063 23.05339, 72.67034 23.05183, 72.67001 23.05003, 72.67002 23.05002, 72.67025 23.04997, 72.6703 23.04996, 72.67097 23.04989, 72.67136 23.04988, 72.6728 23.05038, 72.67319 23.0505, 72.67319 23.0505, 72.67448 23.05088, 72.67448 23.05088, 72.67622 23.05138, 72.67726 23.05171, 72.67726 23.05171, 72.67943 23.05243, 72.67943 23.05243, 72.6796 23.05246, 72.67989 23.05242, 72.68131 23.0521, 72.68132 23.0521, 72.68135 23.0521, 72.68141 23.05208, 72.68141 23.05207, 72.68166 23.05205)"
  },
  {
    "stopName": "Sanyas Ashram",
    "stopCode": 1073,
    "stationCode": 2588,
    "stopType": "MUNICIPAL_BUS",
    "shortStopName": null,
    "Position": {
      "stopLongitude": "72.571266",
      "stopLatitude": "23.024094"
    },
    "RouteCodes": null,
    "Sequence": 15,
    "routeFlow": null
  },
  {
    "stopName": "Gandhigram Railway Station",
    "stopCode": 1074,
    "stationCode": 1522,
    "stopType": "MUNICIPAL_BUS",
    "shortStopName": null,
    "Position": {
      "stopLongitude": "72.571216",
      "stopLatitude": "23.024998"
    },
    "RouteCodes": null,
    "Sequence": 16,
    "routeFlow": null
  },
  {
    "stopName": "Sardarbag",
    "stopCode": 1075,
    "stationCode": 2611,
    "stopType": "MUNICIPAL_BUS",
    "shortStopName": null,
    "Position": {
      "stopLongitude": "72.578645",
      "stopLatitude": "23.027351"
    },
    "RouteCodes": null,
    "Sequence": 17,
    "routeFlow": null
  },
  {
    "stopName": "Apna Bazar",
    "stopCode": 1076,
    "stationCode": 1150,
    "stopType": "MUNICIPAL_BUS",
    "shortStopName": null,
    "Position": {
      "stopLongitude": "72.580705",
      "stopLatitude": "23.025321"
    },
    "RouteCodes": null,
    "Sequence": 18,
    "routeFlow": null
  },
  {
    "stopName": "Commerce College",
    "stopCode": 1107,
    "stationCode": 1402,
    "stopType": "MUNICIPAL_BUS",
    "shortStopName": null,
    "Position": {
      "stopLongitude": "72.556131",
      "stopLatitude": "23.038873"
    },
    "RouteCodes": null,
    "Sequence": 5,
    "routeFlow": null
  },
  {
    "stopName": "Commerce College Hostel",
    "stopCode": 1108,
    "stationCode": 1403,
    "stopType": "MUNICIPAL_BUS",
    "shortStopName": null,
    "Position": {
      "stopLongitude": "72.55777",
      "stopLatitude": "23.038141"
    },
    "RouteCodes": null,
    "Sequence": 6,
    "routeFlow": null
  },
  {
    "stopName": "Swastik Society",
    "stopCode": 1109,
    "stationCode": 2903,
    "stopType": "MUNICIPAL_BUS",
    "shortStopName": null,
    "Position": {
      "stopLongitude": "72.560678",
      "stopLatitude": "23.036845"
    },
    "RouteCodes": null,
    "Sequence": 7,
    "routeFlow": null
  },
  {
    "stopName": "Navarangpura",
    "stopCode": 1150,
    "stationCode": 2189,
    "stopType": "MUNICIPAL_BUS",
    "shortStopName": null,
    "Position": {
      "stopLongitude": "72.564193",
      "stopLatitude": "23.03552"
    },
    "RouteCodes": null,
    "Sequence": 8,
    "routeFlow": null
  },
  {
    "stopName": "Sarangpur",
    "stopCode": 1204,
    "stationCode": 2593,
    "stopType": "MUNICIPAL_BUS",
    "shortStopName": null,
    "Position": {
      "stopLongitude": "72.598497",
      "stopLatitude": "23.022515"
    },
    "RouteCodes": null,
    "Sequence": 28,
    "routeFlow": null
  },
  {
    "stopName": "Astodiya Darwaja",
    "stopCode": 1299,
    "stationCode": 1197,
    "stopType": "MUNICIPAL_BUS",
    "shortStopName": null,
    "Position": {
      "stopLongitude": "72.593273",
      "stopLatitude": "23.01708"
    },
    "RouteCodes": null,
    "Sequence": 24,
    "routeFlow": null
  },
  {
    "stopName": "Dada Sahebna Pagala",
    "stopCode": 1577,
    "stationCode": 1413,
    "stopType": "MUNICIPAL_BUS",
    "shortStopName": null,
    "Position": {
      "stopLongitude": "72.548711",
      "stopLatitude": "23.03857"
    },
    "RouteCodes": null,
    "Sequence": 2,
    "routeFlow": null
  },
  {
    "stopName": "Kalupur Terminus",
    "stopCode": 1734,
    "stationCode": 1840,
    "stopType": "MUNICIPAL_BUS",
    "shortStopName": null,
    "Position": {
      "stopLongitude": "72.599252",
      "stopLatitude": "23.030033"
    },
    "RouteCodes": null,
    "Sequence": 31,
    "routeFlow": null
  },
  {
    "stopName": "G.D.High School",
    "stopCode": 1745,
    "stationCode": 1506,
    "stopType": "MUNICIPAL_BUS",
    "shortStopName": null,
    "Position": {
      "stopLongitude": "72.637616",
      "stopLatitude": "23.058096"
    },
    "RouteCodes": null,
    "Sequence": 45,
    "routeFlow": null
  },
  {
    "stopName": "Nayannagar",
    "stopCode": 1746,
    "stationCode": 2202,
    "stopType": "MUNICIPAL_BUS",
    "shortStopName": null,
    "Position": {
      "stopLongitude": "72.640816",
      "stopLatitude": "23.056933"
    },
    "RouteCodes": null,
    "Sequence": 46,
    "routeFlow": null
  },
  {
    "stopName": "Raipur Darwaja",
    "stopCode": 1945,
    "stationCode": 2497,
    "stopType": "MUNICIPAL_BUS",
    "shortStopName": null,
    "Position": {
      "stopLongitude": "72.595473",
      "stopLatitude": "23.017458"
    },
    "RouteCodes": null,
    "Sequence": 25,
    "routeFlow": null
  },
  {
    "stopName": "Mahipatram Ashram",
    "stopCode": 1946,
    "stationCode": 2012,
    "stopType": "MUNICIPAL_BUS",
    "shortStopName": null,
    "Position": {
      "stopLongitude": "72.597851",
      "stopLatitude": "23.018296"
    },
    "RouteCodes": null,
    "Sequence": 26,
    "routeFlow": null
  },
  {
    "stopName": "New Cloth Market",
    "stopCode": 1947,
    "stationCode": 2208,
    "stopType": "MUNICIPAL_BUS",
    "shortStopName": null,
    "Position": {
      "stopLongitude": "72.59909",
      "stopLatitude": "23.019433"
    },
    "RouteCodes": null,
    "Sequence": 27,
    "routeFlow": null
  },
  {
    "stopName": "Tilakbag",
    "stopCode": 2223,
    "stationCode": 2941,
    "stopType": "MUNICIPAL_BUS",
    "shortStopName": null,
    "Position": {
      "stopLongitude": "72.580798",
      "stopLatitude": "23.022018"
    },
    "RouteCodes": null,
    "Sequence": 20,
    "routeFlow": null
  },
  {
    "stopName": "Khamasa",
    "stopCode": 2224,
    "stationCode": 1879,
    "stopType": "MUNICIPAL_BUS",
    "shortStopName": null,
    "Position": {
      "stopLongitude": "72.583653",
      "stopLatitude": "23.021513"
    },
    "RouteCodes": null,
    "Sequence": 21,
    "routeFlow": null
  },
  {
    "stopName": "Sardar Bhavan (Gol Limda)",
    "stopCode": 2225,
    "stationCode": 2601,
    "stopType": "MUNICIPAL_BUS",
    "shortStopName": null,
    "Position": {
      "stopLongitude": "72.58625",
      "stopLatitude": "23.01979"
    },
    "RouteCodes": null,
    "Sequence": 22,
    "routeFlow": null
  },
  {
    "stopName": "Astodiya Chakla",
    "stopCode": 2226,
    "stationCode": 1195,
    "stopType": "MUNICIPAL_BUS",
    "shortStopName": null,
    "Position": {
      "stopLongitude": "72.588583",
      "stopLatitude": "23.018735"
    },
    "RouteCodes": null,
    "Sequence": 23,
    "routeFlow": null
  },
  {
    "stopName": "Vaikunth Bunglows",
    "stopCode": 2530,
    "stationCode": 2991,
    "stopType": "MUNICIPAL_BUS",
    "shortStopName": null,
    "Position": {
      "stopLongitude": "72.670301",
      "stopLatitude": "23.050003"
    },
    "RouteCodes": null,
    "Sequence": 71,
    "routeFlow": null
  },
  {
    "stopName": "Madalpur (Town Hall)",
    "stopCode": 2674,
    "stationCode": 1982,
    "stopType": "MUNICIPAL_BUS",
    "shortStopName": null,
    "Position": {
      "stopLongitude": "72.570651",
      "stopLatitude": "23.022258"
    },
    "RouteCodes": null,
    "Sequence": 14,
    "routeFlow": null
  },
  {
    "stopName": "Shrimali Society",
    "stopCode": 2825,
    "stationCode": 2750,
    "stopType": "MUNICIPAL_BUS",
    "shortStopName": null,
    "Position": {
      "stopLongitude": "72.564168",
      "stopLatitude": "23.031773"
    },
    "RouteCodes": null,
    "Sequence": 9,
    "routeFlow": null
  },
  {
    "stopName": "Maharashtra Society",
    "stopCode": 2826,
    "stationCode": 2003,
    "stopType": "MUNICIPAL_BUS",
    "shortStopName": null,
    "Position": {
      "stopLongitude": "72.56461",
      "stopLatitude": "23.029323"
    },
    "RouteCodes": null,
    "Sequence": 10,
    "routeFlow": null
  },
  {
    "stopName": "Mithakhali",
    "stopCode": 2827,
    "stationCode": 2088,
    "stopType": "MUNICIPAL_BUS",
    "shortStopName": null,
    "Position": {
      "stopLongitude": "72.566931",
      "stopLatitude": "23.02957"
    },
    "RouteCodes": null,
    "Sequence": 11,
    "routeFlow": null
  },
  {
    "stopName": "Nagari Hospital",
    "stopCode": 2828,
    "stationCode": 2137,
    "stopType": "MUNICIPAL_BUS",
    "shortStopName": null,
    "Position": {
      "stopLongitude": "72.566528",
      "stopLatitude": "23.025868"
    },
    "RouteCodes": null,
    "Sequence": 12,
    "routeFlow": null
  },
  {
    "stopName": "Gujarat College",
    "stopCode": 2829,
    "stationCode": 1614,
    "stopType": "MUNICIPAL_BUS",
    "shortStopName": null,
    "Position": {
      "stopLongitude": "72.567153",
      "stopLatitude": "23.022596"
    },
    "RouteCodes": null,
    "Sequence": 13,
    "routeFlow": null
  },
  {
    "stopName": "Bhavani Chowk",
    "stopCode": 2852,
    "stationCode": 1291,
    "stopType": "MUNICIPAL_BUS",
    "shortStopName": null,
    "Position": {
      "stopLongitude": "72.663876",
      "stopLatitude": "23.060934"
    },
    "RouteCodes": null,
    "Sequence": 64,
    "routeFlow": null
  },
  {
    "stopName": "Suchita Apartment (Vijay Char Rasta)",
    "stopCode": 3251,
    "stationCode": 2852,
    "stopType": "MUNICIPAL_BUS",
    "shortStopName": null,
    "Position": {
      "stopLongitude": "72.550451",
      "stopLatitude": "23.04208"
    },
    "RouteCodes": null,
    "Sequence": 3,
    "routeFlow": null
  },
  {
    "stopName": "Dynasty Restaurant",
    "stopCode": 3366,
    "stationCode": 1482,
    "stopType": "MUNICIPAL_BUS",
    "shortStopName": null,
    "Position": {
      "stopLongitude": "72.670628",
      "stopLatitude": "23.05339"
    },
    "RouteCodes": null,
    "Sequence": 70,
    "routeFlow": null
  },
  {
    "stopName": "Chamunda",
    "stopCode": 3791,
    "stationCode": 1349,
    "stopType": "MUNICIPAL_BUS",
    "shortStopName": null,
    "Position": {
      "stopLongitude": "72.611986",
      "stopLatitude": "23.041538"
    },
    "RouteCodes": null,
    "Sequence": 35,
    "routeFlow": null
  },
  {
    "stopName": "Arvind Mills (Naroda)",
    "stopCode": 3792,
    "stationCode": 1165,
    "stopType": "MUNICIPAL_BUS",
    "shortStopName": null,
    "Position": {
      "stopLongitude": "72.613991",
      "stopLatitude": "23.042965"
    },
    "RouteCodes": null,
    "Sequence": 36,
    "routeFlow": null
  },
  {
    "stopName": "Geening Press",
    "stopCode": 3793,
    "stationCode": 1787,
    "stopType": "MUNICIPAL_BUS",
    "shortStopName": null,
    "Position": {
      "stopLongitude": "72.616541",
      "stopLatitude": "23.044851"
    },
    "RouteCodes": null,
    "Sequence": 37,
    "routeFlow": null
  },
  {
    "stopName": "Ashok Mills",
    "stopCode": 3794,
    "stationCode": 1179,
    "stopType": "MUNICIPAL_BUS",
    "shortStopName": null,
    "Position": {
      "stopLongitude": "72.619545",
      "stopLatitude": "23.046945"
    },
    "RouteCodes": null,
    "Sequence": 38,
    "routeFlow": null
  },
  {
    "stopName": "Vijay Mills",
    "stopCode": 3795,
    "stationCode": 3044,
    "stopType": "MUNICIPAL_BUS",
    "shortStopName": null,
    "Position": {
      "stopLongitude": "72.621793",
      "stopLatitude": "23.04841"
    },
    "RouteCodes": null,
    "Sequence": 39,
    "routeFlow": null
  },
  {
    "stopName": "Municipal Chal (Memco)",
    "stopCode": 3796,
    "stationCode": 2116,
    "stopType": "MUNICIPAL_BUS",
    "shortStopName": null,
    "Position": {
      "stopLongitude": "72.625056",
      "stopLatitude": "23.050528"
    },
    "RouteCodes": null,
    "Sequence": 40,
    "routeFlow": null
  },
  {
    "stopName": "Bansidhar Mills",
    "stopCode": 3797,
    "stationCode": 1245,
    "stopType": "MUNICIPAL_BUS",
    "shortStopName": null,
    "Position": {
      "stopLongitude": "72.628131",
      "stopLatitude": "23.052531"
    },
    "RouteCodes": null,
    "Sequence": 41,
    "routeFlow": null
  },
  {
    "stopName": "Memco",
    "stopCode": 3798,
    "stationCode": 2073,
    "stopType": "MUNICIPAL_BUS",
    "shortStopName": null,
    "Position": {
      "stopLongitude": "72.631823",
      "stopLatitude": "23.054901"
    },
    "RouteCodes": null,
    "Sequence": 42,
    "routeFlow": null
  },
  {
    "stopName": "Rajiv Gandhi Bhavan",
    "stopCode": 3799,
    "stationCode": 2448,
    "stopType": "MUNICIPAL_BUS",
    "shortStopName": null,
    "Position": {
      "stopLongitude": "72.6331",
      "stopLatitude": "23.055721"
    },
    "RouteCodes": null,
    "Sequence": 43,
    "routeFlow": null
  },
  {
    "stopName": "Kubereshwar Mahadev",
    "stopCode": 3800,
    "stationCode": 1931,
    "stopType": "MUNICIPAL_BUS",
    "shortStopName": null,
    "Position": {
      "stopLongitude": "72.634925",
      "stopLatitude": "23.056908"
    },
    "RouteCodes": null,
    "Sequence": 44,
    "routeFlow": null
  },
  {
    "stopName": "Panchkuva",
    "stopCode": 4091,
    "stationCode": 5020,
    "stopType": "MUNICIPAL_BUS",
    "shortStopName": null,
    "Position": {
      "stopLongitude": "72.597568",
      "stopLatitude": "23.025312"
    },
    "RouteCodes": null,
    "Sequence": 29,
    "routeFlow": null
  },
  {
    "stopName": "Shaher Kotda",
    "stopCode": 4092,
    "stationCode": 5021,
    "stopType": "MUNICIPAL_BUS",
    "shortStopName": null,
    "Position": {
      "stopLongitude": "72.598991",
      "stopLatitude": "23.026296"
    },
    "RouteCodes": null,
    "Sequence": 30,
    "routeFlow": null
  },
  {
    "stopName": "Jain Upashray (Hira Panna Flats)",
    "stopCode": 4181,
    "stationCode": 1746,
    "stopType": "MUNICIPAL_BUS",
    "shortStopName": null,
    "Position": {
      "stopLongitude": "72.553975",
      "stopLatitude": "23.040246"
    },
    "RouteCodes": null,
    "Sequence": 4,
    "routeFlow": null
  },
  {
    "stopName": "Shyam Farm House",
    "stopCode": 4373,
    "stationCode": 2777,
    "stopType": "MUNICIPAL_BUS",
    "shortStopName": null,
    "Position": {
      "stopLongitude": "72.665153",
      "stopLatitude": "23.056756"
    },
    "RouteCodes": null,
    "Sequence": 66,
    "routeFlow": null
  },
  {
    "stopName": "Devsrushti",
    "stopCode": 4814,
    "stationCode": 1450,
    "stopType": "MUNICIPAL_BUS",
    "shortStopName": null,
    "Position": {
      "stopLongitude": "72.673186",
      "stopLatitude": "23.05051"
    },
    "RouteCodes": null,
    "Sequence": 72,
    "routeFlow": null
  },
  {
    "stopName": "Prerana Bunglows",
    "stopCode": 4815,
    "stationCode": 2382,
    "stopType": "MUNICIPAL_BUS",
    "shortStopName": null,
    "Position": {
      "stopLongitude": "72.674476",
      "stopLatitude": "23.050898"
    },
    "RouteCodes": null,
    "Sequence": 73,
    "routeFlow": null
  },
  {
    "stopName": "Shri Saurashtra Patel Samaj",
    "stopCode": 4816,
    "stationCode": 2744,
    "stopType": "MUNICIPAL_BUS",
    "shortStopName": null,
    "Position": {
      "stopLongitude": "72.677256",
      "stopLatitude": "23.051716"
    },
    "RouteCodes": null,
    "Sequence": 74,
    "routeFlow": null
  },
  {
    "stopName": "Devsya States",
    "stopCode": 4817,
    "stationCode": 1451,
    "stopType": "MUNICIPAL_BUS",
    "shortStopName": null,
    "Position": {
      "stopLongitude": "72.679413",
      "stopLatitude": "23.052463"
    },
    "RouteCodes": null,
    "Sequence": 75,
    "routeFlow": null
  },
  {
    "stopName": "Bhakti Circle",
    "stopCode": 4818,
    "stationCode": 1271,
    "stopType": "MUNICIPAL_BUS",
    "shortStopName": null,
    "Position": {
      "stopLongitude": "72.68166",
      "stopLatitude": "23.052071"
    },
    "RouteCodes": null,
    "Sequence": 76,
    "routeFlow": null
  },
  {
    "stopName": "Adishwarnagar",
    "stopCode": 5531,
    "stationCode": 1074,
    "stopType": "MUNICIPAL_BUS",
    "shortStopName": null,
    "Position": {
      "stopLongitude": "72.66108",
      "stopLatitude": "23.067586"
    },
    "RouteCodes": null,
    "Sequence": 58,
    "routeFlow": null
  },
  {
    "stopName": "Lal Darwaja",
    "stopCode": 5976,
    "stationCode": 1961,
    "stopType": "MUNICIPAL_BUS",
    "shortStopName": null,
    "Position": {
      "stopLongitude": "72.578388",
      "stopLatitude": "23.024426"
    },
    "RouteCodes": null,
    "Sequence": 19,
    "routeFlow": null
  },
  {
    "stopName": "DhanushdhariMandir(KrushnanagarSTstand)",
    "stopCode": 6062,
    "stationCode": 6583,
    "stopType": "MUNICIPAL_BUS",
    "shortStopName": null,
    "Position": {
      "stopLongitude": "72.642773",
      "stopLatitude": "23.059865"
    },
    "RouteCodes": null,
    "Sequence": 48,
    "routeFlow": null
  },
  {
    "stopName": "Naroda S.T.Workshop",
    "stopCode": 6064,
    "stationCode": 6584,
    "stopType": "MUNICIPAL_BUS",
    "shortStopName": null,
    "Position": {
      "stopLongitude": "72.64273",
      "stopLatitude": "23.064189"
    },
    "RouteCodes": null,
    "Sequence": 49,
    "routeFlow": null
  },
  {
    "stopName": "S.R.P. Campus(City Center)",
    "stopCode": 6066,
    "stationCode": 6585,
    "stopType": "MUNICIPAL_BUS",
    "shortStopName": null,
    "Position": {
      "stopLongitude": "72.64359",
      "stopLatitude": "23.061401"
    },
    "RouteCodes": null,
    "Sequence": 50,
    "routeFlow": null
  },
  {
    "stopName": "Gangotri Society",
    "stopCode": 6068,
    "stationCode": 6586,
    "stopType": "MUNICIPAL_BUS",
    "shortStopName": null,
    "Position": {
      "stopLongitude": "72.646869",
      "stopLatitude": "23.06234"
    },
    "RouteCodes": null,
    "Sequence": 51,
    "routeFlow": null
  },
  {
    "stopName": "Shri Ram Kutir",
    "stopCode": 6070,
    "stationCode": 6587,
    "stopType": "MUNICIPAL_BUS",
    "shortStopName": null,
    "Position": {
      "stopLongitude": "72.648776",
      "stopLatitude": "23.062848"
    },
    "RouteCodes": null,
    "Sequence": 52,
    "routeFlow": null
  },
  {
    "stopName": "Navyug Char Rasta(Vishvakarma Chowk)",
    "stopCode": 6072,
    "stationCode": 6588,
    "stopType": "MUNICIPAL_BUS",
    "shortStopName": null,
    "Position": {
      "stopLongitude": "72.651503",
      "stopLatitude": "23.063338"
    },
    "RouteCodes": null,
    "Sequence": 53,
    "routeFlow": null
  },
  {
    "stopName": "Chaitanya Appartment",
    "stopCode": 6074,
    "stationCode": 6589,
    "stopType": "MUNICIPAL_BUS",
    "shortStopName": null,
    "Position": {
      "stopLongitude": "72.653833",
      "stopLatitude": "23.064858"
    },
    "RouteCodes": null,
    "Sequence": 54,
    "routeFlow": null
  },
  {
    "stopName": "Shalin Vidhyalay",
    "stopCode": 6076,
    "stationCode": 6590,
    "stopType": "MUNICIPAL_BUS",
    "shortStopName": null,
    "Position": {
      "stopLongitude": "72.655336",
      "stopLatitude": "23.066112"
    },
    "RouteCodes": null,
    "Sequence": 55,
    "routeFlow": null
  },
  {
    "stopName": "Jalpa Society",
    "stopCode": 6078,
    "stationCode": 6591,
    "stopType": "MUNICIPAL_BUS",
    "shortStopName": null,
    "Position": {
      "stopLongitude": "72.655336",
      "stopLatitude": "23.068028"
    },
    "RouteCodes": null,
    "Sequence": 56,
    "routeFlow": null
  },
  {
    "stopName": "Arihantnagar",
    "stopCode": 6080,
    "stationCode": 6592,
    "stopType": "MUNICIPAL_BUS",
    "shortStopName": null,
    "Position": {
      "stopLongitude": "72.659731",
      "stopLatitude": "23.069408"
    },
    "RouteCodes": null,
    "Sequence": 57,
    "routeFlow": null
  },
  {
    "stopName": "Dharmnath Society",
    "stopCode": 6082,
    "stationCode": 6593,
    "stopType": "MUNICIPAL_BUS",
    "shortStopName": null,
    "Position": {
      "stopLongitude": "72.661037",
      "stopLatitude": "23.065671"
    },
    "RouteCodes": null,
    "Sequence": 59,
    "routeFlow": null
  },
  {
    "stopName": "Sai chowk",
    "stopCode": 6084,
    "stationCode": 6594,
    "stopType": "MUNICIPAL_BUS",
    "shortStopName": null,
    "Position": {
      "stopLongitude": "72.660686",
      "stopLatitude": "23.063707"
    },
    "RouteCodes": null,
    "Sequence": 60,
    "routeFlow": null
  },
  {
    "stopName": "Sukh Sahitya Heights",
    "stopCode": 6086,
    "stationCode": 6595,
    "stopType": "MUNICIPAL_BUS",
    "shortStopName": null,
    "Position": {
      "stopLongitude": "72.660243",
      "stopLatitude": "23.062156"
    },
    "RouteCodes": null,
    "Sequence": 61,
    "routeFlow": null
  },
  {
    "stopName": "Mevada Green Party Plot (Shri RamChowk)",
    "stopCode": 6089,
    "stationCode": 6596,
    "stopType": "MUNICIPAL_BUS",
    "shortStopName": null,
    "Position": {
      "stopLongitude": "72.659864",
      "stopLatitude": "23.060819"
    },
    "RouteCodes": null,
    "Sequence": 62,
    "routeFlow": null
  },
  {
    "stopName": "Shri Ram Bunglows",
    "stopCode": 6090,
    "stationCode": 6597,
    "stopType": "MUNICIPAL_BUS",
    "shortStopName": null,
    "Position": {
      "stopLongitude": "72.661576",
      "stopLatitude": "23.060676"
    },
    "RouteCodes": null,
    "Sequence": 63,
    "routeFlow": null
  },
  {
    "stopName": "Nikol Fire Station",
    "stopCode": 6092,
    "stationCode": 6598,
    "stopType": "MUNICIPAL_BUS",
    "shortStopName": null,
    "Position": {
      "stopLongitude": "72.666516",
      "stopLatitude": "23.056442"
    },
    "RouteCodes": null,
    "Sequence": 67,
    "routeFlow": null
  },
  {
    "stopName": "Oshian Party Plot",
    "stopCode": 6094,
    "stationCode": 6599,
    "stopType": "MUNICIPAL_BUS",
    "shortStopName": null,
    "Position": {
      "stopLongitude": "72.669759",
      "stopLatitude": "23.056212"
    },
    "RouteCodes": null,
    "Sequence": 68,
    "routeFlow": null
  },
  {
    "stopName": "Tirthbhumi Residency",
    "stopCode": 6097,
    "stationCode": 2942,
    "stopType": "MUNICIPAL_BUS",
    "shortStopName": null,
    "Position": {
      "stopLongitude": "72.671087",
      "stopLatitude": "23.055968"
    },
    "RouteCodes": null,
    "Sequence": 69,
    "routeFlow": null
  },
  {
    "stopName": "Krushnanagar",
    "stopCode": 6098,
    "stationCode": 1928,
    "stopType": "MUNICIPAL_BUS",
    "shortStopName": null,
    "Position": {
      "stopLongitude": "72.642553",
      "stopLatitude": "23.05704"
    },
    "RouteCodes": null,
    "Sequence": 47,
    "routeFlow": null
  },
  {
    "stopName": "Janseva Kendra",
    "stopCode": 7407,
    "stationCode": 5051,
    "stopType": "MUNICIPAL_BUS",
    "shortStopName": null,
    "Position": {
      "stopLongitude": "72.665058",
      "stopLatitude": "23.059527"
    },
    "RouteCodes": null,
    "Sequence": 65,
    "routeFlow": null
  },
  {
    "stopName": "Vora na Roza Char Rasta",
    "stopCode": 8126,
    "stationCode": 7198,
    "stopType": "MUNICIPAL_BUS",
    "shortStopName": null,
    "Position": {
      "stopLongitude": "72.612204",
      "stopLatitude": "23.036423"
    },
    "RouteCodes": null,
    "Sequence": 33,
    "routeFlow": null
  },
  {
    "stopName": "Nutan Mills",
    "stopCode": 9202,
    "stationCode": 6335,
    "stopType": "MUNICIPAL_BUS",
    "shortStopName": null,
    "Position": {
      "stopLongitude": "72.613875",
      "stopLatitude": "23.03328"
    },
    "RouteCodes": null,
    "Sequence": 32,
    "routeFlow": null
  },
  {
    "stopName": "Chamunda Overbridge",
    "stopCode": 9204,
    "stationCode": 6336,
    "stopType": "MUNICIPAL_BUS",
    "shortStopName": null,
    "Position": {
      "stopLongitude": "72.611837",
      "stopLatitude": "23.038296"
    },
    "RouteCodes": null,
    "Sequence": 34,
    "routeFlow": null
  }
]