[
  {
    "stopName": "Sarangpur",
    "stopCode": 1204,
    "stationCode": 2593,
    "stopType": "MUNICIPAL_BUS",
    "shortStopName": null,
    "Position": {
      "stopLongitude": "72.598497",
      "stopLatitude": "23.022515"
    },
    "RouteCodes": null,
    "Sequence": 1,
    "routeFlow": "LINESTRING (72.5985 23.02252, 72.59838 23.02272, 72.59826 23.02301, 72.59826 23.02315, 72.59795 23.02386, 72.59754 23.02479, 72.59735 23.02522, 72.59739 23.02523, 72.59758 23.02529, 72.59758 23.02529, 72.5977 23.02534, 72.59784 23.02544, 72.59858 23.02598, 72.59889 23.02622, 72.59899 23.0263, 72.59899 23.0263, 72.60022 23.02725, 72.60016 23.02763, 72.60016 23.02792, 72.60013 23.02836, 72.60009 23.02849, 72.59968 23.02931, 72.59931 23.03006, 72.599293 23.030076, 72.5988 23.03109, 72.59834 23.03098, 72.59823 23.03099, 72.59814 23.03103, 72.59807 23.03116, 72.59792 23.03175, 72.59776 23.03252, 72.59754 23.03323, 72.59746 23.03354, 72.5973 23.03399, 72.59717 23.03437, 72.59711 23.03458, 72.59694 23.03487, 72.596813 23.03499, 72.5968 23.035042, 72.596814 23.035094, 72.596985 23.03528, 72.59681 23.03553, 72.59659 23.03584, 72.59659 23.03584, 72.59629 23.03621, 72.59604 23.03644, 72.5958 23.03664, 72.59544 23.03688, 72.59504 23.03711, 72.59454 23.03732, 72.59399 23.03748, 72.59399 23.03748, 72.59357 23.03758, 72.59354 23.03758, 72.59296 23.03765, 72.59293 23.03766, 72.59274 23.03763, 72.59219 23.03763, 72.59166 23.03763, 72.5914 23.03763, 72.59078 23.03756, 72.59027 23.03751, 72.59015 23.03752, 72.59015 23.03752, 72.58983 23.03757, 72.58939 23.03767, 72.58807 23.03789, 72.58787 23.03793, 72.5879 23.03803, 72.58805 23.03864, 72.58831 23.03963, 72.58831 23.03963, 72.58862 23.04078, 72.58874 23.04128, 72.58883 23.0415, 72.58924 23.0424, 72.58924 23.0424, 72.58937 23.04273, 72.58936 23.04274, 72.58934 23.04277, 72.58933 23.04281, 72.58951 23.04325, 72.58957 23.04329, 72.58965 23.04331, 72.58971 23.0433, 72.58975 23.04328, 72.59004 23.04337, 72.5903 23.04377, 72.59115 23.04551, 72.59154 23.04637, 72.59154 23.04637, 72.5917 23.04671, 72.59197 23.04715, 72.59223 23.04754, 72.59265 23.04824, 72.59293 23.04874, 72.59317 23.04925, 72.59344 23.04982, 72.59357 23.05021, 72.59376 23.05055, 72.59423 23.05124, 72.5947 23.05198, 72.5947 23.05213, 72.5952 23.05279, 72.59535 23.05302, 72.59535 23.05302, 72.59574 23.05357, 72.59692 23.05487, 72.59696 23.05491, 72.59696 23.05491, 72.59775 23.05579, 72.59832 23.05639, 72.59856 23.05668, 72.59854 23.05671, 72.59853 23.05675, 72.59853 23.0568, 72.59853 23.0568, 72.59842 23.05717, 72.59836 23.05746, 72.59821 23.05825, 72.59819 23.05844, 72.59819 23.05844, 72.59822 23.05872, 72.59832 23.05922, 72.59832 23.05948, 72.59832 23.05966, 72.59826 23.06003, 72.59811 23.06064, 72.59795 23.06101, 72.59763 23.06167, 72.5974 23.06213, 72.5974 23.06213, 72.59718 23.06251, 72.59696 23.06285, 72.59692 23.06297, 72.59754 23.06318, 72.59881 23.06373, 72.59902 23.06383, 72.59912 23.06389, 72.59935 23.06417, 72.59954 23.0645, 72.59954 23.0645, 72.60023 23.06561, 72.60033 23.06588, 72.60044 23.06638, 72.60054 23.06676, 72.60054 23.06676, 72.60068 23.06708, 72.60084 23.06738, 72.60159 23.06858, 72.60217 23.0696, 72.60288 23.07076, 72.60319 23.07125, 72.60341 23.07149, 72.60359 23.07169, 72.60387 23.07197, 72.60387 23.07197, 72.6046 23.07271, 72.605666 23.073776, 72.60542 23.07405, 72.60537 23.07411, 72.60509 23.07451, 72.60511 23.07452, 72.60545 23.07466, 72.60558 23.07469, 72.60558 23.07469, 72.60623 23.07488, 72.60649 23.07497, 72.60666 23.07499, 72.60755 23.07612, 72.60922 23.07824, 72.60941 23.07847, 72.60959 23.07863, 72.61003 23.07886, 72.61003 23.07886, 72.61575 23.08124, 72.61621 23.08151, 72.6162 23.08159, 72.61623 23.08165, 72.61627 23.0817, 72.6164 23.08175, 72.61645 23.08175, 72.61676 23.08193, 72.61727 23.08234, 72.61757 23.08255, 72.61773 23.08261, 72.61773 23.08261, 72.61813 23.08268, 72.61901 23.08281, 72.61959 23.0829, 72.61984 23.08299, 72.62003 23.08309, 72.62019 23.0832, 72.62032 23.0834, 72.62045 23.0836, 72.62045 23.0836, 72.62052 23.08374, 72.62078 23.08445, 72.62091 23.08473, 72.6211 23.08497, 72.62144 23.08527, 72.62169 23.08542, 72.62186 23.08548, 72.62218 23.08555, 72.62382 23.08568, 72.62458 23.08571, 72.62458 23.08571, 72.62522 23.08576, 72.62623 23.0858, 72.62739 23.08583, 72.62929 23.08589, 72.62955 23.08592, 72.62989 23.08599, 72.6299 23.08601, 72.62994 23.08605, 72.62999 23.08607, 72.6301 23.08608, 72.63019 23.08603, 72.63022 23.08599, 72.63023 23.08597, 72.63066 23.08594, 72.63066 23.08594, 72.63366 23.08601, 72.63366 23.08601, 72.6371 23.08613, 72.63838 23.08617, 72.63896 23.08617, 72.63896 23.08617, 72.64013 23.08619, 72.64058 23.08624, 72.64079 23.08629, 72.64091 23.08634, 72.64106 23.08642, 72.64178 23.08704, 72.64233 23.08763, 72.64246 23.08774, 72.64246 23.08774, 72.643 23.08821, 72.64586 23.09086, 72.64755 23.09245, 72.64808 23.09287, 72.64825 23.09293, 72.64837 23.09294, 72.64853 23.09292, 72.64873 23.09284, 72.65116 23.09069, 72.65116 23.09069, 72.65147 23.09042, 72.65171 23.0902, 72.65179 23.0901, 72.65121 23.08981, 72.65051 23.08943, 72.65028 23.08927, 72.65025 23.08926, 72.65025 23.08926, 72.64985 23.08891, 72.64936 23.08853, 72.64896 23.08822, 72.64841 23.08768, 72.64719 23.08648, 72.64769 23.08608, 72.64771 23.08606, 72.64771 23.08606, 72.64833 23.08545, 72.64885 23.08512, 72.6491 23.08485, 72.64921 23.0847, 72.64935 23.08443, 72.64963 23.08389, 72.64963 23.08389, 72.65006 23.08306, 72.65051 23.08233, 72.65051 23.08233, 72.65088 23.08181, 72.65121 23.08127, 72.65165 23.08043, 72.65189 23.07983, 72.65203 23.07948, 72.65219 23.07919, 72.65232 23.07904, 72.65247 23.07893, 72.65306 23.07846, 72.65349 23.07817, 72.65334 23.07799, 72.65344 23.07789, 72.65357 23.0778, 72.65365 23.07776, 72.65377 23.07777, 72.65393 23.07775, 72.65393 23.07775, 72.65465 23.07762, 72.65502 23.07753, 72.65519 23.07743, 72.65532 23.0773, 72.65543 23.077069, 72.65543 23.077068, 72.65545 23.077025, 72.655818 23.076092, 72.655926 23.075907, 72.65605 23.07539, 72.6561 23.07494, 72.6561 23.07494, 72.65612 23.07477, 72.65633 23.07478, 72.65764 23.07482, 72.65826 23.07486, 72.65862 23.07491, 72.65884 23.07495, 72.65893 23.07497, 72.65895 23.0749, 72.65902 23.07463, 72.65903 23.07458, 72.65903 23.07458, 72.65914 23.07429, 72.6594 23.07379, 72.65967 23.07326, 72.65981 23.07295, 72.65981 23.07295, 72.65994 23.0726, 72.65995 23.0726, 72.65996 23.07261, 72.65999 23.0726, 72.66003 23.07255, 72.66003 23.07252, 72.66041 23.0724, 72.66114 23.07222, 72.66185 23.07202, 72.6623 23.07187, 72.6623 23.07187, 72.66289 23.07167, 72.66315 23.07161, 72.66347 23.07149, 72.66432 23.07136, 72.6646 23.07132, 72.66478 23.07129, 72.66478 23.07129, 72.66511 23.07122, 72.66555 23.07114, 72.66604 23.07108, 72.66663 23.07101, 72.66681 23.07098, 72.66681 23.07098, 72.66753 23.0708, 72.6682 23.0706, 72.6682 23.0706, 72.66892 23.0704, 72.66966 23.07023, 72.67043 23.07011, 72.67043 23.07013, 72.67157 23.06996, 72.67231 23.06982, 72.67295 23.06975, 72.67295 23.06975, 72.67311 23.06974, 72.67311 23.06975, 72.67311 23.06977, 72.67314 23.0698, 72.67322 23.06982, 72.67325 23.06979, 72.67326 23.06978, 72.67376 23.06975, 72.67482 23.06969, 72.67567 23.06962, 72.67567 23.06938, 72.67567 23.06936, 72.67633 23.06657, 72.67634 23.06654, 72.67663 23.06536, 72.67663 23.06536, 72.67694 23.06412, 72.67694 23.06412, 72.67696 23.06405, 72.67687 23.06406, 72.67427 23.06436, 72.67329 23.06448, 72.67329 23.06445, 72.67329 23.06445, 72.67329 23.06448, 72.67322 23.06449, 72.6716 23.06463, 72.67149 23.06359, 72.6715 23.06359, 72.67127 23.06091, 72.67132 23.06047, 72.67132 23.06047, 72.67138 23.05998, 72.67145 23.05899, 72.67147 23.05865, 72.67146 23.05836, 72.67146 23.05836, 72.67113 23.05623, 72.67113 23.05623, 72.67064 23.05339, 72.67064 23.05339, 72.67009 23.05033, 72.67 23.04991, 72.66971 23.04997, 72.6692 23.05002, 72.6692 23.05002, 72.66678 23.05026, 72.66678 23.05026, 72.66496 23.05046, 72.66496 23.05046, 72.66407 23.05058, 72.66407 23.05058, 72.66401 23.05059, 72.66394 23.05065, 72.66381 23.05068, 72.66379 23.05061, 72.66371 23.05046, 72.66361 23.05013, 72.6635 23.04952, 72.66348 23.04919, 72.66348 23.04862, 72.66348 23.0486, 72.66347 23.04834, 72.66341 23.04767, 72.66346 23.04766, 72.66348 23.04759, 72.66346 23.04732, 72.66338 23.04646, 72.66331 23.04518, 72.6633 23.04422, 72.6633 23.04422, 72.6633 23.04383, 72.66329 23.04346, 72.66318 23.04238, 72.66313 23.04227, 72.66312 23.04199, 72.66312 23.04156, 72.66312 23.04133, 72.66314 23.04125, 72.66313 23.04118, 72.66304 23.04103, 72.66298 23.04096, 72.66299 23.04095, 72.66251 23.04056, 72.66229 23.04037, 72.662 23.04, 72.66191 23.03982, 72.66188 23.0397, 72.66184 23.03928, 72.66185 23.03858, 72.66185 23.03858, 72.66185 23.03838, 72.6619 23.03809, 72.66196 23.03777, 72.66201 23.03723, 72.66202 23.03659, 72.66207 23.03651, 72.66207 23.03582, 72.66207 23.03553, 72.66207 23.03538, 72.66207 23.03538, 72.66221 23.03372, 72.66242 23.03218, 72.66242 23.03218, 72.66247 23.03185, 72.66258 23.03106, 72.66258 23.03106, 72.66272 23.02956, 72.66274 23.02898, 72.66273 23.02882, 72.66273 23.02866, 72.66275 23.02841, 72.66279 23.02826, 72.66279 23.02825, 72.66279 23.02825, 72.663 23.02788, 72.66356 23.02693, 72.66356 23.02693, 72.66369 23.02671, 72.66374 23.02656, 72.66378 23.02639, 72.66376 23.02611, 72.66366 23.02524, 72.66369 23.02465, 72.66373 23.02426, 72.66374 23.02417, 72.66356 23.02414, 72.66356 23.02414, 72.66243 23.02396, 72.66179 23.02389, 72.66009 23.02367, 72.65921 23.02353, 72.65912 23.02352, 72.65912 23.02352, 72.65713 23.0232, 72.65531 23.02296, 72.65521 23.02295, 72.65522 23.02293, 72.65301 23.02261, 72.65301 23.02261, 72.65186 23.02245, 72.65023 23.0222, 72.64909 23.02203, 72.64909 23.02203, 72.64882 23.02198, 72.64838 23.02193, 72.64808 23.02193, 72.64792 23.02184, 72.64777 23.02181, 72.64703 23.02172, 72.64598 23.02157, 72.64592 23.02156, 72.64592 23.02156, 72.6416 23.02094, 72.6416 23.02094, 72.64125 23.02093, 72.63934 23.02062, 72.63876 23.02056, 72.63847 23.02052, 72.63836 23.0205, 72.63836 23.0205, 72.63723 23.02035, 72.63592 23.02014, 72.63503 23.02, 72.63418 23.02, 72.63318 23.02002, 72.63318 23.02002, 72.63276 23.02002, 72.63275 23.02, 72.63271 23.01995, 72.63265 23.01993, 72.63259 23.01993, 72.63253 23.01996, 72.6325 23.02, 72.63226 23.02002, 72.63118 23.02003, 72.62938 23.02007, 72.62938 23.02007, 72.6288 23.02008, 72.62843 23.02011, 72.62797 23.02016, 72.62742 23.02025, 72.62704 23.02034, 72.62643 23.02053, 72.62628 23.02058, 72.62628 23.02058, 72.62435 23.02112, 72.62378 23.02132, 72.62246 23.02172, 72.62083 23.02214, 72.62052 23.02218, 72.62019 23.02218, 72.61987 23.02217, 72.61986 23.0221, 72.61986 23.0221, 72.61985 23.02192, 72.61987 23.02174, 72.61994 23.0212, 72.62018 23.02004, 72.62018 23.02004, 72.62006 23.01933, 72.62003 23.01904, 72.62 23.01876, 72.62001 23.01844, 72.62008 23.01782, 72.62008 23.01761, 72.62005 23.01746, 72.62007 23.01746, 72.61994 23.0169, 72.61984 23.01657, 72.61972 23.01618, 72.61958 23.01563, 72.61955 23.0155, 72.61939 23.01512, 72.61932 23.01492, 72.61901 23.01425, 72.6185 23.01314, 72.6185 23.01314, 72.61827 23.0126, 72.6181 23.01226, 72.61804 23.01218, 72.6179 23.01192, 72.61771 23.01154, 72.61757 23.01133, 72.61741 23.01114, 72.61718 23.01095, 72.61699 23.0108, 72.61692 23.01076, 72.61692 23.01076, 72.61671 23.01065, 72.61663 23.01057, 72.61657 23.01045, 72.61623 23.00944, 72.61623 23.00944, 72.61602 23.00904, 72.61588 23.00884, 72.61527 23.00828, 72.6148 23.00793, 72.61457 23.00774, 72.61457 23.00774, 72.61439 23.00756, 72.61416 23.00723, 72.61374 23.00657, 72.61351 23.0062, 72.61337 23.00613, 72.61324 23.00608, 72.61312 23.00606, 72.61301 23.00605, 72.61293 23.00607, 72.61272 23.00614, 72.61271 23.00611, 72.61158 23.00646, 72.6105 23.00676, 72.61016 23.00686, 72.61016 23.00686, 72.6095 23.00705, 72.60934 23.00712, 72.60816 23.00745, 72.60534 23.00823, 72.60521 23.00826, 72.60519 23.00829, 72.60511 23.00841, 72.6045 23.00919, 72.604332 23.009345, 72.604339 23.009341, 72.60411 23.00947, 72.60156 23.01049, 72.60145 23.01052, 72.60145 23.01056, 72.60094 23.01061, 72.60093 23.0106, 72.60092 23.01059, 72.60088 23.01058, 72.60081 23.0106, 72.60079 23.01067, 72.6008 23.01069, 72.6008 23.01078, 72.60073 23.01159, 72.60073 23.01159, 72.60068 23.01231, 72.60066 23.01232, 72.60064 23.01234, 72.60062 23.0124, 72.60065 23.01246, 72.60068 23.01248, 72.60066 23.01298, 72.60064 23.01383, 72.60062 23.01396, 72.60035 23.01499, 72.60033 23.01508, 72.60033 23.01508, 72.60022 23.01563, 72.60014 23.0159, 72.60008 23.0161, 72.5999 23.01637, 72.59977 23.01651, 72.59963 23.0166, 72.59951 23.01666, 72.59931 23.01674, 72.5991 23.01687, 72.59899 23.01703, 72.5989 23.01742, 72.5988 23.01768, 72.59868 23.01786, 72.59854 23.01803, 72.5982 23.01837, 72.59816 23.01841, 72.59826 23.01848, 72.59852 23.01869, 72.59881 23.01901, 72.59906 23.01931, 72.59912 23.01941, 72.59913 23.01942, 72.59913 23.01942, 72.59923 23.01963, 72.59929 23.01993, 72.59929 23.02022, 72.59884 23.02221)"
  },
  {
    "stopName": "Prem Darwaja",
    "stopCode": 1205,
    "stationCode": 2378,
    "stopType": "MUNICIPAL_BUS",
    "shortStopName": null,
    "Position": {
      "stopLongitude": "72.596563",
      "stopLatitude": "23.035823"
    },
    "RouteCodes": null,
    "Sequence": 5,
    "routeFlow": null
  },
  {
    "stopName": "Dariyapur Darwaja",
    "stopCode": 1206,
    "stationCode": 1423,
    "stopType": "MUNICIPAL_BUS",
    "shortStopName": null,
    "Position": {
      "stopLongitude": "72.593976",
      "stopLatitude": "23.037433"
    },
    "RouteCodes": null,
    "Sequence": 6,
    "routeFlow": null
  },
  {
    "stopName": "Madhupura",
    "stopCode": 1207,
    "stationCode": 1991,
    "stopType": "MUNICIPAL_BUS",
    "shortStopName": null,
    "Position": {
      "stopLongitude": "72.590148",
      "stopLatitude": "23.03751"
    },
    "RouteCodes": null,
    "Sequence": 7,
    "routeFlow": null
  },
  {
    "stopName": "Ramanand Kot",
    "stopCode": 1333,
    "stationCode": 2460,
    "stopType": "MUNICIPAL_BUS",
    "shortStopName": null,
    "Position": {
      "stopLongitude": "72.604334",
      "stopLatitude": "23.009322"
    },
    "RouteCodes": null,
    "Sequence": 88,
    "routeFlow": null
  },
  {
    "stopName": "Zoo Kankariya",
    "stopCode": 1334,
    "stationCode": 2351,
    "stopType": "MUNICIPAL_BUS",
    "shortStopName": null,
    "Position": {
      "stopLongitude": "72.601436",
      "stopLatitude": "23.010493"
    },
    "RouteCodes": null,
    "Sequence": 89,
    "routeFlow": null
  },
  {
    "stopName": "Naroda Gam",
    "stopCode": 1435,
    "stationCode": 2172,
    "stopType": "MUNICIPAL_BUS",
    "shortStopName": null,
    "Position": {
      "stopLongitude": "72.656173",
      "stopLatitude": "23.074948"
    },
    "RouteCodes": null,
    "Sequence": 35,
    "routeFlow": null
  },
  {
    "stopName": "Kathwada Turning",
    "stopCode": 1436,
    "stationCode": 1871,
    "stopType": "MUNICIPAL_BUS",
    "shortStopName": null,
    "Position": {
      "stopLongitude": "72.65912",
      "stopLatitude": "23.074605"
    },
    "RouteCodes": null,
    "Sequence": 36,
    "routeFlow": null
  },
  {
    "stopName": "Kathwada Fanta",
    "stopCode": 1437,
    "stationCode": 1868,
    "stopType": "MUNICIPAL_BUS",
    "shortStopName": null,
    "Position": {
      "stopLongitude": "72.659835",
      "stopLatitude": "23.072958"
    },
    "RouteCodes": null,
    "Sequence": 37,
    "routeFlow": null
  },
  {
    "stopName": "Vrajvihar Society",
    "stopCode": 1438,
    "stationCode": 3081,
    "stopType": "MUNICIPAL_BUS",
    "shortStopName": null,
    "Position": {
      "stopLongitude": "72.662316",
      "stopLatitude": "23.07192"
    },
    "RouteCodes": null,
    "Sequence": 38,
    "routeFlow": null
  },
  {
    "stopName": "Nobal School",
    "stopCode": 1439,
    "stationCode": 2247,
    "stopType": "MUNICIPAL_BUS",
    "shortStopName": null,
    "Position": {
      "stopLongitude": "72.664783",
      "stopLatitude": "23.071325"
    },
    "RouteCodes": null,
    "Sequence": 39,
    "routeFlow": null
  },
  {
    "stopName": "Murlidhar Society",
    "stopCode": 1440,
    "stationCode": 2131,
    "stopType": "MUNICIPAL_BUS",
    "shortStopName": null,
    "Position": {
      "stopLongitude": "72.666815",
      "stopLatitude": "23.071021"
    },
    "RouteCodes": null,
    "Sequence": 40,
    "routeFlow": null
  },
  {
    "stopName": "Gokuldham Society",
    "stopCode": 1441,
    "stationCode": 1574,
    "stopType": "MUNICIPAL_BUS",
    "shortStopName": null,
    "Position": {
      "stopLongitude": "72.668233",
      "stopLatitude": "23.070635"
    },
    "RouteCodes": null,
    "Sequence": 41,
    "routeFlow": null
  },
  {
    "stopName": "St. Xaviers English School",
    "stopCode": 1442,
    "stationCode": 2840,
    "stopType": "MUNICIPAL_BUS",
    "shortStopName": null,
    "Position": {
      "stopLongitude": "72.67044",
      "stopLatitude": "23.070176"
    },
    "RouteCodes": null,
    "Sequence": 42,
    "routeFlow": null
  },
  {
    "stopName": "Bhram Rushi Kheteshwar Chowk",
    "stopCode": 1471,
    "stationCode": 1382,
    "stopType": "MUNICIPAL_BUS",
    "shortStopName": null,
    "Position": {
      "stopLongitude": "72.659125",
      "stopLatitude": "23.023515"
    },
    "RouteCodes": null,
    "Sequence": 69,
    "routeFlow": null
  },
  {
    "stopName": "Vallabh Nagar",
    "stopCode": 1472,
    "stationCode": 3003,
    "stopType": "MUNICIPAL_BUS",
    "shortStopName": null,
    "Position": {
      "stopLongitude": "72.655215",
      "stopLatitude": "23.022931"
    },
    "RouteCodes": null,
    "Sequence": 70,
    "routeFlow": null
  },
  {
    "stopName": "Bhikshuk Gruh",
    "stopCode": 1473,
    "stationCode": 1297,
    "stopType": "MUNICIPAL_BUS",
    "shortStopName": null,
    "Position": {
      "stopLongitude": "72.653008",
      "stopLatitude": "23.022628"
    },
    "RouteCodes": null,
    "Sequence": 71,
    "routeFlow": null
  },
  {
    "stopName": "Quick Metal Industries",
    "stopCode": 1475,
    "stationCode": 2403,
    "stopType": "MUNICIPAL_BUS",
    "shortStopName": null,
    "Position": {
      "stopLongitude": "72.645923",
      "stopLatitude": "23.021568"
    },
    "RouteCodes": null,
    "Sequence": 73,
    "routeFlow": null
  },
  {
    "stopName": "Grid Station (C.M.C.)",
    "stopCode": 1476,
    "stationCode": 1609,
    "stopType": "MUNICIPAL_BUS",
    "shortStopName": null,
    "Position": {
      "stopLongitude": "72.641601",
      "stopLatitude": "23.020933"
    },
    "RouteCodes": null,
    "Sequence": 74,
    "routeFlow": null
  },
  {
    "stopName": "Ajit Mills",
    "stopCode": 1478,
    "stationCode": 1084,
    "stopType": "MUNICIPAL_BUS",
    "shortStopName": null,
    "Position": {
      "stopLongitude": "72.633175",
      "stopLatitude": "23.019976"
    },
    "RouteCodes": null,
    "Sequence": 76,
    "routeFlow": null
  },
  {
    "stopName": "Soma Textile (National Mills)",
    "stopCode": 1479,
    "stationCode": 2822,
    "stopType": "MUNICIPAL_BUS",
    "shortStopName": null,
    "Position": {
      "stopLongitude": "72.629376",
      "stopLatitude": "23.020053"
    },
    "RouteCodes": null,
    "Sequence": 77,
    "routeFlow": null
  },
  {
    "stopName": "Anant Mills",
    "stopCode": 1480,
    "stationCode": 1132,
    "stopType": "MUNICIPAL_BUS",
    "shortStopName": null,
    "Position": {
      "stopLongitude": "72.626268",
      "stopLatitude": "23.020535"
    },
    "RouteCodes": null,
    "Sequence": 78,
    "routeFlow": null
  },
  {
    "stopName": "Sarangpur",
    "stopCode": 1489,
    "stationCode": 2593,
    "stopType": "MUNICIPAL_BUS",
    "shortStopName": null,
    "Position": {
      "stopLongitude": "72.598729",
      "stopLatitude": "23.022186"
    },
    "RouteCodes": null,
    "Sequence": 93,
    "routeFlow": null
  },
  {
    "stopName": "Naroda",
    "stopCode": 1543,
    "stationCode": 2170,
    "stopType": "MUNICIPAL_BUS",
    "shortStopName": null,
    "Position": {
      "stopLongitude": "72.655876",
      "stopLatitude": "23.077186"
    },
    "RouteCodes": null,
    "Sequence": 34,
    "routeFlow": null
  },
  {
    "stopName": "Delhi Darwaja (Rt.105 Stand)",
    "stopCode": 1580,
    "stationCode": 1431,
    "stopType": "MUNICIPAL_BUS",
    "shortStopName": null,
    "Position": {
      "stopLongitude": "72.588341",
      "stopLatitude": "23.03962"
    },
    "RouteCodes": null,
    "Sequence": 8,
    "routeFlow": null
  },
  {
    "stopName": "Kalupur Terminus",
    "stopCode": 1734,
    "stationCode": 1840,
    "stopType": "MUNICIPAL_BUS",
    "shortStopName": null,
    "Position": {
      "stopLongitude": "72.599252",
      "stopLatitude": "23.030033"
    },
    "RouteCodes": null,
    "Sequence": 4,
    "routeFlow": null
  },
  {
    "stopName": "New Cloth Market",
    "stopCode": 1947,
    "stationCode": 2208,
    "stopType": "MUNICIPAL_BUS",
    "shortStopName": null,
    "Position": {
      "stopLongitude": "72.59909",
      "stopLatitude": "23.019433"
    },
    "RouteCodes": null,
    "Sequence": 92,
    "routeFlow": null
  },
  {
    "stopName": "Bhalakiya Mills",
    "stopCode": 2262,
    "stationCode": 1273,
    "stopType": "MUNICIPAL_BUS",
    "shortStopName": null,
    "Position": {
      "stopLongitude": "72.612706",
      "stopLatitude": "23.006095"
    },
    "RouteCodes": null,
    "Sequence": 86,
    "routeFlow": null
  },
  {
    "stopName": "Apparel Park (Ambika Mills)",
    "stopCode": 2263,
    "stationCode": 1151,
    "stopType": "MUNICIPAL_BUS",
    "shortStopName": null,
    "Position": {
      "stopLongitude": "72.610156",
      "stopLatitude": "23.006833"
    },
    "RouteCodes": null,
    "Sequence": 87,
    "routeFlow": null
  },
  {
    "stopName": "Indirabridge Approach",
    "stopCode": 2331,
    "stationCode": 1710,
    "stopType": "MUNICIPAL_BUS",
    "shortStopName": null,
    "Position": {
      "stopLongitude": "72.630663",
      "stopLatitude": "23.085991"
    },
    "RouteCodes": null,
    "Sequence": 24,
    "routeFlow": null
  },
  {
    "stopName": "Hathisingni Wadi",
    "stopCode": 2354,
    "stationCode": 1671,
    "stopType": "MUNICIPAL_BUS",
    "shortStopName": null,
    "Position": {
      "stopLongitude": "72.589176",
      "stopLatitude": "23.042425"
    },
    "RouteCodes": null,
    "Sequence": 9,
    "routeFlow": null
  },
  {
    "stopName": "Telephone Exchange (A.C.B.Office)",
    "stopCode": 2356,
    "stationCode": 2926,
    "stopType": "MUNICIPAL_BUS",
    "shortStopName": null,
    "Position": {
      "stopLongitude": "72.59949",
      "stopLatitude": "23.064523"
    },
    "RouteCodes": null,
    "Sequence": 16,
    "routeFlow": null
  },
  {
    "stopName": "Camp Hanuman",
    "stopCode": 2357,
    "stationCode": 1332,
    "stopType": "MUNICIPAL_BUS",
    "shortStopName": null,
    "Position": {
      "stopLongitude": "72.600491",
      "stopLatitude": "23.06678"
    },
    "RouteCodes": null,
    "Sequence": 17,
    "routeFlow": null
  },
  {
    "stopName": "Wireless Quarters (Camp)",
    "stopCode": 2358,
    "stationCode": 3090,
    "stopType": "MUNICIPAL_BUS",
    "shortStopName": null,
    "Position": {
      "stopLongitude": "72.603835",
      "stopLatitude": "23.071996"
    },
    "RouteCodes": null,
    "Sequence": 18,
    "routeFlow": null
  },
  {
    "stopName": "Camp Sadar Bazar",
    "stopCode": 2359,
    "stationCode": 1333,
    "stopType": "MUNICIPAL_BUS",
    "shortStopName": null,
    "Position": {
      "stopLongitude": "72.605575",
      "stopLatitude": "23.074715"
    },
    "RouteCodes": null,
    "Sequence": 19,
    "routeFlow": null
  },
  {
    "stopName": "Garnala (Camp)",
    "stopCode": 2360,
    "stationCode": 1530,
    "stopType": "MUNICIPAL_BUS",
    "shortStopName": null,
    "Position": {
      "stopLongitude": "72.610008",
      "stopLatitude": "23.078895"
    },
    "RouteCodes": null,
    "Sequence": 20,
    "routeFlow": null
  },
  {
    "stopName": "Sardarnagar Approach",
    "stopCode": 2361,
    "stationCode": 2613,
    "stopType": "MUNICIPAL_BUS",
    "shortStopName": null,
    "Position": {
      "stopLongitude": "72.617716",
      "stopLatitude": "23.082636"
    },
    "RouteCodes": null,
    "Sequence": 21,
    "routeFlow": null
  },
  {
    "stopName": "Vaikunth Bunglows",
    "stopCode": 2471,
    "stationCode": 2991,
    "stopType": "MUNICIPAL_BUS",
    "shortStopName": null,
    "Position": {
      "stopLongitude": "72.669203",
      "stopLatitude": "23.050013"
    },
    "RouteCodes": null,
    "Sequence": 54,
    "routeFlow": null
  },
  {
    "stopName": "Shakuntal Bunglows",
    "stopCode": 2472,
    "stationCode": 2693,
    "stopType": "MUNICIPAL_BUS",
    "shortStopName": null,
    "Position": {
      "stopLongitude": "72.666786",
      "stopLatitude": "23.05028"
    },
    "RouteCodes": null,
    "Sequence": 55,
    "routeFlow": null
  },
  {
    "stopName": "Saurashtra Patel Samajni Wadi",
    "stopCode": 2473,
    "stationCode": 2663,
    "stopType": "MUNICIPAL_BUS",
    "shortStopName": null,
    "Position": {
      "stopLongitude": "72.664956",
      "stopLatitude": "23.05046"
    },
    "RouteCodes": null,
    "Sequence": 56,
    "routeFlow": null
  },
  {
    "stopName": "Shukan Bunglows",
    "stopCode": 2474,
    "stationCode": 2773,
    "stopType": "MUNICIPAL_BUS",
    "shortStopName": null,
    "Position": {
      "stopLongitude": "72.664061",
      "stopLatitude": "23.050541"
    },
    "RouteCodes": null,
    "Sequence": 57,
    "routeFlow": null
  },
  {
    "stopName": "Krishna Vihar Society",
    "stopCode": 2475,
    "stationCode": 1914,
    "stopType": "MUNICIPAL_BUS",
    "shortStopName": null,
    "Position": {
      "stopLongitude": "72.663555",
      "stopLatitude": "23.04862"
    },
    "RouteCodes": null,
    "Sequence": 58,
    "routeFlow": null
  },
  {
    "stopName": "Uma Vidyalay",
    "stopCode": 2476,
    "stationCode": 2963,
    "stopType": "MUNICIPAL_BUS",
    "shortStopName": null,
    "Position": {
      "stopLongitude": "72.663462",
      "stopLatitude": "23.047662"
    },
    "RouteCodes": null,
    "Sequence": 59,
    "routeFlow": null
  },
  {
    "stopName": "Maheshwari Seva Samiti",
    "stopCode": 3344,
    "stationCode": 2009,
    "stopType": "MUNICIPAL_BUS",
    "shortStopName": null,
    "Position": {
      "stopLongitude": "72.591513",
      "stopLatitude": "23.046381"
    },
    "RouteCodes": null,
    "Sequence": 10,
    "routeFlow": null
  },
  {
    "stopName": "Mahapragnaji Bridge Approach",
    "stopCode": 3345,
    "stationCode": 2002,
    "stopType": "MUNICIPAL_BUS",
    "shortStopName": null,
    "Position": {
      "stopLongitude": "72.595318",
      "stopLatitude": "23.053036"
    },
    "RouteCodes": null,
    "Sequence": 11,
    "routeFlow": null
  },
  {
    "stopName": "Rajasthan Hospital",
    "stopCode": 3346,
    "stationCode": 2440,
    "stopType": "MUNICIPAL_BUS",
    "shortStopName": null,
    "Position": {
      "stopLongitude": "72.596921",
      "stopLatitude": "23.05494"
    },
    "RouteCodes": null,
    "Sequence": 12,
    "routeFlow": null
  },
  {
    "stopName": "Radha Kishan Mandir (Ghevar Complex)",
    "stopCode": 3347,
    "stationCode": 2414,
    "stopType": "MUNICIPAL_BUS",
    "shortStopName": null,
    "Position": {
      "stopLongitude": "72.598581",
      "stopLatitude": "23.056801"
    },
    "RouteCodes": null,
    "Sequence": 13,
    "routeFlow": null
  },
  {
    "stopName": "Navroji Hall (Chandralok)",
    "stopCode": 3348,
    "stationCode": 2199,
    "stopType": "MUNICIPAL_BUS",
    "shortStopName": null,
    "Position": {
      "stopLongitude": "72.598201",
      "stopLatitude": "23.058438"
    },
    "RouteCodes": null,
    "Sequence": 14,
    "routeFlow": null
  },
  {
    "stopName": "Dufnala",
    "stopCode": 3349,
    "stationCode": 1476,
    "stopType": "MUNICIPAL_BUS",
    "shortStopName": null,
    "Position": {
      "stopLongitude": "72.597421",
      "stopLatitude": "23.062136"
    },
    "RouteCodes": null,
    "Sequence": 15,
    "routeFlow": null
  },
  {
    "stopName": "Talavdi (Sadarnagar)",
    "stopCode": 3350,
    "stationCode": 3101,
    "stopType": "MUNICIPAL_BUS",
    "shortStopName": null,
    "Position": {
      "stopLongitude": "72.6204",
      "stopLatitude": "23.083625"
    },
    "RouteCodes": null,
    "Sequence": 22,
    "routeFlow": null
  },
  {
    "stopName": "Hansol",
    "stopCode": 3351,
    "stationCode": 1647,
    "stopType": "MUNICIPAL_BUS",
    "shortStopName": null,
    "Position": {
      "stopLongitude": "72.624581",
      "stopLatitude": "23.085691"
    },
    "RouteCodes": null,
    "Sequence": 23,
    "routeFlow": null
  },
  {
    "stopName": "Samarath Nagar",
    "stopCode": 3352,
    "stationCode": 2560,
    "stopType": "MUNICIPAL_BUS",
    "shortStopName": null,
    "Position": {
      "stopLongitude": "72.633666",
      "stopLatitude": "23.086041"
    },
    "RouteCodes": null,
    "Sequence": 25,
    "routeFlow": null
  },
  {
    "stopName": "Bhadreshwar",
    "stopCode": 3353,
    "stationCode": 1260,
    "stopType": "MUNICIPAL_BUS",
    "shortStopName": null,
    "Position": {
      "stopLongitude": "72.638958",
      "stopLatitude": "23.08621"
    },
    "RouteCodes": null,
    "Sequence": 26,
    "routeFlow": null
  },
  {
    "stopName": "Jogni Matanu Mandir",
    "stopCode": 3354,
    "stationCode": 1798,
    "stopType": "MUNICIPAL_BUS",
    "shortStopName": null,
    "Position": {
      "stopLongitude": "72.642445",
      "stopLatitude": "23.087756"
    },
    "RouteCodes": null,
    "Sequence": 27,
    "routeFlow": null
  },
  {
    "stopName": "Kotarpur Approach",
    "stopCode": 3355,
    "stationCode": 1903,
    "stopType": "MUNICIPAL_BUS",
    "shortStopName": null,
    "Position": {
      "stopLongitude": "72.651221",
      "stopLatitude": "23.090755"
    },
    "RouteCodes": null,
    "Sequence": 28,
    "routeFlow": null
  },
  {
    "stopName": "Subhashnagar",
    "stopCode": 3356,
    "stationCode": 2850,
    "stopType": "MUNICIPAL_BUS",
    "shortStopName": null,
    "Position": {
      "stopLongitude": "72.650245",
      "stopLatitude": "23.089268"
    },
    "RouteCodes": null,
    "Sequence": 29,
    "routeFlow": null
  },
  {
    "stopName": "I.T.I. Railway Underbridge",
    "stopCode": 3358,
    "stationCode": 1701,
    "stopType": "MUNICIPAL_BUS",
    "shortStopName": null,
    "Position": {
      "stopLongitude": "72.650571",
      "stopLatitude": "23.082361"
    },
    "RouteCodes": null,
    "Sequence": 32,
    "routeFlow": null
  },
  {
    "stopName": "Galaxy Cinema",
    "stopCode": 3359,
    "stationCode": 1514,
    "stopType": "MUNICIPAL_BUS",
    "shortStopName": null,
    "Position": {
      "stopLongitude": "72.653933",
      "stopLatitude": "23.077758"
    },
    "RouteCodes": null,
    "Sequence": 33,
    "routeFlow": null
  },
  {
    "stopName": "Shubham Galaxy",
    "stopCode": 3362,
    "stationCode": 2768,
    "stopType": "MUNICIPAL_BUS",
    "shortStopName": null,
    "Position": {
      "stopLongitude": "72.67151",
      "stopLatitude": "23.063588"
    },
    "RouteCodes": null,
    "Sequence": 49,
    "routeFlow": null
  },
  {
    "stopName": "Shyam Villa-2",
    "stopCode": 3363,
    "stationCode": 2779,
    "stopType": "MUNICIPAL_BUS",
    "shortStopName": null,
    "Position": {
      "stopLongitude": "72.671336",
      "stopLatitude": "23.060475"
    },
    "RouteCodes": null,
    "Sequence": 50,
    "routeFlow": null
  },
  {
    "stopName": "Akshardham Residency",
    "stopCode": 3364,
    "stationCode": 1091,
    "stopType": "MUNICIPAL_BUS",
    "shortStopName": null,
    "Position": {
      "stopLongitude": "72.671438",
      "stopLatitude": "23.058365"
    },
    "RouteCodes": null,
    "Sequence": 51,
    "routeFlow": null
  },
  {
    "stopName": "Tirthbhumi Residency",
    "stopCode": 3365,
    "stationCode": 2942,
    "stopType": "MUNICIPAL_BUS",
    "shortStopName": null,
    "Position": {
      "stopLongitude": "72.671138",
      "stopLatitude": "23.056228"
    },
    "RouteCodes": null,
    "Sequence": 52,
    "routeFlow": null
  },
  {
    "stopName": "Dynasty Restaurant",
    "stopCode": 3366,
    "stationCode": 1482,
    "stopType": "MUNICIPAL_BUS",
    "shortStopName": null,
    "Position": {
      "stopLongitude": "72.670628",
      "stopLatitude": "23.05339"
    },
    "RouteCodes": null,
    "Sequence": 53,
    "routeFlow": null
  },
  {
    "stopName": "Jayshukan Apartments",
    "stopCode": 3367,
    "stationCode": 1778,
    "stopType": "MUNICIPAL_BUS",
    "shortStopName": null,
    "Position": {
      "stopLongitude": "72.663364",
      "stopLatitude": "23.044224"
    },
    "RouteCodes": null,
    "Sequence": 60,
    "routeFlow": null
  },
  {
    "stopName": "Khodiyar Mandir (Nikol)",
    "stopCode": 3368,
    "stationCode": 1888,
    "stopType": "MUNICIPAL_BUS",
    "shortStopName": null,
    "Position": {
      "stopLongitude": "72.662985",
      "stopLatitude": "23.040938"
    },
    "RouteCodes": null,
    "Sequence": 61,
    "routeFlow": null
  },
  {
    "stopName": "Har Har Gange Flats",
    "stopCode": 3369,
    "stationCode": 1651,
    "stopType": "MUNICIPAL_BUS",
    "shortStopName": null,
    "Position": {
      "stopLongitude": "72.661853",
      "stopLatitude": "23.038581"
    },
    "RouteCodes": null,
    "Sequence": 62,
    "routeFlow": null
  },
  {
    "stopName": "Ashwamegh Society (Manmohan)",
    "stopCode": 3370,
    "stationCode": 1186,
    "stopType": "MUNICIPAL_BUS",
    "shortStopName": null,
    "Position": {
      "stopLongitude": "72.662125",
      "stopLatitude": "23.035386"
    },
    "RouteCodes": null,
    "Sequence": 63,
    "routeFlow": null
  },
  {
    "stopName": "Manmohan Park",
    "stopCode": 3371,
    "stationCode": 2050,
    "stopType": "MUNICIPAL_BUS",
    "shortStopName": null,
    "Position": {
      "stopLongitude": "72.662465",
      "stopLatitude": "23.032188"
    },
    "RouteCodes": null,
    "Sequence": 64,
    "routeFlow": null
  },
  {
    "stopName": "Janatanagar (Manmohanpark)",
    "stopCode": 3372,
    "stationCode": 5077,
    "stopType": "MUNICIPAL_BUS",
    "shortStopName": null,
    "Position": {
      "stopLongitude": "72.66262",
      "stopLatitude": "23.031065"
    },
    "RouteCodes": null,
    "Sequence": 65,
    "routeFlow": null
  },
  {
    "stopName": "Mahakalimata Nu Mndir",
    "stopCode": 3373,
    "stationCode": 1997,
    "stopType": "MUNICIPAL_BUS",
    "shortStopName": null,
    "Position": {
      "stopLongitude": "72.66281",
      "stopLatitude": "23.028256"
    },
    "RouteCodes": null,
    "Sequence": 66,
    "routeFlow": null
  },
  {
    "stopName": "Odhav Approach",
    "stopCode": 3374,
    "stationCode": 2258,
    "stopType": "MUNICIPAL_BUS",
    "shortStopName": null,
    "Position": {
      "stopLongitude": "72.663555",
      "stopLatitude": "23.024148"
    },
    "RouteCodes": null,
    "Sequence": 68,
    "routeFlow": null
  },
  {
    "stopName": "Rabari Colony",
    "stopCode": 3375,
    "stationCode": 5075,
    "stopType": "MUNICIPAL_BUS",
    "shortStopName": null,
    "Position": {
      "stopLongitude": "72.649091",
      "stopLatitude": "23.022045"
    },
    "RouteCodes": null,
    "Sequence": 72,
    "routeFlow": null
  },
  {
    "stopName": "Sonini Chali",
    "stopCode": 3376,
    "stationCode": 2833,
    "stopType": "MUNICIPAL_BUS",
    "shortStopName": null,
    "Position": {
      "stopLongitude": "72.638358",
      "stopLatitude": "23.020518"
    },
    "RouteCodes": null,
    "Sequence": 75,
    "routeFlow": null
  },
  {
    "stopName": "I.T.I. Approach",
    "stopCode": 4037,
    "stationCode": 1700,
    "stopType": "MUNICIPAL_BUS",
    "shortStopName": null,
    "Position": {
      "stopLongitude": "72.647776",
      "stopLatitude": "23.08612"
    },
    "RouteCodes": null,
    "Sequence": 30,
    "routeFlow": null
  },
  {
    "stopName": "Krishna Park",
    "stopCode": 4038,
    "stationCode": 1911,
    "stopType": "MUNICIPAL_BUS",
    "shortStopName": null,
    "Position": {
      "stopLongitude": "72.649696",
      "stopLatitude": "23.083923"
    },
    "RouteCodes": null,
    "Sequence": 31,
    "routeFlow": null
  },
  {
    "stopName": "Panchkuva",
    "stopCode": 4091,
    "stationCode": 5020,
    "stopType": "MUNICIPAL_BUS",
    "shortStopName": null,
    "Position": {
      "stopLongitude": "72.597568",
      "stopLatitude": "23.025312"
    },
    "RouteCodes": null,
    "Sequence": 2,
    "routeFlow": null
  },
  {
    "stopName": "Shaher Kotda",
    "stopCode": 4092,
    "stationCode": 5021,
    "stopType": "MUNICIPAL_BUS",
    "shortStopName": null,
    "Position": {
      "stopLongitude": "72.598991",
      "stopLatitude": "23.026296"
    },
    "RouteCodes": null,
    "Sequence": 3,
    "routeFlow": null
  },
  {
    "stopName": "Haridarshan Char Rasta",
    "stopCode": 5536,
    "stationCode": 1654,
    "stopType": "MUNICIPAL_BUS",
    "shortStopName": null,
    "Position": {
      "stopLongitude": "72.672955",
      "stopLatitude": "23.069786"
    },
    "RouteCodes": null,
    "Sequence": 43,
    "routeFlow": null
  },
  {
    "stopName": "Vanijya Bhavan",
    "stopCode": 8339,
    "stationCode": 7275,
    "stopType": "MUNICIPAL_BUS",
    "shortStopName": null,
    "Position": {
      "stopLongitude": "72.600683",
      "stopLatitude": "23.01159"
    },
    "RouteCodes": null,
    "Sequence": 90,
    "routeFlow": null
  },
  {
    "stopName": "Hirabhai Market",
    "stopCode": 8341,
    "stationCode": 7276,
    "stopType": "MUNICIPAL_BUS",
    "shortStopName": null,
    "Position": {
      "stopLongitude": "72.60028",
      "stopLatitude": "23.015069"
    },
    "RouteCodes": null,
    "Sequence": 91,
    "routeFlow": null
  },
  {
    "stopName": "Saujanya Apartment",
    "stopCode": 8344,
    "stationCode": 7277,
    "stopType": "MUNICIPAL_BUS",
    "shortStopName": null,
    "Position": {
      "stopLongitude": "72.616276",
      "stopLatitude": "23.009429"
    },
    "RouteCodes": null,
    "Sequence": 84,
    "routeFlow": null
  },
  {
    "stopName": "Sukhramnagar Pani ni Tanki",
    "stopCode": 8465,
    "stationCode": 6017,
    "stopType": "MUNICIPAL_BUS",
    "shortStopName": null,
    "Position": {
      "stopLongitude": "72.618507",
      "stopLatitude": "23.013133"
    },
    "RouteCodes": null,
    "Sequence": 82,
    "routeFlow": null
  },
  {
    "stopName": "Ashima Group",
    "stopCode": 8496,
    "stationCode": 6028,
    "stopType": "MUNICIPAL_BUS",
    "shortStopName": null,
    "Position": {
      "stopLongitude": "72.614577",
      "stopLatitude": "23.007734"
    },
    "RouteCodes": null,
    "Sequence": 85,
    "routeFlow": null
  },
  {
    "stopName": "New Cotton Mill",
    "stopCode": 8498,
    "stationCode": 6029,
    "stopType": "MUNICIPAL_BUS",
    "shortStopName": null,
    "Position": {
      "stopLongitude": "72.616946",
      "stopLatitude": "23.010728"
    },
    "RouteCodes": null,
    "Sequence": 83,
    "routeFlow": null
  },
  {
    "stopName": "Rakhiyal",
    "stopCode": 8958,
    "stationCode": 6223,
    "stopType": "MUNICIPAL_BUS",
    "shortStopName": null,
    "Position": {
      "stopLongitude": "72.619907",
      "stopLatitude": "23.022096"
    },
    "RouteCodes": null,
    "Sequence": 79,
    "routeFlow": null
  },
  {
    "stopName": "Odhav Guj.Mun.School",
    "stopCode": 8980,
    "stationCode": 6234,
    "stopType": "MUNICIPAL_BUS",
    "shortStopName": null,
    "Position": {
      "stopLongitude": "72.663625",
      "stopLatitude": "23.026966"
    },
    "RouteCodes": null,
    "Sequence": 67,
    "routeFlow": null
  },
  {
    "stopName": "Government Quarters (Gomtipur)",
    "stopCode": 9195,
    "stationCode": 1596,
    "stopType": "MUNICIPAL_BUS",
    "shortStopName": null,
    "Position": {
      "stopLongitude": "72.620077",
      "stopLatitude": "23.017456"
    },
    "RouteCodes": null,
    "Sequence": 81,
    "routeFlow": null
  },
  {
    "stopName": "Arbuda Mills",
    "stopCode": 9197,
    "stationCode": 6333,
    "stopType": "MUNICIPAL_BUS",
    "shortStopName": null,
    "Position": {
      "stopLongitude": "72.620211",
      "stopLatitude": "23.020014"
    },
    "RouteCodes": null,
    "Sequence": 80,
    "routeFlow": null
  },
  {
    "stopName": "Radhe Tenament & Bunglows",
    "stopCode": 9340,
    "stationCode": 6402,
    "stopType": "MUNICIPAL_BUS",
    "shortStopName": null,
    "Position": {
      "stopLongitude": "72.675695",
      "stopLatitude": "23.069383"
    },
    "RouteCodes": null,
    "Sequence": 44,
    "routeFlow": null
  },
  {
    "stopName": "Vedant Bunglows",
    "stopCode": 9342,
    "stationCode": 6403,
    "stopType": "MUNICIPAL_BUS",
    "shortStopName": null,
    "Position": {
      "stopLongitude": "72.676374",
      "stopLatitude": "23.066545"
    },
    "RouteCodes": null,
    "Sequence": 45,
    "routeFlow": null
  },
  {
    "stopName": "Tapi Apartment",
    "stopCode": 9344,
    "stationCode": 6404,
    "stopType": "MUNICIPAL_BUS",
    "shortStopName": null,
    "Position": {
      "stopLongitude": "72.676674",
      "stopLatitude": "23.06537"
    },
    "RouteCodes": null,
    "Sequence": 46,
    "routeFlow": null
  },
  {
    "stopName": "Fortune Circle",
    "stopCode": 9346,
    "stationCode": 6405,
    "stopType": "MUNICIPAL_BUS",
    "shortStopName": null,
    "Position": {
      "stopLongitude": "72.676964",
      "stopLatitude": "23.064122"
    },
    "RouteCodes": null,
    "Sequence": 47,
    "routeFlow": null
  },
  {
    "stopName": "Satav-3",
    "stopCode": 9348,
    "stationCode": 6406,
    "stopType": "MUNICIPAL_BUS",
    "shortStopName": null,
    "Position": {
      "stopLongitude": "72.673286",
      "stopLatitude": "23.064453"
    },
    "RouteCodes": null,
    "Sequence": 48,
    "routeFlow": null
  }
]