[
  {
    "stopName": "Kalapinagar",
    "stopCode": 1100,
    "stationCode": 1827,
    "stopType": "MUNICIPAL_BUS",
    "shortStopName": null,
    "Position": {
      "stopLongitude": "72.61793",
      "stopLatitude": "23.051725"
    },
    "RouteCodes": null,
    "Sequence": 1,
    "routeFlow": "LINESTRING (72.61791 23.05175, 72.61692 23.05122, 72.61599 23.05067, 72.61568 23.0505, 72.61568 23.0505, 72.61538 23.05034, 72.61452 23.04981, 72.61409 23.0496, 72.61393 23.04976, 72.61393 23.04976, 72.61292 23.05092, 72.61259 23.05126, 72.61259 23.05126, 72.61237 23.05148, 72.61231 23.05144, 72.61158 23.05098, 72.61086 23.0506, 72.61085 23.0506, 72.61048 23.05042, 72.60995 23.05021, 72.60949 23.05009, 72.60926 23.05009, 72.60903 23.05013, 72.60887 23.05018, 72.60876 23.04986, 72.60876 23.04986, 72.60834 23.04878, 72.60833 23.04871, 72.60794 23.04873, 72.60794 23.04873, 72.60642 23.04884, 72.60642 23.04884, 72.60574 23.04889, 72.60388 23.04913, 72.60256 23.04928, 72.60256 23.04928, 72.60172 23.0494, 72.60154 23.04944, 72.6015 23.04928, 72.60148 23.04881, 72.60144 23.04756, 72.60144 23.04756, 72.60142 23.04694, 72.60139 23.04689, 72.60144 23.04545, 72.60145 23.04526, 72.60147 23.04409, 72.60147 23.04409, 72.60148 23.04386, 72.60145 23.043, 72.60144 23.04268, 72.60141 23.04245, 72.6014 23.04237, 72.6014 23.04237, 72.60135 23.04222, 72.60116 23.04184, 72.60081 23.04114, 72.60073 23.04103, 72.60073 23.04103, 72.60053 23.04075, 72.6002 23.04006, 72.60004 23.03959, 72.60001 23.03942, 72.59998 23.03907, 72.59988 23.03909, 72.59895 23.03926, 72.59805 23.03952, 72.5972 23.03985, 72.59698 23.03989, 72.59678 23.03994, 72.59675 23.03992, 72.59672 23.03991, 72.59669 23.0399, 72.59667 23.03981, 72.59672 23.03909, 72.59677 23.03884, 72.59677 23.03884, 72.59705 23.03733, 72.59735 23.03613, 72.59737 23.03606, 72.59737 23.03606, 72.59751 23.03542, 72.59752 23.03529, 72.5975 23.03509, 72.59756 23.03502, 72.5976 23.03491, 72.59763 23.03477, 72.5976 23.03469, 72.59777 23.03405, 72.59801 23.03317, 72.59826 23.03228, 72.59833 23.03207, 72.59872 23.03126, 72.5988 23.03109, 72.59939 23.03124, 72.60013 23.03139, 72.60024 23.03134, 72.6003 23.03124, 72.60033 23.03077, 72.60032 23.03024, 72.60032 23.03024, 72.60029 23.02871, 72.60029 23.02871, 72.6003 23.02721, 72.60029 23.02623, 72.60024 23.02532, 72.60013 23.02486, 72.59995 23.02459, 72.59925 23.02349)"
  },
  {
    "stopName": "Chamanpura Housing Colony",
    "stopCode": 1101,
    "stationCode": 1347,
    "stopType": "MUNICIPAL_BUS",
    "shortStopName": null,
    "Position": {
      "stopLongitude": "72.615705",
      "stopLatitude": "23.050461"
    },
    "RouteCodes": null,
    "Sequence": 2,
    "routeFlow": null
  },
  {
    "stopName": "Rohidasnagar",
    "stopCode": 1102,
    "stationCode": 2509,
    "stopType": "MUNICIPAL_BUS",
    "shortStopName": null,
    "Position": {
      "stopLongitude": "72.613943",
      "stopLatitude": "23.049776"
    },
    "RouteCodes": null,
    "Sequence": 3,
    "routeFlow": null
  },
  {
    "stopName": "Umiyanagar",
    "stopCode": 1103,
    "stationCode": 2970,
    "stopType": "MUNICIPAL_BUS",
    "shortStopName": null,
    "Position": {
      "stopLongitude": "72.612587",
      "stopLatitude": "23.051256"
    },
    "RouteCodes": null,
    "Sequence": 4,
    "routeFlow": null
  },
  {
    "stopName": "Mukhini Chali",
    "stopCode": 1104,
    "stationCode": 2106,
    "stopType": "MUNICIPAL_BUS",
    "shortStopName": null,
    "Position": {
      "stopLongitude": "72.610868",
      "stopLatitude": "23.050575"
    },
    "RouteCodes": null,
    "Sequence": 5,
    "routeFlow": null
  },
  {
    "stopName": "M.L.A. Quarters",
    "stopCode": 1105,
    "stationCode": 1978,
    "stopType": "MUNICIPAL_BUS",
    "shortStopName": null,
    "Position": {
      "stopLongitude": "72.608781",
      "stopLatitude": "23.04986"
    },
    "RouteCodes": null,
    "Sequence": 6,
    "routeFlow": null
  },
  {
    "stopName": "Civil Hospital",
    "stopCode": 1110,
    "stationCode": 1398,
    "stopType": "MUNICIPAL_BUS",
    "shortStopName": null,
    "Position": {
      "stopLongitude": "72.602565",
      "stopLatitude": "23.049305"
    },
    "RouteCodes": null,
    "Sequence": 9,
    "routeFlow": null
  },
  {
    "stopName": "Baliya Limbdi",
    "stopCode": 1111,
    "stationCode": 1231,
    "stopType": "MUNICIPAL_BUS",
    "shortStopName": null,
    "Position": {
      "stopLongitude": "72.601455",
      "stopLatitude": "23.04756"
    },
    "RouteCodes": null,
    "Sequence": 10,
    "routeFlow": null
  },
  {
    "stopName": "Prem Darwaja",
    "stopCode": 1116,
    "stationCode": 2378,
    "stopType": "MUNICIPAL_BUS",
    "shortStopName": null,
    "Position": {
      "stopLongitude": "72.5974",
      "stopLatitude": "23.036065"
    },
    "RouteCodes": null,
    "Sequence": 15,
    "routeFlow": null
  },
  {
    "stopName": "Cancer Hospital",
    "stopCode": 1254,
    "stationCode": 1334,
    "stopType": "MUNICIPAL_BUS",
    "shortStopName": null,
    "Position": {
      "stopLongitude": "72.606425",
      "stopLatitude": "23.048853"
    },
    "RouteCodes": null,
    "Sequence": 8,
    "routeFlow": null
  },
  {
    "stopName": "Kalupur Terminus",
    "stopCode": 1715,
    "stationCode": 1840,
    "stopType": "MUNICIPAL_BUS",
    "shortStopName": null,
    "Position": {
      "stopLongitude": "72.600373",
      "stopLatitude": "23.030241"
    },
    "RouteCodes": null,
    "Sequence": 16,
    "routeFlow": null
  },
  {
    "stopName": "Sarangpur",
    "stopCode": 1844,
    "stationCode": 2593,
    "stopType": "MUNICIPAL_BUS",
    "shortStopName": null,
    "Position": {
      "stopLongitude": "72.5993",
      "stopLatitude": "23.023465"
    },
    "RouteCodes": null,
    "Sequence": 18,
    "routeFlow": null
  },
  {
    "stopName": "Idga Chowki",
    "stopCode": 1966,
    "stationCode": 1703,
    "stopType": "MUNICIPAL_BUS",
    "shortStopName": null,
    "Position": {
      "stopLongitude": "72.596776",
      "stopLatitude": "23.03884"
    },
    "RouteCodes": null,
    "Sequence": 14,
    "routeFlow": null
  },
  {
    "stopName": "Kalupur",
    "stopCode": 2274,
    "stationCode": 1836,
    "stopType": "MUNICIPAL_BUS",
    "shortStopName": null,
    "Position": {
      "stopLongitude": "72.600313",
      "stopLatitude": "23.028706"
    },
    "RouteCodes": null,
    "Sequence": 17,
    "routeFlow": null
  },
  {
    "stopName": "Holi Chakla",
    "stopCode": 4020,
    "stationCode": 1690,
    "stopType": "MUNICIPAL_BUS",
    "shortStopName": null,
    "Position": {
      "stopLongitude": "72.607943",
      "stopLatitude": "23.048725"
    },
    "RouteCodes": null,
    "Sequence": 7,
    "routeFlow": null
  },
  {
    "stopName": "Babupura",
    "stopCode": 4860,
    "stationCode": 1213,
    "stopType": "MUNICIPAL_BUS",
    "shortStopName": null,
    "Position": {
      "stopLongitude": "72.601494",
      "stopLatitude": "23.044089"
    },
    "RouteCodes": null,
    "Sequence": 11,
    "routeFlow": null
  },
  {
    "stopName": "Haripura",
    "stopCode": 4861,
    "stationCode": 1662,
    "stopType": "MUNICIPAL_BUS",
    "shortStopName": null,
    "Position": {
      "stopLongitude": "72.601419",
      "stopLatitude": "23.042367"
    },
    "RouteCodes": null,
    "Sequence": 12,
    "routeFlow": null
  },
  {
    "stopName": "Aryoday Geening (Asarwa)",
    "stopCode": 4862,
    "stationCode": 1169,
    "stopType": "MUNICIPAL_BUS",
    "shortStopName": null,
    "Position": {
      "stopLongitude": "72.600782",
      "stopLatitude": "23.040995"
    },
    "RouteCodes": null,
    "Sequence": 13,
    "routeFlow": null
  }
]