[
  {
    "stopName": "Municipal Chal (S.T.)",
    "stopCode": 1297,
    "stationCode": 2117,
    "stopType": "MUNICIPAL_BUS",
    "shortStopName": null,
    "Position": {
      "stopLongitude": "72.58834",
      "stopLatitude": "23.01257"
    },
    "RouteCodes": null,
    "Sequence": 48,
    "routeFlow": "LINESTRING (72.52128 22.87221, 72.52154 22.87229, 72.52185 22.87248, 72.52198 22.87257, 72.5221 22.8727, 72.522283 22.872931, 72.522286 22.872935, 72.522312 22.872951, 72.52251 22.87287, 72.5229 22.87278, 72.52306 22.87279, 72.5232 22.87285, 72.52338 22.873, 72.52412 22.8735, 72.52412 22.8735, 72.52418 22.87353, 72.52508 22.87365, 72.52586 22.8737, 72.52615 22.8737, 72.52699 22.87358, 72.5274 22.87357, 72.5274 22.87357, 72.52875 22.87353, 72.52898 22.87356, 72.52976 22.87378, 72.53061 22.87416, 72.53131 22.8743, 72.53215 22.87446, 72.53215 22.87446, 72.53488 22.87492, 72.53615 22.87509, 72.53687 22.87515, 72.53687 22.87515, 72.538 22.87509, 72.53817 22.87514, 72.53831 22.87527, 72.53845 22.87548, 72.53934 22.87731, 72.53934 22.87731, 72.53984 22.87827, 72.54076 22.87943, 72.54095 22.8796, 72.54116 22.87973, 72.54191 22.88017, 72.54191 22.88017, 72.54295 22.88077, 72.543264 22.880964, 72.543265 22.880964, 72.543314 22.880976, 72.54352 22.88107, 72.54368 22.8813, 72.5437 22.88208, 72.54368 22.88264, 72.54359 22.88296, 72.54358 22.8831, 72.54364 22.88349, 72.54364 22.88349, 72.54392 22.88475, 72.54389 22.88523, 72.54363 22.88727, 72.54363 22.88751, 72.54367 22.88786, 72.54385 22.88871, 72.54389 22.88893, 72.54389 22.88893, 72.54406 22.88988, 72.54415 22.89071, 72.54415 22.89137, 72.54416 22.89262, 72.54423 22.89335, 72.54428 22.89371, 72.54428 22.89371, 72.54473 22.8974, 72.54473 22.8974, 72.54506 22.89981, 72.54506 22.89981, 72.54528 22.9016, 72.54553 22.90401, 72.5456 22.9045, 72.5456 22.9045, 72.54571 22.90533, 72.54573 22.90576, 72.54569 22.90606, 72.54553 22.9068, 72.54498 22.90916, 72.54446 22.91166, 72.54416 22.91291, 72.54406 22.91346, 72.54406 22.91346, 72.54388 22.9144, 72.54379 22.91542, 72.54379 22.91542, 72.54375 22.91621, 72.54372 22.91775, 72.54357 22.91943, 72.54344 22.92101, 72.54344 22.92101, 72.54317 22.92511, 72.54317 22.92511, 72.54314 22.92576, 72.54312 22.92612, 72.54293 22.92831, 72.54294 22.92847, 72.54297 22.92877, 72.54307 22.92886, 72.54307 22.92886, 72.54432 22.93, 72.54573 22.93124, 72.54608 22.93161, 72.54628 22.93187, 72.5463 22.9319, 72.5468 22.93275, 72.54737 22.93381, 72.54841 22.93581, 72.54841 22.93581, 72.54989 22.93856, 72.54989 22.93856, 72.55096 22.94056, 72.55096 22.94056, 72.55123 22.9411, 72.55135 22.94147, 72.55145 22.94186, 72.55151 22.94224, 72.55159 22.94331, 72.55159 22.94331, 72.55161 22.94369, 72.55147 22.94464, 72.55141 22.94503, 72.55139 22.94523, 72.55148 22.94571, 72.55205 22.94744, 72.55205 22.94744, 72.55225 22.94815, 72.55264 22.9499, 72.55317 22.95226, 72.55358 22.95407, 72.55358 22.95407, 72.55381 22.95509, 72.55381 22.95509, 72.55442 22.95782, 72.55442 22.95782, 72.55472 22.95915, 72.55492 22.96018, 72.55505 22.9607, 72.55518 22.96115, 72.55539 22.96167, 72.55568 22.96231, 72.55568 22.96231, 72.55625 22.96369, 72.55731 22.96618, 72.55782 22.96727, 72.55797 22.96763, 72.55797 22.96763, 72.55833 22.96849, 72.55893 22.96983, 72.55905 22.96999, 72.55917 22.97027, 72.55917 22.97027, 72.56002 22.97211, 72.56112 22.97476, 72.56112 22.97476, 72.56159 22.97575, 72.56199 22.97647, 72.56255 22.97763, 72.56335 22.97942, 72.56392 22.9807, 72.56466 22.98214, 72.5648 22.9824, 72.56487 22.98256, 72.56487 22.98256, 72.56599 22.98486, 72.56648 22.98565, 72.56662 22.98589, 72.56662 22.98589, 72.56741 22.98724, 72.56798 22.98818, 72.56882 22.98949, 72.56957 22.99076, 72.56985 22.99124, 72.56985 22.99124, 72.57143 22.99376, 72.57143 22.99376, 72.5718 22.99434, 72.57197 22.99455, 72.572 22.99459, 72.57249 22.99539, 72.57249 22.99539, 72.57284 22.99593, 72.57288 22.99602, 72.57289 22.99608, 72.57314 22.99647, 72.57337 22.99681, 72.57368 22.99729, 72.57368 22.99729, 72.57499 22.99946, 72.57499 22.99946, 72.5761 23.00124, 72.5761 23.00124, 72.57702 23.00275, 72.57702 23.00275, 72.5781 23.0045, 72.57834 23.00445, 72.57863 23.00446, 72.57898 23.00453, 72.57928 23.00464, 72.57942 23.0047, 72.57949 23.00539, 72.57957 23.00577, 72.57957 23.00577, 72.5797 23.00622, 72.57982 23.00649, 72.58005 23.00703, 72.58039 23.00795, 72.58057 23.00867, 72.58057 23.00867, 72.5808 23.00978, 72.58086 23.01, 72.58095 23.01021, 72.581 23.01022, 72.58123 23.01024, 72.58152 23.0103, 72.58252 23.01063, 72.58252 23.01063, 72.58369 23.01103, 72.58379 23.01105, 72.58388 23.01102, 72.5842 23.01112, 72.58468 23.01128, 72.58468 23.01128, 72.58732 23.01218, 72.58836 23.01251, 72.58836 23.01251, 72.58928 23.01282, 72.58985 23.01307, 72.59039 23.01334, 72.59117 23.01392, 72.59144 23.01405, 72.59168 23.01422, 72.59168 23.01422, 72.59212 23.01456, 72.59233 23.01479, 72.5926 23.01518, 72.59269 23.01543, 72.59273 23.01571, 72.59276 23.01638, 72.59276 23.01655, 72.59272 23.0168, 72.59269 23.01693, 72.59329 23.017, 72.59329 23.017, 72.59549 23.01739, 72.59549 23.01739, 72.59589 23.01747, 72.59657 23.01764, 72.59731 23.0179, 72.59782 23.0182, 72.59789 23.01824, 72.59789 23.01824, 72.59826 23.01848, 72.59852 23.01869, 72.59881 23.01901, 72.59906 23.01931, 72.59913 23.01942, 72.59913 23.01942, 72.59923 23.01963, 72.59929 23.01993, 72.59929 23.02022, 72.59884 23.02221)"
  },
  {
    "stopName": "S.T. Stand",
    "stopCode": 1298,
    "stationCode": 2526,
    "stopType": "MUNICIPAL_BUS",
    "shortStopName": null,
    "Position": {
      "stopLongitude": "72.591714",
      "stopLatitude": "23.014171"
    },
    "RouteCodes": null,
    "Sequence": 49,
    "routeFlow": null
  },
  {
    "stopName": "Astodiya Darwaja",
    "stopCode": 1299,
    "stationCode": 1197,
    "stopType": "MUNICIPAL_BUS",
    "shortStopName": null,
    "Position": {
      "stopLongitude": "72.593273",
      "stopLatitude": "23.01708"
    },
    "RouteCodes": null,
    "Sequence": 50,
    "routeFlow": null
  },
  {
    "stopName": "Sarangpur",
    "stopCode": 1489,
    "stationCode": 2593,
    "stopType": "MUNICIPAL_BUS",
    "shortStopName": null,
    "Position": {
      "stopLongitude": "72.598729",
      "stopLatitude": "23.022186"
    },
    "RouteCodes": null,
    "Sequence": 54,
    "routeFlow": null
  },
  {
    "stopName": "Miroli Gam",
    "stopCode": 1896,
    "stationCode": 2087,
    "stopType": "MUNICIPAL_BUS",
    "shortStopName": null,
    "Position": {
      "stopLongitude": "72.521271",
      "stopLatitude": "22.872246"
    },
    "RouteCodes": null,
    "Sequence": 1,
    "routeFlow": null
  },
  {
    "stopName": "Ravalwas",
    "stopCode": 1897,
    "stationCode": 2492,
    "stopType": "MUNICIPAL_BUS",
    "shortStopName": null,
    "Position": {
      "stopLongitude": "72.52231",
      "stopLatitude": "22.872895"
    },
    "RouteCodes": null,
    "Sequence": 2,
    "routeFlow": null
  },
  {
    "stopName": "Baliyadev Mandir (Miroli)",
    "stopCode": 1898,
    "stationCode": 1236,
    "stopType": "MUNICIPAL_BUS",
    "shortStopName": null,
    "Position": {
      "stopLongitude": "72.524115",
      "stopLatitude": "22.873506"
    },
    "RouteCodes": null,
    "Sequence": 3,
    "routeFlow": null
  },
  {
    "stopName": "Swaminarayan Paper Mills",
    "stopCode": 1899,
    "stationCode": 2896,
    "stopType": "MUNICIPAL_BUS",
    "shortStopName": null,
    "Position": {
      "stopLongitude": "72.527395",
      "stopLatitude": "22.873531"
    },
    "RouteCodes": null,
    "Sequence": 4,
    "routeFlow": null
  },
  {
    "stopName": "Kasambhaino Kuvo",
    "stopCode": 1900,
    "stationCode": 1860,
    "stopType": "MUNICIPAL_BUS",
    "shortStopName": null,
    "Position": {
      "stopLongitude": "72.532148",
      "stopLatitude": "22.874468"
    },
    "RouteCodes": null,
    "Sequence": 5,
    "routeFlow": null
  },
  {
    "stopName": "Umiya Farm",
    "stopCode": 1901,
    "stationCode": 2966,
    "stopType": "MUNICIPAL_BUS",
    "shortStopName": null,
    "Position": {
      "stopLongitude": "72.536875",
      "stopLatitude": "22.875125"
    },
    "RouteCodes": null,
    "Sequence": 6,
    "routeFlow": null
  },
  {
    "stopName": "Shivpura Lat",
    "stopCode": 1902,
    "stationCode": 2728,
    "stopType": "MUNICIPAL_BUS",
    "shortStopName": null,
    "Position": {
      "stopLongitude": "72.53929",
      "stopLatitude": "22.877333"
    },
    "RouteCodes": null,
    "Sequence": 7,
    "routeFlow": null
  },
  {
    "stopName": "Pirana Vad",
    "stopCode": 1903,
    "stationCode": 2340,
    "stopType": "MUNICIPAL_BUS",
    "shortStopName": null,
    "Position": {
      "stopLongitude": "72.541896",
      "stopLatitude": "22.880191"
    },
    "RouteCodes": null,
    "Sequence": 8,
    "routeFlow": null
  },
  {
    "stopName": "Jetalpur Cross Road",
    "stopCode": 1904,
    "stationCode": 1779,
    "stopType": "MUNICIPAL_BUS",
    "shortStopName": null,
    "Position": {
      "stopLongitude": "72.543238",
      "stopLatitude": "22.880981"
    },
    "RouteCodes": null,
    "Sequence": 9,
    "routeFlow": null
  },
  {
    "stopName": "Pirana Gam",
    "stopCode": 1905,
    "stationCode": 2338,
    "stopType": "MUNICIPAL_BUS",
    "shortStopName": null,
    "Position": {
      "stopLongitude": "72.543541",
      "stopLatitude": "22.883511"
    },
    "RouteCodes": null,
    "Sequence": 10,
    "routeFlow": null
  },
  {
    "stopName": "Gurukul",
    "stopCode": 1906,
    "stationCode": 1640,
    "stopType": "MUNICIPAL_BUS",
    "shortStopName": null,
    "Position": {
      "stopLongitude": "72.54381",
      "stopLatitude": "22.88894"
    },
    "RouteCodes": null,
    "Sequence": 11,
    "routeFlow": null
  },
  {
    "stopName": "Hempuri Lat",
    "stopCode": 1907,
    "stationCode": 1678,
    "stopType": "MUNICIPAL_BUS",
    "shortStopName": null,
    "Position": {
      "stopLongitude": "72.54417",
      "stopLatitude": "22.893721"
    },
    "RouteCodes": null,
    "Sequence": 12,
    "routeFlow": null
  },
  {
    "stopName": "Kalino Lat",
    "stopCode": 1908,
    "stationCode": 1830,
    "stopType": "MUNICIPAL_BUS",
    "shortStopName": null,
    "Position": {
      "stopLongitude": "72.54463",
      "stopLatitude": "22.897405"
    },
    "RouteCodes": null,
    "Sequence": 13,
    "routeFlow": null
  },
  {
    "stopName": "Navsari Lat",
    "stopCode": 1909,
    "stationCode": 2200,
    "stopType": "MUNICIPAL_BUS",
    "shortStopName": null,
    "Position": {
      "stopLongitude": "72.544955",
      "stopLatitude": "22.899826"
    },
    "RouteCodes": null,
    "Sequence": 14,
    "routeFlow": null
  },
  {
    "stopName": "Prerna Rice Mill",
    "stopCode": 1910,
    "stationCode": 2385,
    "stopType": "MUNICIPAL_BUS",
    "shortStopName": null,
    "Position": {
      "stopLongitude": "72.545541",
      "stopLatitude": "22.904506"
    },
    "RouteCodes": null,
    "Sequence": 15,
    "routeFlow": null
  },
  {
    "stopName": "Oad Gam",
    "stopCode": 1911,
    "stationCode": 2254,
    "stopType": "MUNICIPAL_BUS",
    "shortStopName": null,
    "Position": {
      "stopLongitude": "72.544033",
      "stopLatitude": "22.913458"
    },
    "RouteCodes": null,
    "Sequence": 16,
    "routeFlow": null
  },
  {
    "stopName": "Kutch Kadva Patidarni Vadi",
    "stopCode": 1912,
    "stationCode": 1941,
    "stopType": "MUNICIPAL_BUS",
    "shortStopName": null,
    "Position": {
      "stopLongitude": "72.543778",
      "stopLatitude": "22.91542"
    },
    "RouteCodes": null,
    "Sequence": 17,
    "routeFlow": null
  },
  {
    "stopName": "Nil Enterprice",
    "stopCode": 1913,
    "stationCode": 2223,
    "stopType": "MUNICIPAL_BUS",
    "shortStopName": null,
    "Position": {
      "stopLongitude": "72.543456",
      "stopLatitude": "22.921006"
    },
    "RouteCodes": null,
    "Sequence": 18,
    "routeFlow": null
  },
  {
    "stopName": "S.P.Ring Road",
    "stopCode": 1914,
    "stationCode": 2518,
    "stopType": "MUNICIPAL_BUS",
    "shortStopName": null,
    "Position": {
      "stopLongitude": "72.543158",
      "stopLatitude": "22.92511"
    },
    "RouteCodes": null,
    "Sequence": 19,
    "routeFlow": null
  },
  {
    "stopName": "Kamod Gam",
    "stopCode": 1915,
    "stationCode": 1849,
    "stopType": "MUNICIPAL_BUS",
    "shortStopName": null,
    "Position": {
      "stopLongitude": "72.543048",
      "stopLatitude": "22.928878"
    },
    "RouteCodes": null,
    "Sequence": 20,
    "routeFlow": null
  },
  {
    "stopName": "Indiranagar Approach",
    "stopCode": 1916,
    "stationCode": 1712,
    "stopType": "MUNICIPAL_BUS",
    "shortStopName": null,
    "Position": {
      "stopLongitude": "72.546228",
      "stopLatitude": "22.931898"
    },
    "RouteCodes": null,
    "Sequence": 21,
    "routeFlow": null
  },
  {
    "stopName": "Krishna Beverage",
    "stopCode": 1917,
    "stationCode": 1909,
    "stopType": "MUNICIPAL_BUS",
    "shortStopName": null,
    "Position": {
      "stopLongitude": "72.54836",
      "stopLatitude": "22.935831"
    },
    "RouteCodes": null,
    "Sequence": 22,
    "routeFlow": null
  },
  {
    "stopName": "Devraj Park",
    "stopCode": 1918,
    "stationCode": 1448,
    "stopType": "MUNICIPAL_BUS",
    "shortStopName": null,
    "Position": {
      "stopLongitude": "72.549833",
      "stopLatitude": "22.938586"
    },
    "RouteCodes": null,
    "Sequence": 23,
    "routeFlow": null
  },
  {
    "stopName": "Vrundavan Farm",
    "stopCode": 1919,
    "stationCode": 3083,
    "stopType": "MUNICIPAL_BUS",
    "shortStopName": null,
    "Position": {
      "stopLongitude": "72.55092",
      "stopLatitude": "22.940576"
    },
    "RouteCodes": null,
    "Sequence": 24,
    "routeFlow": null
  },
  {
    "stopName": "Bhairavnath Industries",
    "stopCode": 1920,
    "stationCode": 1270,
    "stopType": "MUNICIPAL_BUS",
    "shortStopName": null,
    "Position": {
      "stopLongitude": "72.551576",
      "stopLatitude": "22.943311"
    },
    "RouteCodes": null,
    "Sequence": 25,
    "routeFlow": null
  },
  {
    "stopName": "R.K.Industries",
    "stopCode": 1921,
    "stationCode": 2409,
    "stopType": "MUNICIPAL_BUS",
    "shortStopName": null,
    "Position": {
      "stopLongitude": "72.552048",
      "stopLatitude": "22.947443"
    },
    "RouteCodes": null,
    "Sequence": 26,
    "routeFlow": null
  },
  {
    "stopName": "Piplaj Gam",
    "stopCode": 1922,
    "stationCode": 2337,
    "stopType": "MUNICIPAL_BUS",
    "shortStopName": null,
    "Position": {
      "stopLongitude": "72.553548",
      "stopLatitude": "22.95408"
    },
    "RouteCodes": null,
    "Sequence": 27,
    "routeFlow": null
  },
  {
    "stopName": "Anjali Synthetics",
    "stopCode": 1923,
    "stationCode": 1139,
    "stopType": "MUNICIPAL_BUS",
    "shortStopName": null,
    "Position": {
      "stopLongitude": "72.553776",
      "stopLatitude": "22.955098"
    },
    "RouteCodes": null,
    "Sequence": 28,
    "routeFlow": null
  },
  {
    "stopName": "Poly Fabrics",
    "stopCode": 1924,
    "stationCode": 2348,
    "stopType": "MUNICIPAL_BUS",
    "shortStopName": null,
    "Position": {
      "stopLongitude": "72.554391",
      "stopLatitude": "22.95783"
    },
    "RouteCodes": null,
    "Sequence": 29,
    "routeFlow": null
  },
  {
    "stopName": "Saijpur-Gopalpura Patiya(Chiripal Industries)",
    "stopCode": 1925,
    "stationCode": 2553,
    "stopType": "MUNICIPAL_BUS",
    "shortStopName": null,
    "Position": {
      "stopLongitude": "72.555648",
      "stopLatitude": "22.962321"
    },
    "RouteCodes": null,
    "Sequence": 30,
    "routeFlow": null
  },
  {
    "stopName": "Popatkaka House",
    "stopCode": 1926,
    "stationCode": 2350,
    "stopType": "MUNICIPAL_BUS",
    "shortStopName": null,
    "Position": {
      "stopLongitude": "72.557918",
      "stopLatitude": "22.967648"
    },
    "RouteCodes": null,
    "Sequence": 31,
    "routeFlow": null
  },
  {
    "stopName": "Ganeshnagar",
    "stopCode": 1927,
    "stationCode": 1525,
    "stopType": "MUNICIPAL_BUS",
    "shortStopName": null,
    "Position": {
      "stopLongitude": "72.559098",
      "stopLatitude": "22.970295"
    },
    "RouteCodes": null,
    "Sequence": 32,
    "routeFlow": null
  },
  {
    "stopName": "Juna Octroinaka",
    "stopCode": 1928,
    "stationCode": 1804,
    "stopType": "MUNICIPAL_BUS",
    "shortStopName": null,
    "Position": {
      "stopLongitude": "72.561108",
      "stopLatitude": "22.974766"
    },
    "RouteCodes": null,
    "Sequence": 33,
    "routeFlow": null
  },
  {
    "stopName": "Exel Industries",
    "stopCode": 1929,
    "stationCode": 1489,
    "stopType": "MUNICIPAL_BUS",
    "shortStopName": null,
    "Position": {
      "stopLongitude": "72.564836",
      "stopLatitude": "22.98258"
    },
    "RouteCodes": null,
    "Sequence": 34,
    "routeFlow": null
  },
  {
    "stopName": "Suez Farm Approach",
    "stopCode": 1930,
    "stationCode": 2856,
    "stopType": "MUNICIPAL_BUS",
    "shortStopName": null,
    "Position": {
      "stopLongitude": "72.566555",
      "stopLatitude": "22.985928"
    },
    "RouteCodes": null,
    "Sequence": 35,
    "routeFlow": null
  },
  {
    "stopName": "Suez Farm Office",
    "stopCode": 1931,
    "stationCode": 2857,
    "stopType": "MUNICIPAL_BUS",
    "shortStopName": null,
    "Position": {
      "stopLongitude": "72.569826",
      "stopLatitude": "22.991253"
    },
    "RouteCodes": null,
    "Sequence": 36,
    "routeFlow": null
  },
  {
    "stopName": "Hawada",
    "stopCode": 1932,
    "stationCode": 1674,
    "stopType": "MUNICIPAL_BUS",
    "shortStopName": null,
    "Position": {
      "stopLongitude": "72.571401",
      "stopLatitude": "22.993773"
    },
    "RouteCodes": null,
    "Sequence": 37,
    "routeFlow": null
  },
  {
    "stopName": "National Cloth Mills",
    "stopCode": 1933,
    "stationCode": 2304,
    "stopType": "MUNICIPAL_BUS",
    "shortStopName": null,
    "Position": {
      "stopLongitude": "72.572488",
      "stopLatitude": "22.99539"
    },
    "RouteCodes": null,
    "Sequence": 39,
    "routeFlow": null
  },
  {
    "stopName": "Saranagar",
    "stopCode": 1934,
    "stationCode": 2592,
    "stopType": "MUNICIPAL_BUS",
    "shortStopName": null,
    "Position": {
      "stopLongitude": "72.573676",
      "stopLatitude": "22.997295"
    },
    "RouteCodes": null,
    "Sequence": 40,
    "routeFlow": null
  },
  {
    "stopName": "Grid Station",
    "stopCode": 1935,
    "stationCode": 1608,
    "stopType": "MUNICIPAL_BUS",
    "shortStopName": null,
    "Position": {
      "stopLongitude": "72.574966",
      "stopLatitude": "22.999471"
    },
    "RouteCodes": null,
    "Sequence": 41,
    "routeFlow": null
  },
  {
    "stopName": "Chepirog Hospital",
    "stopCode": 1936,
    "stationCode": 1375,
    "stopType": "MUNICIPAL_BUS",
    "shortStopName": null,
    "Position": {
      "stopLongitude": "72.576113",
      "stopLatitude": "23.001235"
    },
    "RouteCodes": null,
    "Sequence": 42,
    "routeFlow": null
  },
  {
    "stopName": "Pumpimg Station",
    "stopCode": 1937,
    "stationCode": 2391,
    "stopType": "MUNICIPAL_BUS",
    "shortStopName": null,
    "Position": {
      "stopLongitude": "72.577005",
      "stopLatitude": "23.002761"
    },
    "RouteCodes": null,
    "Sequence": 43,
    "routeFlow": null
  },
  {
    "stopName": "Calico Mills",
    "stopCode": 1938,
    "stationCode": 3042,
    "stopType": "MUNICIPAL_BUS",
    "shortStopName": null,
    "Position": {
      "stopLongitude": "72.579586",
      "stopLatitude": "23.005778"
    },
    "RouteCodes": null,
    "Sequence": 44,
    "routeFlow": null
  },
  {
    "stopName": "Jamalpur Darwaja",
    "stopCode": 1939,
    "stationCode": 1753,
    "stopType": "MUNICIPAL_BUS",
    "shortStopName": null,
    "Position": {
      "stopLongitude": "72.580571",
      "stopLatitude": "23.008671"
    },
    "RouteCodes": null,
    "Sequence": 45,
    "routeFlow": null
  },
  {
    "stopName": "Transport House Office",
    "stopCode": 1940,
    "stationCode": 2950,
    "stopType": "MUNICIPAL_BUS",
    "shortStopName": null,
    "Position": {
      "stopLongitude": "72.582475",
      "stopLatitude": "23.010736"
    },
    "RouteCodes": null,
    "Sequence": 46,
    "routeFlow": null
  },
  {
    "stopName": "Municipal_bus Staff Quarters",
    "stopCode": 1941,
    "stationCode": 1121,
    "stopType": "MUNICIPAL_BUS",
    "shortStopName": null,
    "Position": {
      "stopLongitude": "72.584628",
      "stopLatitude": "23.011398"
    },
    "RouteCodes": null,
    "Sequence": 47,
    "routeFlow": null
  },
  {
    "stopName": "Raipur Darwaja",
    "stopCode": 1945,
    "stationCode": 2497,
    "stopType": "MUNICIPAL_BUS",
    "shortStopName": null,
    "Position": {
      "stopLongitude": "72.595473",
      "stopLatitude": "23.017458"
    },
    "RouteCodes": null,
    "Sequence": 51,
    "routeFlow": null
  },
  {
    "stopName": "Mahipatram Ashram",
    "stopCode": 1946,
    "stationCode": 2012,
    "stopType": "MUNICIPAL_BUS",
    "shortStopName": null,
    "Position": {
      "stopLongitude": "72.597851",
      "stopLatitude": "23.018296"
    },
    "RouteCodes": null,
    "Sequence": 52,
    "routeFlow": null
  },
  {
    "stopName": "New Cloth Market",
    "stopCode": 1947,
    "stationCode": 2208,
    "stopType": "MUNICIPAL_BUS",
    "shortStopName": null,
    "Position": {
      "stopLongitude": "72.59909",
      "stopLatitude": "23.019433"
    },
    "RouteCodes": null,
    "Sequence": 53,
    "routeFlow": null
  },
  {
    "stopName": "Suez Treatment Plant",
    "stopCode": 5124,
    "stationCode": 2859,
    "stopType": "MUNICIPAL_BUS",
    "shortStopName": null,
    "Position": {
      "stopLongitude": "72.571911",
      "stopLatitude": "22.994583"
    },
    "RouteCodes": null,
    "Sequence": 38,
    "routeFlow": null
  }
]