[
  {
    "stopName": "Nobal School",
    "stopCode": 1700,
    "stationCode": 2247,
    "stopType": "MUNICIPAL_BUS",
    "shortStopName": null,
    "Position": {
      "stopLongitude": "72.647588",
      "stopLatitude": "23.054855"
    },
    "RouteCodes": null,
    "Sequence": 3,
    "routeFlow": "LINESTRING (72.65215 23.05594, 72.65209 23.05607, 72.65165 23.05614, 72.65156 23.05614, 72.65149 23.05613, 72.65123 23.05605, 72.65048 23.05592, 72.65017 23.0558, 72.64954 23.05547, 72.64954 23.05547, 72.64898 23.05513, 72.64833 23.0548, 72.64775 23.05452, 72.64768 23.05471, 72.64761 23.05486, 72.64761 23.05486, 72.64731 23.05553, 72.6467 23.05665, 72.64663 23.05672, 72.64654 23.05675, 72.64649 23.05675, 72.64649 23.05675, 72.64637 23.05674, 72.64519 23.05682, 72.64465 23.05687, 72.64315 23.05699, 72.64315 23.05699, 72.6429 23.05701, 72.642811 23.057022, 72.642773 23.056849, 72.642747 23.056605, 72.642692 23.05655, 72.642593 23.056541, 72.64252 23.05655, 72.6422 23.05659, 72.64119 23.05678, 72.64092 23.05686, 72.64092 23.05686, 72.6387 23.05748, 72.63799 23.05773, 72.63784 23.05781, 72.637465 23.058107, 72.637219 23.058318, 72.637045 23.058166, 72.636963 23.058081, 72.636919 23.05801, 72.63693 23.058, 72.63688 23.05805, 72.63666 23.05789, 72.63545 23.05706, 72.63529 23.05696, 72.63529 23.05696, 72.63437 23.05637, 72.63368 23.05595, 72.63339 23.05576, 72.63339 23.05576, 72.63221 23.05499, 72.63049 23.05388, 72.63023 23.05372, 72.62981 23.05345, 72.62981 23.05345, 72.62744 23.0519, 72.62744 23.0519, 72.62522 23.05048, 72.62522 23.05048, 72.62392 23.04963, 72.62286 23.04895, 72.62171 23.04817, 72.62171 23.04817, 72.62071 23.04755, 72.61976 23.0469, 72.61944 23.04669, 72.61944 23.04669, 72.6181 23.04581, 72.61666 23.04475, 72.61652 23.04464, 72.61652 23.04464, 72.61565 23.04399, 72.61415 23.04292, 72.61424 23.04291, 72.6142 23.04295, 72.61374 23.04261, 72.61268 23.04182, 72.61146 23.04095, 72.61101 23.04063, 72.61091 23.04055, 72.61096 23.04049, 72.6109 23.04055, 72.60894 23.03909, 72.60894 23.03909, 72.60842 23.03865, 72.60759 23.03775, 72.60759 23.03775, 72.60673 23.03673, 72.60611 23.03604, 72.60516 23.03503, 72.60516 23.03503, 72.60454 23.0344, 72.60446 23.03433, 72.60434 23.03429, 72.60335 23.0332, 72.60313 23.03302, 72.60314 23.03301, 72.60314 23.033, 72.60314 23.03299, 72.60313 23.03297, 72.60312 23.03296, 72.60307 23.03295, 72.60303 23.03297, 72.60302 23.03301, 72.60303 23.03301, 72.60303 23.03302, 72.60273 23.0331, 72.60258 23.03311, 72.6018 23.03318, 72.60113 23.03322, 72.60102 23.0332, 72.60085 23.03314, 72.60074 23.0331, 72.60052 23.03299, 72.60033 23.03284, 72.60014 23.03268, 72.59946 23.03193, 72.59913 23.0316, 72.59906 23.03154, 72.5991 23.03143, 72.59913 23.03139, 72.59917 23.03136, 72.59923 23.03132, 72.59939 23.03124, 72.60007 23.03139, 72.60013 23.03139, 72.60024 23.03134, 72.6003 23.03124, 72.60033 23.03077, 72.60032 23.03024, 72.60032 23.03024, 72.60029 23.02853, 72.6003 23.02786, 72.60029 23.02661, 72.60029 23.02623, 72.60026 23.0256, 72.60024 23.02532, 72.60018 23.02505, 72.60013 23.02486, 72.60007 23.02477, 72.59925 23.02349)"
  },
  {
    "stopName": "S.R.P.Quarters",
    "stopCode": 1701,
    "stationCode": 2525,
    "stopType": "MUNICIPAL_BUS",
    "shortStopName": null,
    "Position": {
      "stopLongitude": "72.646486",
      "stopLatitude": "23.05676"
    },
    "RouteCodes": null,
    "Sequence": 4,
    "routeFlow": null
  },
  {
    "stopName": "Krushnanagar",
    "stopCode": 1702,
    "stationCode": 1928,
    "stopType": "MUNICIPAL_BUS",
    "shortStopName": null,
    "Position": {
      "stopLongitude": "72.64315",
      "stopLatitude": "23.056983"
    },
    "RouteCodes": null,
    "Sequence": 5,
    "routeFlow": null
  },
  {
    "stopName": "Nayannagar",
    "stopCode": 1703,
    "stationCode": 2202,
    "stopType": "MUNICIPAL_BUS",
    "shortStopName": null,
    "Position": {
      "stopLongitude": "72.64091",
      "stopLatitude": "23.056835"
    },
    "RouteCodes": null,
    "Sequence": 6,
    "routeFlow": null
  },
  {
    "stopName": "G.D.High School",
    "stopCode": 1704,
    "stationCode": 1506,
    "stopType": "MUNICIPAL_BUS",
    "shortStopName": null,
    "Position": {
      "stopLongitude": "72.636901",
      "stopLatitude": "23.05798"
    },
    "RouteCodes": null,
    "Sequence": 7,
    "routeFlow": null
  },
  {
    "stopName": "Amdupura",
    "stopCode": 1712,
    "stationCode": 1116,
    "stopType": "MUNICIPAL_BUS",
    "shortStopName": null,
    "Position": {
      "stopLongitude": "72.605198",
      "stopLatitude": "23.035001"
    },
    "RouteCodes": null,
    "Sequence": 20,
    "routeFlow": null
  },
  {
    "stopName": "Kalupur Terminus",
    "stopCode": 1715,
    "stationCode": 1840,
    "stopType": "MUNICIPAL_BUS",
    "shortStopName": null,
    "Position": {
      "stopLongitude": "72.600373",
      "stopLatitude": "23.030241"
    },
    "RouteCodes": null,
    "Sequence": 21,
    "routeFlow": null
  },
  {
    "stopName": "Sarangpur",
    "stopCode": 1844,
    "stationCode": 2593,
    "stopType": "MUNICIPAL_BUS",
    "shortStopName": null,
    "Position": {
      "stopLongitude": "72.5993",
      "stopLatitude": "23.023465"
    },
    "RouteCodes": null,
    "Sequence": 22,
    "routeFlow": null
  },
  {
    "stopName": "Kubereshwar Mahadev",
    "stopCode": 3737,
    "stationCode": 1931,
    "stopType": "MUNICIPAL_BUS",
    "shortStopName": null,
    "Position": {
      "stopLongitude": "72.635281",
      "stopLatitude": "23.056976"
    },
    "RouteCodes": null,
    "Sequence": 8,
    "routeFlow": null
  },
  {
    "stopName": "Rajiv Gandhi Bhavan",
    "stopCode": 3738,
    "stationCode": 2448,
    "stopType": "MUNICIPAL_BUS",
    "shortStopName": null,
    "Position": {
      "stopLongitude": "72.633401",
      "stopLatitude": "23.05575"
    },
    "RouteCodes": null,
    "Sequence": 9,
    "routeFlow": null
  },
  {
    "stopName": "Memco",
    "stopCode": 3739,
    "stationCode": 2073,
    "stopType": "MUNICIPAL_BUS",
    "shortStopName": null,
    "Position": {
      "stopLongitude": "72.62984",
      "stopLatitude": "23.053416"
    },
    "RouteCodes": null,
    "Sequence": 10,
    "routeFlow": null
  },
  {
    "stopName": "Bansidhar Mills",
    "stopCode": 3740,
    "stationCode": 1245,
    "stopType": "MUNICIPAL_BUS",
    "shortStopName": null,
    "Position": {
      "stopLongitude": "72.627446",
      "stopLatitude": "23.051891"
    },
    "RouteCodes": null,
    "Sequence": 11,
    "routeFlow": null
  },
  {
    "stopName": "Municipal Chal (Memco)",
    "stopCode": 3741,
    "stationCode": 2116,
    "stopType": "MUNICIPAL_BUS",
    "shortStopName": null,
    "Position": {
      "stopLongitude": "72.625235",
      "stopLatitude": "23.05046"
    },
    "RouteCodes": null,
    "Sequence": 12,
    "routeFlow": null
  },
  {
    "stopName": "Vijay Mills",
    "stopCode": 3742,
    "stationCode": 3044,
    "stopType": "MUNICIPAL_BUS",
    "shortStopName": null,
    "Position": {
      "stopLongitude": "72.621715",
      "stopLatitude": "23.048161"
    },
    "RouteCodes": null,
    "Sequence": 13,
    "routeFlow": null
  },
  {
    "stopName": "Ashok Mills",
    "stopCode": 3743,
    "stationCode": 1179,
    "stopType": "MUNICIPAL_BUS",
    "shortStopName": null,
    "Position": {
      "stopLongitude": "72.61946",
      "stopLatitude": "23.046663"
    },
    "RouteCodes": null,
    "Sequence": 14,
    "routeFlow": null
  },
  {
    "stopName": "Geening Press",
    "stopCode": 3744,
    "stationCode": 1787,
    "stopType": "MUNICIPAL_BUS",
    "shortStopName": null,
    "Position": {
      "stopLongitude": "72.616541",
      "stopLatitude": "23.044616"
    },
    "RouteCodes": null,
    "Sequence": 15,
    "routeFlow": null
  },
  {
    "stopName": "Arvind Mills (Naroda)",
    "stopCode": 3745,
    "stationCode": 1165,
    "stopType": "MUNICIPAL_BUS",
    "shortStopName": null,
    "Position": {
      "stopLongitude": "72.614175",
      "stopLatitude": "23.042893"
    },
    "RouteCodes": null,
    "Sequence": 16,
    "routeFlow": null
  },
  {
    "stopName": "Chamunda",
    "stopCode": 3746,
    "stationCode": 1349,
    "stopType": "MUNICIPAL_BUS",
    "shortStopName": null,
    "Position": {
      "stopLongitude": "72.610928",
      "stopLatitude": "23.040508"
    },
    "RouteCodes": null,
    "Sequence": 17,
    "routeFlow": null
  },
  {
    "stopName": "D.R.M.Office (Swadeshi Mill)",
    "stopCode": 3747,
    "stationCode": 1410,
    "stopType": "MUNICIPAL_BUS",
    "shortStopName": null,
    "Position": {
      "stopLongitude": "72.60898",
      "stopLatitude": "23.039045"
    },
    "RouteCodes": null,
    "Sequence": 18,
    "routeFlow": null
  },
  {
    "stopName": "Parshwanath Township",
    "stopCode": 7174,
    "stationCode": 2316,
    "stopType": "MUNICIPAL_BUS",
    "shortStopName": null,
    "Position": {
      "stopLongitude": "72.652163",
      "stopLatitude": "23.055945"
    },
    "RouteCodes": null,
    "Sequence": 1,
    "routeFlow": null
  },
  {
    "stopName": "Toran Party Plot",
    "stopCode": 7175,
    "stationCode": 2945,
    "stopType": "MUNICIPAL_BUS",
    "shortStopName": null,
    "Position": {
      "stopLongitude": "72.649561",
      "stopLatitude": "23.055445"
    },
    "RouteCodes": null,
    "Sequence": 2,
    "routeFlow": null
  },
  {
    "stopName": "Kutbi Mazar (Vorano Rozo)",
    "stopCode": 8910,
    "stationCode": 1940,
    "stopType": "MUNICIPAL_BUS",
    "shortStopName": null,
    "Position": {
      "stopLongitude": "72.60761",
      "stopLatitude": "23.037738"
    },
    "RouteCodes": null,
    "Sequence": 19,
    "routeFlow": null
  }
]