[
  {
    "stopName": "Sarangpur",
    "stopCode": 1844,
    "stationCode": 2593,
    "stopType": "MUNICIPAL_BUS",
    "shortStopName": null,
    "Position": {
      "stopLongitude": "72.5993",
      "stopLatitude": "23.023465"
    },
    "RouteCodes": null,
    "Sequence": 1,
    "routeFlow": "LINESTRING (72.599269 23.023491, 72.59902 23.02311, 72.59896 23.02298, 72.59891 23.02273, 72.59896 23.0223, 72.59904 23.02197, 72.59919 23.02131, 72.59941 23.02024, 72.59942 23.01999, 72.59938 23.01967, 72.5993 23.01946, 72.59902 23.01901, 72.5989 23.01888, 72.5989 23.01888, 72.59848 23.01847, 72.59825 23.01831, 72.59772 23.01797, 72.59772 23.01797, 72.5972 23.0177, 72.59659 23.01745, 72.59626 23.01738, 72.59572 23.01727, 72.59533 23.01722, 72.59533 23.01722, 72.59484 23.01717, 72.59441 23.01708, 72.59335 23.0169, 72.59272 23.0168, 72.59139 23.01677, 72.59107 23.01671, 72.59104 23.01669, 72.59103 23.01668, 72.59105 23.01653, 72.59102 23.01626, 72.59102 23.01626, 72.59105 23.01653, 72.59102 23.01667, 72.59099 23.01667, 72.59097 23.01667, 72.59095 23.01667, 72.59087 23.0167, 72.59084 23.01672, 72.59082 23.01674, 72.59081 23.01676, 72.59061 23.0168, 72.59036 23.01689, 72.59027 23.01693, 72.59011 23.01704, 72.59001 23.01714, 72.58992 23.01724, 72.58968 23.01763, 72.58945 23.01814, 72.58933 23.01825, 72.58907 23.01838, 72.5887 23.01851, 72.5887 23.01851, 72.587 23.01913, 72.58674 23.0192, 72.58649 23.01933, 72.58636 23.01942, 72.58616 23.01959, 72.586 23.01979, 72.586 23.01979, 72.58558 23.02022, 72.58487 23.02087, 72.58461 23.02106, 72.58426 23.02123, 72.58406 23.0213, 72.5833 23.02144, 72.5833 23.02144, 72.58075 23.02185, 72.58075 23.02185, 72.57995 23.02198, 72.5796 23.02204, 72.5796 23.02212, 72.57959 23.02226, 72.57956 23.02302, 72.57949 23.02352, 72.57923 23.02351, 72.57914 23.02354, 72.57906 23.0237, 72.57904 23.02434, 72.57864 23.02437, 72.57853 23.02437, 72.57852 23.02446)"
  },
  {
    "stopName": "New Cloth Market",
    "stopCode": 1845,
    "stationCode": 2208,
    "stopType": "MUNICIPAL_BUS",
    "shortStopName": null,
    "Position": {
      "stopLongitude": "72.598915",
      "stopLatitude": "23.01886"
    },
    "RouteCodes": null,
    "Sequence": 2,
    "routeFlow": null
  },
  {
    "stopName": "Mahipatram Ashram",
    "stopCode": 1846,
    "stationCode": 2012,
    "stopType": "MUNICIPAL_BUS",
    "shortStopName": null,
    "Position": {
      "stopLongitude": "72.597764",
      "stopLatitude": "23.017908"
    },
    "RouteCodes": null,
    "Sequence": 3,
    "routeFlow": null
  },
  {
    "stopName": "Raipur Darwaja",
    "stopCode": 1847,
    "stationCode": 2497,
    "stopType": "MUNICIPAL_BUS",
    "shortStopName": null,
    "Position": {
      "stopLongitude": "72.595344",
      "stopLatitude": "23.017108"
    },
    "RouteCodes": null,
    "Sequence": 4,
    "routeFlow": null
  },
  {
    "stopName": "Astodiya Darwaja",
    "stopCode": 1848,
    "stationCode": 1197,
    "stopType": "MUNICIPAL_BUS",
    "shortStopName": null,
    "Position": {
      "stopLongitude": "72.590998",
      "stopLatitude": "23.016266"
    },
    "RouteCodes": null,
    "Sequence": 5,
    "routeFlow": null
  },
  {
    "stopName": "Astodiya Chakla",
    "stopCode": 2156,
    "stationCode": 1195,
    "stopType": "MUNICIPAL_BUS",
    "shortStopName": null,
    "Position": {
      "stopLongitude": "72.58869",
      "stopLatitude": "23.018495"
    },
    "RouteCodes": null,
    "Sequence": 6,
    "routeFlow": null
  },
  {
    "stopName": "Khamasa",
    "stopCode": 2158,
    "stationCode": 1879,
    "stopType": "MUNICIPAL_BUS",
    "shortStopName": null,
    "Position": {
      "stopLongitude": "72.583295",
      "stopLatitude": "23.021433"
    },
    "RouteCodes": null,
    "Sequence": 8,
    "routeFlow": null
  },
  {
    "stopName": "Tilakbag",
    "stopCode": 2159,
    "stationCode": 2941,
    "stopType": "MUNICIPAL_BUS",
    "shortStopName": null,
    "Position": {
      "stopLongitude": "72.580751",
      "stopLatitude": "23.021846"
    },
    "RouteCodes": null,
    "Sequence": 9,
    "routeFlow": null
  },
  {
    "stopName": "Gol Limda (Sardard Bhavan)",
    "stopCode": 3173,
    "stationCode": 1575,
    "stopType": "MUNICIPAL_BUS",
    "shortStopName": null,
    "Position": {
      "stopLongitude": "72.586031",
      "stopLatitude": "23.019815"
    },
    "RouteCodes": null,
    "Sequence": 7,
    "routeFlow": null
  },
  {
    "stopName": "Lal Darwaja",
    "stopCode": 4104,
    "stationCode": 1961,
    "stopType": "MUNICIPAL_BUS",
    "shortStopName": null,
    "Position": {
      "stopLongitude": "72.578454",
      "stopLatitude": "23.024455"
    },
    "RouteCodes": null,
    "Sequence": 10,
    "routeFlow": null
  }
]