[
  {
    "stopName": "Naroda",
    "stopCode": 1543,
    "stationCode": 2170,
    "stopType": "MUNICIPAL_BUS",
    "shortStopName": null,
    "Position": {
      "stopLongitude": "72.655876",
      "stopLatitude": "23.077186"
    },
    "RouteCodes": null,
    "Sequence": 1,
    "routeFlow": "LINESTRING (72.65615 23.07711, 72.65636 23.07776, 72.65644 23.07796, 72.65645 23.07804, 72.65661 23.07866, 72.65691 23.07966, 72.65693 23.07974, 72.65693 23.07974, 72.65708 23.08033, 72.65714 23.08078, 72.65717 23.08112, 72.65722 23.08181, 72.65725 23.08208, 72.6573 23.08235, 72.6573 23.08235, 72.65734 23.08246, 72.65737 23.08252, 72.65744 23.08247, 72.65784 23.08223, 72.658 23.08218, 72.65892 23.08158, 72.65892 23.08158, 72.65903 23.08149, 72.65921 23.08163, 72.66061 23.08267, 72.66242 23.08401, 72.6634 23.08473, 72.6634 23.08473, 72.66565 23.08641, 72.66676 23.08728, 72.66676 23.08728, 72.66845 23.08858, 72.66845 23.08858, 72.66991 23.08974, 72.67105 23.09057, 72.67173 23.09112, 72.67173 23.09112, 72.67449 23.09326, 72.67581 23.09419)"
  },
  {
    "stopName": "Naroda Road Approach",
    "stopCode": 3640,
    "stationCode": 2175,
    "stopType": "MUNICIPAL_BUS",
    "shortStopName": null,
    "Position": {
      "stopLongitude": "72.657291",
      "stopLatitude": "23.082355"
    },
    "RouteCodes": null,
    "Sequence": 3,
    "routeFlow": null
  },
  {
    "stopName": "Telephone Exchange (Naroda)",
    "stopCode": 3641,
    "stationCode": 2928,
    "stopType": "MUNICIPAL_BUS",
    "shortStopName": null,
    "Position": {
      "stopLongitude": "72.658936",
      "stopLatitude": "23.081601"
    },
    "RouteCodes": null,
    "Sequence": 4,
    "routeFlow": null
  },
  {
    "stopName": "Igarsol",
    "stopCode": 3642,
    "stationCode": 1704,
    "stopType": "MUNICIPAL_BUS",
    "shortStopName": null,
    "Position": {
      "stopLongitude": "72.663315",
      "stopLatitude": "23.084833"
    },
    "RouteCodes": null,
    "Sequence": 5,
    "routeFlow": null
  },
  {
    "stopName": "N.I.A. Hall",
    "stopCode": 3643,
    "stationCode": 2133,
    "stopType": "MUNICIPAL_BUS",
    "shortStopName": null,
    "Position": {
      "stopLongitude": "72.666703",
      "stopLatitude": "23.08734"
    },
    "RouteCodes": null,
    "Sequence": 6,
    "routeFlow": null
  },
  {
    "stopName": "Central Workshop",
    "stopCode": 3644,
    "stationCode": 1339,
    "stopType": "MUNICIPAL_BUS",
    "shortStopName": null,
    "Position": {
      "stopLongitude": "72.668388",
      "stopLatitude": "23.088653"
    },
    "RouteCodes": null,
    "Sequence": 7,
    "routeFlow": null
  },
  {
    "stopName": "Vimal (Reliance Textile)",
    "stopCode": 3645,
    "stationCode": 3048,
    "stopType": "MUNICIPAL_BUS",
    "shortStopName": null,
    "Position": {
      "stopLongitude": "72.671668",
      "stopLatitude": "23.09118"
    },
    "RouteCodes": null,
    "Sequence": 8,
    "routeFlow": null
  },
  {
    "stopName": "Naroda Industrial Township(MuthiyaGam)",
    "stopCode": 3646,
    "stationCode": 2173,
    "stopType": "MUNICIPAL_BUS",
    "shortStopName": null,
    "Position": {
      "stopLongitude": "72.675765",
      "stopLatitude": "23.094242"
    },
    "RouteCodes": null,
    "Sequence": 9,
    "routeFlow": null
  },
  {
    "stopName": "Akhand jyot foundation",
    "stopCode": 5653,
    "stationCode": 1090,
    "stopType": "MUNICIPAL_BUS",
    "shortStopName": null,
    "Position": {
      "stopLongitude": "72.656936",
      "stopLatitude": "23.079743"
    },
    "RouteCodes": null,
    "Sequence": 2,
    "routeFlow": null
  }
]