[
  {
    "stopName": "Rajratna Society",
    "stopCode": 1187,
    "stationCode": 2456,
    "stopType": "MUNICIPAL_BUS",
    "shortStopName": null,
    "Position": {
      "stopLongitude": "72.638723",
      "stopLatitude": "23.014172"
    },
    "RouteCodes": null,
    "Sequence": 24,
    "routeFlow": "LINESTRING (72.65543 23.077068, 72.65545 23.077025, 72.655818 23.076092, 72.655926 23.075907, 72.65605 23.07539, 72.6561 23.07494, 72.6561 23.07494, 72.65612 23.07477, 72.65612 23.07471, 72.65603 23.07469, 72.65594 23.07467, 72.65532 23.07447, 72.65432 23.07404, 72.65432 23.07404, 72.65392 23.07386, 72.65347 23.07366, 72.6531 23.07352, 72.6525 23.07327, 72.6524 23.07323, 72.6524 23.07323, 72.65152 23.07285, 72.65033 23.07236, 72.64996 23.0722, 72.64996 23.0722, 72.64935 23.07191, 72.64876 23.07165, 72.64867 23.07162, 72.64864 23.07162, 72.64826 23.07114, 72.64813 23.07099, 72.64813 23.07099, 72.64628 23.0688, 72.64584 23.06832, 72.64566 23.06811, 72.64566 23.06811, 72.6451 23.06746, 72.64344 23.06545, 72.64332 23.0653, 72.64325 23.06512, 72.64315 23.06489, 72.64316 23.06484, 72.64315 23.06478, 72.64313 23.06475, 72.64308 23.06472, 72.64299 23.06471, 72.64293 23.06473, 72.6429 23.06475, 72.64261 23.0645, 72.64248 23.06435, 72.64248 23.06435, 72.64101 23.06259, 72.64098 23.06261, 72.64044 23.06191, 72.63942 23.06076, 72.63923 23.06058, 72.63923 23.06058, 72.63899 23.06035, 72.6378 23.05894, 72.63746 23.05857, 72.6372 23.05833, 72.63757 23.05805, 72.63757 23.05805, 72.63784 23.05781, 72.63817 23.05767, 72.6387 23.05748, 72.63951 23.05724, 72.6408 23.05689, 72.6408 23.05689, 72.64126 23.05677, 72.64209 23.05661, 72.64261 23.05654, 72.64273 23.05653, 72.64271 23.05636, 72.64268 23.05605, 72.64268 23.05605, 72.64245 23.05388, 72.64245 23.05388, 72.64242 23.05362, 72.64212 23.05218, 72.64212 23.05218, 72.64189 23.05103, 72.64179 23.05048, 72.64177 23.05035, 72.64177 23.05035, 72.64151 23.04873, 72.64144 23.04829, 72.64135 23.04758, 72.64135 23.04758, 72.64131 23.04716, 72.64123 23.04667, 72.64108 23.04547, 72.64104 23.04523, 72.64098 23.04471, 72.64091 23.04368, 72.64062 23.04066, 72.64055 23.03991, 72.64055 23.03991, 72.64045 23.03906, 72.64039 23.03848, 72.64025 23.03757, 72.64007 23.0366, 72.64003 23.03642, 72.63945 23.03346, 72.63936 23.03269, 72.63936 23.03269, 72.63926 23.03146, 72.63913 23.03015, 72.63909 23.02965, 72.63909 23.02965, 72.63893 23.02819, 72.63888 23.0274, 72.63888 23.0274, 72.63885 23.02688, 72.63878 23.02631, 72.63854 23.02355, 72.6385 23.02233, 72.63852 23.02161, 72.63852 23.02161, 72.63853 23.02131, 72.63859 23.02072, 72.6386 23.02042, 72.63857 23.02024, 72.63853 23.01947, 72.63854 23.01865, 72.63855 23.01865, 72.63857 23.01859, 72.63865 23.01849, 72.63868 23.01823, 72.63868 23.01762, 72.63868 23.01716, 72.63869 23.015, 72.63868 23.0145, 72.6387 23.01429, 72.6387 23.01417, 72.6387 23.01415, 72.63867 23.01347, 72.63866 23.01312, 72.63868 23.01252, 72.63868 23.01228, 72.63856 23.01228, 72.63857 23.00983, 72.63857 23.00983, 72.63854 23.00924, 72.63847 23.00885, 72.63841 23.00862, 72.63815 23.00783, 72.63816 23.00783, 72.63719 23.0049, 72.63719 23.0049, 72.6364 23.00256, 72.63654 23.00252, 72.63582 23.00035, 72.63582 23.00035, 72.6356 22.99966, 72.63546 22.99967, 72.63541 22.99951, 72.63505 22.99845, 72.63478 22.99762, 72.63478 22.99762, 72.63404 22.99538, 72.63376 22.99453, 72.63346 22.99375, 72.63326 22.99333, 72.63297 22.99283, 72.63281 22.99257, 72.63246 22.99207)"
  },
  {
    "stopName": "Harbholenath Park",
    "stopCode": 1189,
    "stationCode": 1652,
    "stopType": "MUNICIPAL_BUS",
    "shortStopName": null,
    "Position": {
      "stopLongitude": "72.638631",
      "stopLatitude": "23.009831"
    },
    "RouteCodes": null,
    "Sequence": 26,
    "routeFlow": null
  },
  {
    "stopName": "Ramrajyanagar",
    "stopCode": 1190,
    "stationCode": 2475,
    "stopType": "MUNICIPAL_BUS",
    "shortStopName": null,
    "Position": {
      "stopLongitude": "72.638216",
      "stopLatitude": "23.007811"
    },
    "RouteCodes": null,
    "Sequence": 27,
    "routeFlow": null
  },
  {
    "stopName": "Naroda Gam",
    "stopCode": 1435,
    "stationCode": 2172,
    "stopType": "MUNICIPAL_BUS",
    "shortStopName": null,
    "Position": {
      "stopLongitude": "72.656173",
      "stopLatitude": "23.074948"
    },
    "RouteCodes": null,
    "Sequence": 2,
    "routeFlow": null
  },
  {
    "stopName": "Naroda",
    "stopCode": 1543,
    "stationCode": 2170,
    "stopType": "MUNICIPAL_BUS",
    "shortStopName": null,
    "Position": {
      "stopLongitude": "72.655876",
      "stopLatitude": "23.077186"
    },
    "RouteCodes": null,
    "Sequence": 1,
    "routeFlow": null
  },
  {
    "stopName": "G.D.High School",
    "stopCode": 1745,
    "stationCode": 1506,
    "stopType": "MUNICIPAL_BUS",
    "shortStopName": null,
    "Position": {
      "stopLongitude": "72.637616",
      "stopLatitude": "23.058096"
    },
    "RouteCodes": null,
    "Sequence": 11,
    "routeFlow": null
  },
  {
    "stopName": "Nayannagar",
    "stopCode": 1746,
    "stationCode": 2202,
    "stopType": "MUNICIPAL_BUS",
    "shortStopName": null,
    "Position": {
      "stopLongitude": "72.640816",
      "stopLatitude": "23.056933"
    },
    "RouteCodes": null,
    "Sequence": 12,
    "routeFlow": null
  },
  {
    "stopName": "C.T.M. Cross Road",
    "stopCode": 3087,
    "stationCode": 1326,
    "stopType": "MUNICIPAL_BUS",
    "shortStopName": null,
    "Position": {
      "stopLongitude": "72.6325",
      "stopLatitude": "22.992043"
    },
    "RouteCodes": null,
    "Sequence": 32,
    "routeFlow": null
  },
  {
    "stopName": "Arjun Complex",
    "stopCode": 3655,
    "stationCode": 1157,
    "stopType": "MUNICIPAL_BUS",
    "shortStopName": null,
    "Position": {
      "stopLongitude": "72.654338",
      "stopLatitude": "23.074008"
    },
    "RouteCodes": null,
    "Sequence": 3,
    "routeFlow": null
  },
  {
    "stopName": "Bethak (Naroda)",
    "stopCode": 3657,
    "stationCode": 1257,
    "stopType": "MUNICIPAL_BUS",
    "shortStopName": null,
    "Position": {
      "stopLongitude": "72.649975",
      "stopLatitude": "23.072178"
    },
    "RouteCodes": null,
    "Sequence": 5,
    "routeFlow": null
  },
  {
    "stopName": "Bangla",
    "stopCode": 3658,
    "stationCode": 1243,
    "stopType": "MUNICIPAL_BUS",
    "shortStopName": null,
    "Position": {
      "stopLongitude": "72.6482",
      "stopLatitude": "23.07094"
    },
    "RouteCodes": null,
    "Sequence": 6,
    "routeFlow": null
  },
  {
    "stopName": "Mayur Park (Raman Cotton Mills)",
    "stopCode": 3659,
    "stationCode": 2066,
    "stopType": "MUNICIPAL_BUS",
    "shortStopName": null,
    "Position": {
      "stopLongitude": "72.645721",
      "stopLatitude": "23.068068"
    },
    "RouteCodes": null,
    "Sequence": 7,
    "routeFlow": null
  },
  {
    "stopName": "S.T.Workshop (Naroda)",
    "stopCode": 3660,
    "stationCode": 2528,
    "stopType": "MUNICIPAL_BUS",
    "shortStopName": null,
    "Position": {
      "stopLongitude": "72.642476",
      "stopLatitude": "23.064356"
    },
    "RouteCodes": null,
    "Sequence": 8,
    "routeFlow": null
  },
  {
    "stopName": "Exise Chowki (Naroda)",
    "stopCode": 3661,
    "stationCode": 1491,
    "stopType": "MUNICIPAL_BUS",
    "shortStopName": null,
    "Position": {
      "stopLongitude": "72.641011",
      "stopLatitude": "23.062588"
    },
    "RouteCodes": null,
    "Sequence": 9,
    "routeFlow": null
  },
  {
    "stopName": "Saijpur",
    "stopCode": 3662,
    "stationCode": 2552,
    "stopType": "MUNICIPAL_BUS",
    "shortStopName": null,
    "Position": {
      "stopLongitude": "72.639272",
      "stopLatitude": "23.060548"
    },
    "RouteCodes": null,
    "Sequence": 10,
    "routeFlow": null
  },
  {
    "stopName": "Krushnanagar",
    "stopCode": 3663,
    "stationCode": 1928,
    "stopType": "MUNICIPAL_BUS",
    "shortStopName": null,
    "Position": {
      "stopLongitude": "72.642738",
      "stopLatitude": "23.056048"
    },
    "RouteCodes": null,
    "Sequence": 13,
    "routeFlow": null
  },
  {
    "stopName": "Priya Cinema",
    "stopCode": 3664,
    "stationCode": 2390,
    "stopType": "MUNICIPAL_BUS",
    "shortStopName": null,
    "Position": {
      "stopLongitude": "72.642511",
      "stopLatitude": "23.053876"
    },
    "RouteCodes": null,
    "Sequence": 14,
    "routeFlow": null
  },
  {
    "stopName": "Mahavirnagar (Bajarangbapu Ashram)",
    "stopCode": 3665,
    "stationCode": 2008,
    "stopType": "MUNICIPAL_BUS",
    "shortStopName": null,
    "Position": {
      "stopLongitude": "72.641398",
      "stopLatitude": "23.04758"
    },
    "RouteCodes": null,
    "Sequence": 17,
    "routeFlow": null
  },
  {
    "stopName": "Thakkarnagar Approach",
    "stopCode": 3666,
    "stationCode": 2935,
    "stopType": "MUNICIPAL_BUS",
    "shortStopName": null,
    "Position": {
      "stopLongitude": "72.640548",
      "stopLatitude": "23.039915"
    },
    "RouteCodes": null,
    "Sequence": 18,
    "routeFlow": null
  },
  {
    "stopName": "Khodiyarnagar (Bapunagar)",
    "stopCode": 3668,
    "stationCode": 1891,
    "stopType": "MUNICIPAL_BUS",
    "shortStopName": null,
    "Position": {
      "stopLongitude": "72.639401",
      "stopLatitude": "23.032686"
    },
    "RouteCodes": null,
    "Sequence": 19,
    "routeFlow": null
  },
  {
    "stopName": "Chamundanagar",
    "stopCode": 3669,
    "stationCode": 1350,
    "stopType": "MUNICIPAL_BUS",
    "shortStopName": null,
    "Position": {
      "stopLongitude": "72.639125",
      "stopLatitude": "23.029643"
    },
    "RouteCodes": null,
    "Sequence": 20,
    "routeFlow": null
  },
  {
    "stopName": "Municipal Zonal Office (Viratnagar)",
    "stopCode": 3670,
    "stationCode": 2129,
    "stopType": "MUNICIPAL_BUS",
    "shortStopName": null,
    "Position": {
      "stopLongitude": "72.638941",
      "stopLatitude": "23.0274"
    },
    "RouteCodes": null,
    "Sequence": 21,
    "routeFlow": null
  },
  {
    "stopName": "Soni ni Chali Cross Road",
    "stopCode": 3671,
    "stationCode": 2835,
    "stopType": "MUNICIPAL_BUS",
    "shortStopName": null,
    "Position": {
      "stopLongitude": "72.638583",
      "stopLatitude": "23.021608"
    },
    "RouteCodes": null,
    "Sequence": 22,
    "routeFlow": null
  },
  {
    "stopName": "Gauri Cinema",
    "stopCode": 3672,
    "stationCode": 1534,
    "stopType": "MUNICIPAL_BUS",
    "shortStopName": null,
    "Position": {
      "stopLongitude": "72.638581",
      "stopLatitude": "23.018648"
    },
    "RouteCodes": null,
    "Sequence": 23,
    "routeFlow": null
  },
  {
    "stopName": "Rajdeep Park",
    "stopCode": 3673,
    "stationCode": 2442,
    "stopType": "MUNICIPAL_BUS",
    "shortStopName": null,
    "Position": {
      "stopLongitude": "72.638615",
      "stopLatitude": "23.01228"
    },
    "RouteCodes": null,
    "Sequence": 25,
    "routeFlow": null
  },
  {
    "stopName": "Rabari Colony",
    "stopCode": 3674,
    "stationCode": 2412,
    "stopType": "MUNICIPAL_BUS",
    "shortStopName": null,
    "Position": {
      "stopLongitude": "72.637189",
      "stopLatitude": "23.004898"
    },
    "RouteCodes": null,
    "Sequence": 28,
    "routeFlow": null
  },
  {
    "stopName": "Ajay Tenaments",
    "stopCode": 3675,
    "stationCode": 1083,
    "stopType": "MUNICIPAL_BUS",
    "shortStopName": null,
    "Position": {
      "stopLongitude": "72.636466",
      "stopLatitude": "23.002546"
    },
    "RouteCodes": null,
    "Sequence": 29,
    "routeFlow": null
  },
  {
    "stopName": "Kailas Colony",
    "stopCode": 3676,
    "stationCode": 1819,
    "stopType": "MUNICIPAL_BUS",
    "shortStopName": null,
    "Position": {
      "stopLongitude": "72.634846",
      "stopLatitude": "22.997601"
    },
    "RouteCodes": null,
    "Sequence": 31,
    "routeFlow": null
  },
  {
    "stopName": "Krushna gokul society",
    "stopCode": 3825,
    "stationCode": 1922,
    "stopType": "MUNICIPAL_BUS",
    "shortStopName": null,
    "Position": {
      "stopLongitude": "72.64216",
      "stopLatitude": "23.052173"
    },
    "RouteCodes": null,
    "Sequence": 15,
    "routeFlow": null
  },
  {
    "stopName": "Kevdani Chali (Priya Cinema)",
    "stopCode": 3827,
    "stationCode": 1877,
    "stopType": "MUNICIPAL_BUS",
    "shortStopName": null,
    "Position": {
      "stopLongitude": "72.641825",
      "stopLatitude": "23.05034"
    },
    "RouteCodes": null,
    "Sequence": 16,
    "routeFlow": null
  },
  {
    "stopName": "Jogeshwari Society",
    "stopCode": 4327,
    "stationCode": 1797,
    "stopType": "MUNICIPAL_BUS",
    "shortStopName": null,
    "Position": {
      "stopLongitude": "72.635821",
      "stopLatitude": "23.00035"
    },
    "RouteCodes": null,
    "Sequence": 30,
    "routeFlow": null
  },
  {
    "stopName": "Narannagar",
    "stopCode": 5721,
    "stationCode": 2153,
    "stopType": "MUNICIPAL_BUS",
    "shortStopName": null,
    "Position": {
      "stopLongitude": "72.652395",
      "stopLatitude": "23.073241"
    },
    "RouteCodes": null,
    "Sequence": 4,
    "routeFlow": null
  }
]