[
  {
    "stopName": "Gujarat University",
    "stopCode": 1051,
    "stationCode": 1625,
    "stopType": "MUNICIPAL_BUS",
    "shortStopName": null,
    "Position": {
      "stopLongitude": "72.548851",
      "stopLatitude": "23.034453"
    },
    "RouteCodes": null,
    "Sequence": 45,
    "routeFlow": "LINESTRING (72.662 23.0324, 72.66111 23.03213, 72.66084 23.03208, 72.66019 23.03207, 72.65951 23.0321, 72.65933 23.03211, 72.65884 23.0321, 72.65826 23.03208, 72.65826 23.03208, 72.65664 23.03204, 72.65664 23.03204, 72.65485 23.03198, 72.65471 23.03197, 72.65471 23.03197, 72.65383 23.03188, 72.65338 23.03182, 72.65306 23.03176, 72.65204 23.03147, 72.65183 23.03142, 72.65183 23.03142, 72.65077 23.03116, 72.6506 23.03116, 72.64981 23.03093, 72.64899 23.03065, 72.64886 23.0306, 72.6486 23.03057, 72.6484 23.03055, 72.6484 23.03054, 72.64839 23.03053, 72.64837 23.03051, 72.64833 23.0305, 72.64827 23.03053, 72.64826 23.03054, 72.64797 23.03048, 72.64797 23.03048, 72.64728 23.03032, 72.6467 23.03012, 72.64634 23.02997, 72.64634 23.02997, 72.64489 23.02936, 72.6441 23.02913, 72.6441 23.02913, 72.64357 23.02896, 72.6424 23.02859, 72.64218 23.02852, 72.64194 23.02838, 72.64099 23.02775, 72.64099 23.02775, 72.64055 23.02751, 72.64011 23.02731, 72.63952 23.0271, 72.63952 23.0271, 72.63901 23.02694, 72.63885 23.02688, 72.63882 23.02663, 72.63876 23.02612, 72.63858 23.02411, 72.63851 23.02301, 72.6385 23.02233, 72.63851 23.02195, 72.63852 23.02165, 72.63852 23.02165, 72.63853 23.02131, 72.63859 23.02072, 72.6386 23.02042, 72.63857 23.02024, 72.63853 23.01947, 72.63834 23.01946, 72.63829 23.02038, 72.6376 23.02032, 72.63601 23.0201, 72.63592 23.02014, 72.63503 23.02, 72.63418 23.02, 72.63318 23.02002, 72.63318 23.02002, 72.63276 23.02002, 72.63275 23.02, 72.63271 23.01995, 72.63265 23.01993, 72.63259 23.01993, 72.63253 23.01996, 72.6325 23.02, 72.63226 23.02002, 72.63118 23.02003, 72.62938 23.02007, 72.62938 23.02007, 72.6288 23.02008, 72.62843 23.02011, 72.62797 23.02016, 72.62742 23.02025, 72.62704 23.02034, 72.62643 23.02053, 72.62628 23.02058, 72.62628 23.02058, 72.62435 23.02112, 72.62378 23.02132, 72.62246 23.02172, 72.62083 23.02214, 72.62052 23.02218, 72.62019 23.02218, 72.61987 23.02217, 72.61986 23.0221, 72.61986 23.0221, 72.61987 23.02217, 72.61977 23.02216, 72.61891 23.02216, 72.61832 23.02215, 72.61832 23.02213, 72.61792 23.02212, 72.61675 23.02214, 72.61602 23.02212, 72.61602 23.02212, 72.61419 23.02211, 72.61389 23.02209, 72.61247 23.02184, 72.61192 23.02172, 72.61192 23.02172, 72.60954 23.0212, 72.60954 23.0212, 72.609233 23.021118, 72.60841 23.02092, 72.60841 23.02092, 72.60823 23.02094, 72.60794 23.02088, 72.60777 23.02085, 72.60742 23.02079, 72.607 23.02067, 72.6062 23.02057, 72.60604 23.02057, 72.60595 23.02056, 72.60602 23.02031, 72.60562 23.02032, 72.60553 23.02034, 72.605527 23.020362, 72.60513 23.02047, 72.60311 23.02052, 72.6028 23.02054, 72.60251 23.0206, 72.60186 23.02079, 72.60148 23.02093, 72.60111 23.02112, 72.59906 23.02226, 72.59896 23.0223, 72.59881 23.02232, 72.5987 23.02233, 72.59864 23.02237, 72.598473 23.022551, 72.5985 23.02252, 72.598545 23.022633, 72.598533 23.022939, 72.598535 23.023094, 72.59858 23.02322, 72.59861 23.02324, 72.59866 23.02327, 72.59878 23.02331, 72.59887 23.02334, 72.59892 23.0233, 72.59901 23.02323, 72.59906 23.02317, 72.59899 23.02305, 72.59893 23.0229, 72.59891 23.02273, 72.59896 23.0223, 72.59915 23.02148, 72.59924 23.02106, 72.59939 23.02037, 72.59942 23.02011, 72.59941 23.01983, 72.59935 23.01958, 72.59927 23.01939, 72.59902 23.01901, 72.59889 23.01887, 72.5989 23.01888, 72.59848 23.01847, 72.59825 23.01831, 72.59772 23.01797, 72.59772 23.01797, 72.5972 23.0177, 72.59659 23.01745, 72.59626 23.01738, 72.59572 23.01727, 72.59533 23.01722, 72.59533 23.01722, 72.59484 23.01717, 72.59441 23.01708, 72.59335 23.0169, 72.59272 23.0168, 72.59139 23.01677, 72.59107 23.01671, 72.59104 23.01669, 72.59103 23.01668, 72.59105 23.01653, 72.59102 23.01626, 72.59102 23.01626, 72.59096 23.01583, 72.59098 23.01544, 72.59116 23.01451, 72.59121 23.01432, 72.59121 23.01432, 72.59132 23.01392, 72.5905 23.01331, 72.59013 23.01311, 72.58976 23.01292, 72.58925 23.01271, 72.5885 23.01246, 72.5885 23.01246, 72.58809 23.01232, 72.58733 23.01207, 72.58474 23.01122, 72.58474 23.01122, 72.58311 23.01069, 72.58125 23.0101, 72.58101 23.01006, 72.5808 23.01005, 72.58041 23.01008, 72.57959 23.01024, 72.57797 23.01061, 72.57782 23.01064, 72.57782 23.01064, 72.57655 23.01085, 72.57603 23.01094, 72.5723 23.01157, 72.57115 23.01178, 72.56941 23.01228, 72.56889 23.0124, 72.56802 23.01271, 72.56802 23.01271, 72.5662 23.01347, 72.56548 23.01385, 72.56503 23.01412, 72.56452 23.0134, 72.56452 23.0134, 72.56373 23.01227, 72.56337 23.01164, 72.56337 23.01164, 72.56312 23.01113, 72.56309 23.01107, 72.56297 23.01114, 72.56269 23.01132, 72.56226 23.01164, 72.56198 23.01188, 72.56168 23.01213, 72.56101 23.0127, 72.56101 23.0127, 72.56036 23.01328, 72.55961 23.01409, 72.55961 23.01409, 72.5594 23.01433, 72.55902 23.01484, 72.55892 23.01497, 72.55864 23.01548, 72.55848 23.0158, 72.55834 23.01617, 72.55816 23.01673, 72.55805 23.01711, 72.55766 23.0187, 72.55741 23.01959, 72.55724 23.02017, 72.557 23.02079, 72.557 23.02079, 72.55648 23.02195, 72.55619 23.02243, 72.55615 23.02245, 72.55609 23.02252, 72.55609 23.02259, 72.55611 23.02263, 72.55612 23.02263, 72.55612 23.0227, 72.55603 23.02324, 72.55603 23.02324, 72.55599 23.02361, 72.55597 23.02398, 72.55603 23.02452, 72.55613 23.02495, 72.55621 23.02518, 72.55646 23.02572, 72.55646 23.02572, 72.55693 23.02665, 72.5575 23.02776, 72.5581 23.02884, 72.5581 23.02884, 72.55873 23.02995, 72.55899 23.0304, 72.55932 23.03107, 72.55938 23.0312, 72.55938 23.0312, 72.55992 23.03241, 72.56 23.03262, 72.55967 23.03266, 72.55853 23.0328, 72.5576 23.03289, 72.55699 23.03298, 72.55679 23.03299, 72.55679 23.03299, 72.55558 23.03305, 72.55502 23.03307, 72.55502 23.03314, 72.55501 23.03327, 72.55501 23.03327, 72.55499 23.03374, 72.55386 23.03359, 72.55324 23.03347, 72.55286 23.03341, 72.55286 23.03341, 72.55028 23.03299, 72.54991 23.03291, 72.54991 23.03291, 72.54933 23.0328, 72.54911 23.03344, 72.54898 23.03391, 72.54894 23.03409, 72.54887 23.03446)"
  },
  {
    "stopName": "Tolaknagar",
    "stopCode": 1134,
    "stationCode": 2944,
    "stopType": "MUNICIPAL_BUS",
    "shortStopName": null,
    "Position": {
      "stopLongitude": "72.561046",
      "stopLatitude": "23.012741"
    },
    "RouteCodes": null,
    "Sequence": 34,
    "routeFlow": null
  },
  {
    "stopName": "Nutan Society",
    "stopCode": 1135,
    "stationCode": 2250,
    "stopType": "MUNICIPAL_BUS",
    "shortStopName": null,
    "Position": {
      "stopLongitude": "72.559551",
      "stopLatitude": "23.014041"
    },
    "RouteCodes": null,
    "Sequence": 35,
    "routeFlow": null
  },
  {
    "stopName": "Sarangpur",
    "stopCode": 1204,
    "stationCode": 2593,
    "stopType": "MUNICIPAL_BUS",
    "shortStopName": null,
    "Position": {
      "stopLongitude": "72.598497",
      "stopLatitude": "23.022515"
    },
    "RouteCodes": null,
    "Sequence": 22,
    "routeFlow": null
  },
  {
    "stopName": "Calico Colony",
    "stopCode": 1344,
    "stationCode": 1331,
    "stopType": "MUNICIPAL_BUS",
    "shortStopName": null,
    "Position": {
      "stopLongitude": "72.577815",
      "stopLatitude": "23.010635"
    },
    "RouteCodes": null,
    "Sequence": 30,
    "routeFlow": null
  },
  {
    "stopName": "Paldi",
    "stopCode": 1346,
    "stationCode": 2284,
    "stopType": "MUNICIPAL_BUS",
    "shortStopName": null,
    "Position": {
      "stopLongitude": "72.564498",
      "stopLatitude": "23.01341"
    },
    "RouteCodes": null,
    "Sequence": 32,
    "routeFlow": null
  },
  {
    "stopName": "Mahalakshmi Society",
    "stopCode": 1347,
    "stationCode": 2000,
    "stopType": "MUNICIPAL_BUS",
    "shortStopName": null,
    "Position": {
      "stopLongitude": "72.563405",
      "stopLatitude": "23.011623"
    },
    "RouteCodes": null,
    "Sequence": 33,
    "routeFlow": null
  },
  {
    "stopName": "Ajit Mills",
    "stopCode": 1478,
    "stationCode": 1084,
    "stopType": "MUNICIPAL_BUS",
    "shortStopName": null,
    "Position": {
      "stopLongitude": "72.633175",
      "stopLatitude": "23.019976"
    },
    "RouteCodes": null,
    "Sequence": 12,
    "routeFlow": null
  },
  {
    "stopName": "Soma Textile (National Mills)",
    "stopCode": 1479,
    "stationCode": 2822,
    "stopType": "MUNICIPAL_BUS",
    "shortStopName": null,
    "Position": {
      "stopLongitude": "72.629376",
      "stopLatitude": "23.020053"
    },
    "RouteCodes": null,
    "Sequence": 13,
    "routeFlow": null
  },
  {
    "stopName": "Anant Mills",
    "stopCode": 1480,
    "stationCode": 1132,
    "stopType": "MUNICIPAL_BUS",
    "shortStopName": null,
    "Position": {
      "stopLongitude": "72.626268",
      "stopLatitude": "23.020535"
    },
    "RouteCodes": null,
    "Sequence": 14,
    "routeFlow": null
  },
  {
    "stopName": "Ganjifarak Mills",
    "stopCode": 1482,
    "stationCode": 1528,
    "stopType": "MUNICIPAL_BUS",
    "shortStopName": null,
    "Position": {
      "stopLongitude": "72.618321",
      "stopLatitude": "23.022143"
    },
    "RouteCodes": null,
    "Sequence": 16,
    "routeFlow": null
  },
  {
    "stopName": "Marsdon Mills",
    "stopCode": 1483,
    "stationCode": 2058,
    "stopType": "MUNICIPAL_BUS",
    "shortStopName": null,
    "Position": {
      "stopLongitude": "72.616021",
      "stopLatitude": "23.022113"
    },
    "RouteCodes": null,
    "Sequence": 17,
    "routeFlow": null
  },
  {
    "stopName": "Bombay Housing Police Line",
    "stopCode": 1485,
    "stationCode": 1319,
    "stopType": "MUNICIPAL_BUS",
    "shortStopName": null,
    "Position": {
      "stopLongitude": "72.609546",
      "stopLatitude": "23.021163"
    },
    "RouteCodes": null,
    "Sequence": 19,
    "routeFlow": null
  },
  {
    "stopName": "Hathi Khai",
    "stopCode": 1486,
    "stationCode": 1669,
    "stopType": "MUNICIPAL_BUS",
    "shortStopName": null,
    "Position": {
      "stopLongitude": "72.608411",
      "stopLatitude": "23.020918"
    },
    "RouteCodes": null,
    "Sequence": 20,
    "routeFlow": null
  },
  {
    "stopName": "Kamdar Medan",
    "stopCode": 1487,
    "stationCode": 1845,
    "stopType": "MUNICIPAL_BUS",
    "shortStopName": null,
    "Position": {
      "stopLongitude": "72.605533",
      "stopLatitude": "23.020345"
    },
    "RouteCodes": null,
    "Sequence": 21,
    "routeFlow": null
  },
  {
    "stopName": "New Cloth Market",
    "stopCode": 1845,
    "stationCode": 2208,
    "stopType": "MUNICIPAL_BUS",
    "shortStopName": null,
    "Position": {
      "stopLongitude": "72.598915",
      "stopLatitude": "23.01886"
    },
    "RouteCodes": null,
    "Sequence": 23,
    "routeFlow": null
  },
  {
    "stopName": "Mahipatram Ashram",
    "stopCode": 1846,
    "stationCode": 2012,
    "stopType": "MUNICIPAL_BUS",
    "shortStopName": null,
    "Position": {
      "stopLongitude": "72.597764",
      "stopLatitude": "23.017908"
    },
    "RouteCodes": null,
    "Sequence": 24,
    "routeFlow": null
  },
  {
    "stopName": "Raipur Darwaja",
    "stopCode": 1847,
    "stationCode": 2497,
    "stopType": "MUNICIPAL_BUS",
    "shortStopName": null,
    "Position": {
      "stopLongitude": "72.595344",
      "stopLatitude": "23.017108"
    },
    "RouteCodes": null,
    "Sequence": 25,
    "routeFlow": null
  },
  {
    "stopName": "Astodiya Darwaja",
    "stopCode": 1848,
    "stationCode": 1197,
    "stopType": "MUNICIPAL_BUS",
    "shortStopName": null,
    "Position": {
      "stopLongitude": "72.590998",
      "stopLatitude": "23.016266"
    },
    "RouteCodes": null,
    "Sequence": 26,
    "routeFlow": null
  },
  {
    "stopName": "S.T. Stand",
    "stopCode": 1849,
    "stationCode": 2526,
    "stopType": "MUNICIPAL_BUS",
    "shortStopName": null,
    "Position": {
      "stopLongitude": "72.59128",
      "stopLatitude": "23.014339"
    },
    "RouteCodes": null,
    "Sequence": 27,
    "routeFlow": null
  },
  {
    "stopName": "Municipal Chal (S.T.)",
    "stopCode": 1850,
    "stationCode": 2117,
    "stopType": "MUNICIPAL_BUS",
    "shortStopName": null,
    "Position": {
      "stopLongitude": "72.588491",
      "stopLatitude": "23.012478"
    },
    "RouteCodes": null,
    "Sequence": 28,
    "routeFlow": null
  },
  {
    "stopName": "Municipal_bus Staff Quarters",
    "stopCode": 1851,
    "stationCode": 1121,
    "stopType": "MUNICIPAL_BUS",
    "shortStopName": null,
    "Position": {
      "stopLongitude": "72.584753",
      "stopLatitude": "23.011188"
    },
    "RouteCodes": null,
    "Sequence": 29,
    "routeFlow": null
  },
  {
    "stopName": "Museum (Sanskar Kendra)",
    "stopCode": 3211,
    "stationCode": 2132,
    "stopType": "MUNICIPAL_BUS",
    "shortStopName": null,
    "Position": {
      "stopLongitude": "72.568025",
      "stopLatitude": "23.012715"
    },
    "RouteCodes": null,
    "Sequence": 31,
    "routeFlow": null
  },
  {
    "stopName": "Patel Mills",
    "stopCode": 3377,
    "stationCode": 2323,
    "stopType": "MUNICIPAL_BUS",
    "shortStopName": null,
    "Position": {
      "stopLongitude": "72.61191",
      "stopLatitude": "23.021758"
    },
    "RouteCodes": null,
    "Sequence": 18,
    "routeFlow": null
  },
  {
    "stopName": "Panchvati",
    "stopCode": 3831,
    "stationCode": 2294,
    "stopType": "MUNICIPAL_BUS",
    "shortStopName": null,
    "Position": {
      "stopLongitude": "72.55603",
      "stopLatitude": "23.023238"
    },
    "RouteCodes": null,
    "Sequence": 37,
    "routeFlow": null
  },
  {
    "stopName": "Patel Society",
    "stopCode": 3832,
    "stationCode": 2325,
    "stopType": "MUNICIPAL_BUS",
    "shortStopName": null,
    "Position": {
      "stopLongitude": "72.556496",
      "stopLatitude": "23.025701"
    },
    "RouteCodes": null,
    "Sequence": 38,
    "routeFlow": null
  },
  {
    "stopName": "Lal Bangla (Cg Road)",
    "stopCode": 3833,
    "stationCode": 1959,
    "stopType": "MUNICIPAL_BUS",
    "shortStopName": null,
    "Position": {
      "stopLongitude": "72.558105",
      "stopLatitude": "23.028833"
    },
    "RouteCodes": null,
    "Sequence": 39,
    "routeFlow": null
  },
  {
    "stopName": "St. Xaviers Corner",
    "stopCode": 3836,
    "stationCode": 2839,
    "stopType": "MUNICIPAL_BUS",
    "shortStopName": null,
    "Position": {
      "stopLongitude": "72.555008",
      "stopLatitude": "23.033266"
    },
    "RouteCodes": null,
    "Sequence": 42,
    "routeFlow": null
  },
  {
    "stopName": "St. Xaviers College",
    "stopCode": 3837,
    "stationCode": 2838,
    "stopType": "MUNICIPAL_BUS",
    "shortStopName": null,
    "Position": {
      "stopLongitude": "72.552863",
      "stopLatitude": "23.033366"
    },
    "RouteCodes": null,
    "Sequence": 43,
    "routeFlow": null
  },
  {
    "stopName": "P.W.D. Workshop",
    "stopCode": 3838,
    "stationCode": 2277,
    "stopType": "MUNICIPAL_BUS",
    "shortStopName": null,
    "Position": {
      "stopLongitude": "72.549921",
      "stopLatitude": "23.032856"
    },
    "RouteCodes": null,
    "Sequence": 44,
    "routeFlow": null
  },
  {
    "stopName": "Manmohan Park",
    "stopCode": 4231,
    "stationCode": 2050,
    "stopType": "MUNICIPAL_BUS",
    "shortStopName": null,
    "Position": {
      "stopLongitude": "72.662023",
      "stopLatitude": "23.032326"
    },
    "RouteCodes": null,
    "Sequence": 1,
    "routeFlow": null
  },
  {
    "stopName": "Varahi Prathamik School",
    "stopCode": 4405,
    "stationCode": 3011,
    "stopType": "MUNICIPAL_BUS",
    "shortStopName": null,
    "Position": {
      "stopLongitude": "72.65826",
      "stopLatitude": "23.032056"
    },
    "RouteCodes": null,
    "Sequence": 2,
    "routeFlow": null
  },
  {
    "stopName": "Viratnagar",
    "stopCode": 4406,
    "stationCode": 3058,
    "stopType": "MUNICIPAL_BUS",
    "shortStopName": null,
    "Position": {
      "stopLongitude": "72.639543",
      "stopLatitude": "23.027028"
    },
    "RouteCodes": null,
    "Sequence": 10,
    "routeFlow": null
  },
  {
    "stopName": "Sonini Chali",
    "stopCode": 4407,
    "stationCode": 2833,
    "stopType": "MUNICIPAL_BUS",
    "shortStopName": null,
    "Position": {
      "stopLongitude": "72.63858",
      "stopLatitude": "23.021656"
    },
    "RouteCodes": null,
    "Sequence": 11,
    "routeFlow": null
  },
  {
    "stopName": "Parimal Garden",
    "stopCode": 4408,
    "stationCode": 2311,
    "stopType": "MUNICIPAL_BUS",
    "shortStopName": null,
    "Position": {
      "stopLongitude": "72.556981",
      "stopLatitude": "23.020783"
    },
    "RouteCodes": null,
    "Sequence": 36,
    "routeFlow": null
  },
  {
    "stopName": "Telephone Exchange (Cg Road)",
    "stopCode": 4409,
    "stationCode": 2927,
    "stopType": "MUNICIPAL_BUS",
    "shortStopName": null,
    "Position": {
      "stopLongitude": "72.559373",
      "stopLatitude": "23.031205"
    },
    "RouteCodes": null,
    "Sequence": 40,
    "routeFlow": null
  },
  {
    "stopName": "Chakradhari Society",
    "stopCode": 4410,
    "stationCode": 1345,
    "stopType": "MUNICIPAL_BUS",
    "shortStopName": null,
    "Position": {
      "stopLongitude": "72.556788",
      "stopLatitude": "23.033018"
    },
    "RouteCodes": null,
    "Sequence": 41,
    "routeFlow": null
  },
  {
    "stopName": "Viratnagar Canal (Tapshil Society)",
    "stopCode": 4415,
    "stationCode": 3059,
    "stopType": "MUNICIPAL_BUS",
    "shortStopName": null,
    "Position": {
      "stopLongitude": "72.647968",
      "stopLatitude": "23.030488"
    },
    "RouteCodes": null,
    "Sequence": 6,
    "routeFlow": null
  },
  {
    "stopName": "Vaibhav Park",
    "stopCode": 4912,
    "stationCode": 2990,
    "stopType": "MUNICIPAL_BUS",
    "shortStopName": null,
    "Position": {
      "stopLongitude": "72.656646",
      "stopLatitude": "23.031981"
    },
    "RouteCodes": null,
    "Sequence": 3,
    "routeFlow": null
  },
  {
    "stopName": "Vinayak Park",
    "stopCode": 4913,
    "stationCode": 3052,
    "stopType": "MUNICIPAL_BUS",
    "shortStopName": null,
    "Position": {
      "stopLongitude": "72.654711",
      "stopLatitude": "23.031923"
    },
    "RouteCodes": null,
    "Sequence": 4,
    "routeFlow": null
  },
  {
    "stopName": "Gokul Park",
    "stopCode": 4914,
    "stationCode": 1572,
    "stopType": "MUNICIPAL_BUS",
    "shortStopName": null,
    "Position": {
      "stopLongitude": "72.651843",
      "stopLatitude": "23.031378"
    },
    "RouteCodes": null,
    "Sequence": 5,
    "routeFlow": null
  },
  {
    "stopName": "Swaminarayan Mandir (Viratnagar)",
    "stopCode": 4916,
    "stationCode": 2895,
    "stopType": "MUNICIPAL_BUS",
    "shortStopName": null,
    "Position": {
      "stopLongitude": "72.64411",
      "stopLatitude": "23.029068"
    },
    "RouteCodes": null,
    "Sequence": 8,
    "routeFlow": null
  },
  {
    "stopName": "Gandhi Park",
    "stopCode": 4917,
    "stationCode": 1519,
    "stopType": "MUNICIPAL_BUS",
    "shortStopName": null,
    "Position": {
      "stopLongitude": "72.641016",
      "stopLatitude": "23.027715"
    },
    "RouteCodes": null,
    "Sequence": 9,
    "routeFlow": null
  },
  {
    "stopName": "Tejendranagar",
    "stopCode": 5135,
    "stationCode": 2922,
    "stopType": "MUNICIPAL_BUS",
    "shortStopName": null,
    "Position": {
      "stopLongitude": "72.646353",
      "stopLatitude": "23.02993"
    },
    "RouteCodes": null,
    "Sequence": 7,
    "routeFlow": null
  },
  {
    "stopName": "Rakhiyal",
    "stopCode": 8958,
    "stationCode": 6223,
    "stopType": "MUNICIPAL_BUS",
    "shortStopName": null,
    "Position": {
      "stopLongitude": "72.619907",
      "stopLatitude": "23.022096"
    },
    "RouteCodes": null,
    "Sequence": 15,
    "routeFlow": null
  }
]