[
  {
    "stopName": "Khodiyarnagar (Bapunagar)",
    "stopCode": 3668,
    "stationCode": 1891,
    "stopType": "MUNICIPAL_BUS",
    "shortStopName": null,
    "Position": {
      "stopLongitude": "72.639401",
      "stopLatitude": "23.032686"
    },
    "RouteCodes": null,
    "Sequence": 3,
    "routeFlow": "LINESTRING (72.63397 23.03406, 72.63431 23.03396, 72.63485 23.03363, 72.635 23.03356, 72.63518 23.03351, 72.63586 23.03338, 72.63657 23.03332, 72.63684 23.03329, 72.63684 23.03329, 72.63805 23.03318, 72.63865 23.03318, 72.63934 23.03319, 72.63941 23.03319, 72.63936 23.03269, 72.63936 23.03269, 72.63926 23.03146, 72.63913 23.03015, 72.63909 23.02965, 72.639112 23.029637, 72.638865 23.027129, 72.63887 23.02707, 72.63886 23.02701, 72.63901 23.02704, 72.63947 23.02721, 72.63994 23.02734, 72.64025 23.02745, 72.64079 23.02772, 72.641 23.02785, 72.64115 23.02795, 72.64115 23.02795, 72.64187 23.02843, 72.64215 23.02858, 72.64239 23.02866, 72.64318 23.02892, 72.64391 23.02915, 72.64391 23.02915, 72.6449 23.02946, 72.64533 23.02962, 72.6458 23.02983, 72.64617 23.03001, 72.64617 23.03001, 72.64642 23.03012, 72.64679 23.03026, 72.6472 23.0304, 72.64749 23.03049, 72.64806 23.0306, 72.64806 23.0306, 72.64825 23.03064, 72.64826 23.03065, 72.6483 23.03066, 72.64838 23.03065, 72.64839 23.03064, 72.6486 23.03064, 72.64899 23.03065, 72.64981 23.03093, 72.6506 23.03116, 72.65073 23.03124, 72.65154 23.03145, 72.6519 23.03153, 72.6519 23.03153, 72.65289 23.03179, 72.65336 23.0319, 72.655 23.03206, 72.655 23.03206, 72.65619 23.03211, 72.65619 23.03211, 72.65866 23.03217, 72.65866 23.03217, 72.65933 23.03219, 72.65952 23.03217, 72.66009 23.03215, 72.66086 23.03216, 72.66108 23.03221, 72.662 23.03247)"
  },
  {
    "stopName": "Chamundanagar",
    "stopCode": 3669,
    "stationCode": 1350,
    "stopType": "MUNICIPAL_BUS",
    "shortStopName": null,
    "Position": {
      "stopLongitude": "72.639125",
      "stopLatitude": "23.029643"
    },
    "RouteCodes": null,
    "Sequence": 4,
    "routeFlow": null
  },
  {
    "stopName": "Manmohan Park",
    "stopCode": 4129,
    "stationCode": 2050,
    "stopType": "MUNICIPAL_BUS",
    "shortStopName": null,
    "Position": {
      "stopLongitude": "72.661983",
      "stopLatitude": "23.032553"
    },
    "RouteCodes": null,
    "Sequence": 14,
    "routeFlow": null
  },
  {
    "stopName": "Bapunagar",
    "stopCode": 4164,
    "stationCode": 1248,
    "stopType": "MUNICIPAL_BUS",
    "shortStopName": null,
    "Position": {
      "stopLongitude": "72.633975",
      "stopLatitude": "23.034078"
    },
    "RouteCodes": null,
    "Sequence": 1,
    "routeFlow": null
  },
  {
    "stopName": "Swaminarayan Mandir (Viratnagar)",
    "stopCode": 4329,
    "stationCode": 2895,
    "stopType": "MUNICIPAL_BUS",
    "shortStopName": null,
    "Position": {
      "stopLongitude": "72.643897",
      "stopLatitude": "23.02919"
    },
    "RouteCodes": null,
    "Sequence": 7,
    "routeFlow": null
  },
  {
    "stopName": "Tejendranagar",
    "stopCode": 4330,
    "stationCode": 2922,
    "stopType": "MUNICIPAL_BUS",
    "shortStopName": null,
    "Position": {
      "stopLongitude": "72.646136",
      "stopLatitude": "23.030063"
    },
    "RouteCodes": null,
    "Sequence": 8,
    "routeFlow": null
  },
  {
    "stopName": "Viratnagar Canal (Tapshil Society)",
    "stopCode": 4331,
    "stationCode": 3059,
    "stopType": "MUNICIPAL_BUS",
    "shortStopName": null,
    "Position": {
      "stopLongitude": "72.64805",
      "stopLatitude": "23.030688"
    },
    "RouteCodes": null,
    "Sequence": 9,
    "routeFlow": null
  },
  {
    "stopName": "Viratnagar",
    "stopCode": 5199,
    "stationCode": 3058,
    "stopType": "MUNICIPAL_BUS",
    "shortStopName": null,
    "Position": {
      "stopLongitude": "72.638897",
      "stopLatitude": "23.027067"
    },
    "RouteCodes": null,
    "Sequence": 5,
    "routeFlow": null
  },
  {
    "stopName": "Gandhi Park",
    "stopCode": 5200,
    "stationCode": 1519,
    "stopType": "MUNICIPAL_BUS",
    "shortStopName": null,
    "Position": {
      "stopLongitude": "72.641098",
      "stopLatitude": "23.028021"
    },
    "RouteCodes": null,
    "Sequence": 6,
    "routeFlow": null
  },
  {
    "stopName": "Mohannagar",
    "stopCode": 5205,
    "stationCode": 2090,
    "stopType": "MUNICIPAL_BUS",
    "shortStopName": null,
    "Position": {
      "stopLongitude": "72.636851",
      "stopLatitude": "23.033345"
    },
    "RouteCodes": null,
    "Sequence": 2,
    "routeFlow": null
  },
  {
    "stopName": "Gokul Park",
    "stopCode": 5206,
    "stationCode": 1572,
    "stopType": "MUNICIPAL_BUS",
    "shortStopName": null,
    "Position": {
      "stopLongitude": "72.651876",
      "stopLatitude": "23.031613"
    },
    "RouteCodes": null,
    "Sequence": 10,
    "routeFlow": null
  },
  {
    "stopName": "Vinayak Park",
    "stopCode": 5207,
    "stationCode": 3052,
    "stopType": "MUNICIPAL_BUS",
    "shortStopName": null,
    "Position": {
      "stopLongitude": "72.654995",
      "stopLatitude": "23.032166"
    },
    "RouteCodes": null,
    "Sequence": 11,
    "routeFlow": null
  },
  {
    "stopName": "Vaibhav Park",
    "stopCode": 5208,
    "stationCode": 2990,
    "stopType": "MUNICIPAL_BUS",
    "shortStopName": null,
    "Position": {
      "stopLongitude": "72.65619",
      "stopLatitude": "23.032135"
    },
    "RouteCodes": null,
    "Sequence": 12,
    "routeFlow": null
  },
  {
    "stopName": "Varahi Prathamik School",
    "stopCode": 5209,
    "stationCode": 3011,
    "stopType": "MUNICIPAL_BUS",
    "shortStopName": null,
    "Position": {
      "stopLongitude": "72.658658",
      "stopLatitude": "23.032263"
    },
    "RouteCodes": null,
    "Sequence": 13,
    "routeFlow": null
  }
]