[
  {
    "stopName": "Shankar Bhuvan",
    "stopCode": 1153,
    "stationCode": 2696,
    "stopType": "MUNICIPAL_BUS",
    "shortStopName": null,
    "Position": {
      "stopLongitude": "72.578156",
      "stopLatitude": "23.039766"
    },
    "RouteCodes": null,
    "Sequence": 38,
    "routeFlow": "LINESTRING (72.49962 23.12886, 72.49984 23.1285, 72.49994 23.12838, 72.50001 23.12831, 72.50021 23.12819, 72.5006 23.12797, 72.50087 23.12778, 72.50133 23.12735, 72.50133 23.12735, 72.50172 23.12702, 72.50238 23.12658, 72.50283 23.12625, 72.5035 23.12569, 72.5035 23.12569, 72.5044 23.12494, 72.50586 23.12361, 72.50587 23.1236, 72.5065 23.12314, 72.50676 23.12287, 72.50695 23.12265, 72.50745 23.12196, 72.50771 23.12159, 72.50771 23.12159, 72.50805 23.12114, 72.50807 23.12115, 72.50812 23.12115, 72.50823 23.12111, 72.50828 23.12105, 72.50831 23.12099, 72.50832 23.12087, 72.5083 23.12082, 72.50835 23.12057, 72.50839 23.12041, 72.5087 23.11987, 72.50907 23.11919, 72.50924 23.11896, 72.50935 23.11887, 72.50965 23.11871, 72.5103 23.11849, 72.5103 23.11849, 72.51063 23.1183, 72.51123 23.11786, 72.51188 23.11751, 72.51218 23.11736, 72.51242 23.1172, 72.51267 23.11697, 72.51285 23.11675, 72.51311 23.11644, 72.5132 23.11636, 72.51344 23.11622, 72.51362 23.11617, 72.51406 23.1161, 72.51437 23.11606, 72.5146 23.11588, 72.51478 23.11564, 72.51478 23.11564, 72.51564 23.11446, 72.51634 23.11364, 72.51633 23.11364, 72.51661 23.11331, 72.51681 23.1131, 72.51736 23.11264, 72.51778 23.11229, 72.51778 23.11229, 72.51853 23.11159, 72.52054 23.10988, 72.5207 23.10977, 72.52114 23.10958, 72.5214 23.10947, 72.52151 23.1094, 72.52173 23.1092, 72.52189 23.10904, 72.52189 23.10904, 72.52289 23.10809, 72.52327 23.10757, 72.52346 23.10735, 72.52376 23.10709, 72.52411 23.10686, 72.52449 23.10668, 72.52449 23.10668, 72.52482 23.10653, 72.52494 23.10644, 72.52549 23.10557, 72.52557 23.10543, 72.52572 23.10527, 72.52603 23.1049, 72.52603 23.1049, 72.52717 23.1037, 72.52818 23.10267, 72.52818 23.10267, 72.52904 23.10188, 72.52934 23.10156, 72.52965 23.10116, 72.52994 23.10074, 72.53021 23.10028, 72.53034 23.1001, 72.53098 23.0993, 72.53114 23.09911, 72.53114 23.09911, 72.53134 23.09892, 72.53145 23.09882, 72.53158 23.09879, 72.53199 23.09842, 72.5322 23.09823, 72.5322 23.09823, 72.53322 23.09736, 72.53336 23.09722, 72.53344 23.09705, 72.5336 23.09643, 72.53372 23.09609, 72.53381 23.09594, 72.53404 23.09564, 72.53415 23.09551, 72.53427 23.09543, 72.53436 23.09538, 72.5346 23.09529, 72.53597 23.09478, 72.53612 23.09473, 72.53635 23.09458, 72.53655 23.09445, 72.53655 23.09445, 72.53674 23.09432, 72.53688 23.09421, 72.53769 23.09346, 72.53797 23.0932, 72.53813 23.09303, 72.53905 23.092, 72.53905 23.092, 72.53932 23.09172, 72.53985 23.0911, 72.54008 23.09084, 72.54018 23.09076, 72.54037 23.09059, 72.54052 23.09041, 72.54093 23.08985, 72.54147 23.08912, 72.54181 23.0886, 72.54244 23.08758, 72.54268 23.08729, 72.54329 23.08667, 72.54365 23.08628, 72.54419 23.08571, 72.54419 23.08571, 72.54518 23.08465, 72.54527 23.08456, 72.54527 23.08456, 72.54547 23.08429, 72.54627 23.08298, 72.5466 23.08261, 72.54678 23.08248, 72.54823 23.08148, 72.54823 23.08148, 72.5488 23.08111, 72.5491 23.08095, 72.54929 23.08086, 72.54994 23.08061, 72.54994 23.08061, 72.55024 23.08051, 72.55138 23.0802, 72.55171 23.08007, 72.55189 23.07993, 72.55254 23.0793, 72.55306 23.07883, 72.55306 23.07883, 72.55416 23.07785, 72.55457 23.07752, 72.55467 23.07742, 72.55544 23.07649, 72.55544 23.07649, 72.55588 23.07592, 72.55638 23.07537, 72.55656 23.07515, 72.55656 23.07515, 72.55688 23.0747, 72.55701 23.07446, 72.55718 23.07399, 72.55772 23.07256, 72.55786 23.07237, 72.55858 23.07168, 72.55881 23.0714, 72.55885 23.07136, 72.55942 23.07085, 72.55987 23.07046, 72.55987 23.07046, 72.56052 23.06981, 72.56141 23.06884, 72.56166 23.06854, 72.561914 23.068237, 72.562231 23.068344, 72.562422 23.068437, 72.562488 23.068364, 72.562527 23.068308, 72.56253 23.068308, 72.562624 23.068191, 72.562537 23.067844, 72.56253 23.06762, 72.56256 23.06761, 72.56261 23.0676, 72.56269 23.06755, 72.56275 23.06747, 72.56276 23.06738, 72.56274 23.0673, 72.56272 23.06728, 72.56271 23.06727, 72.56273 23.06713, 72.56275 23.06702, 72.56282 23.06686, 72.56314 23.06628, 72.56341 23.06591, 72.56356 23.06573, 72.56391 23.06533, 72.56391 23.06533, 72.5646 23.06459, 72.56534 23.06376, 72.56534 23.06376, 72.56605 23.06312, 72.56635 23.06277, 72.5665 23.06261, 72.56656 23.06245, 72.5666 23.06244, 72.56669 23.06238, 72.56674 23.06229, 72.56675 23.06225, 72.56723 23.06176, 72.56723 23.06176, 72.56741 23.06152, 72.56753 23.06124, 72.56765 23.06072, 72.56771 23.0603, 72.56778 23.06007, 72.56808 23.05946, 72.56808 23.05946, 72.56819 23.05928, 72.56829 23.05916, 72.56872 23.05864, 72.56926 23.05802, 72.56926 23.05802, 72.57001 23.05733, 72.57001 23.05733, 72.57051 23.05694, 72.57095 23.05665, 72.57159 23.05633, 72.57174 23.05621, 72.57181 23.0561, 72.57187 23.05596, 72.57189 23.05595, 72.57196 23.05593, 72.57202 23.05588, 72.57207 23.05582, 72.57208 23.05574, 72.57206 23.05567, 72.572 23.05558, 72.57192 23.05553, 72.5719 23.05552, 72.57175 23.05525, 72.57168 23.05505, 72.57161 23.05445, 72.57159 23.05413, 72.57159 23.05413, 72.57133 23.05054, 72.57133 23.05054, 72.57125 23.04946, 72.57117 23.04882, 72.57111 23.04821, 72.57104 23.04794, 72.57099 23.04781, 72.57074 23.04736, 72.57051 23.04698, 72.57033 23.04653, 72.57025 23.04612, 72.5702 23.04583, 72.57015 23.04523, 72.57015 23.04521, 72.57015 23.04521, 72.57004 23.04435, 72.56987 23.04341, 72.56987 23.04337, 72.56966 23.04209, 72.569593 23.041511, 72.569591 23.041518, 72.5695 23.04093, 72.56943 23.04037, 72.57049 23.04026, 72.57147 23.04023, 72.57286 23.04013, 72.57382 23.04005, 72.57564 23.03994, 72.5778 23.03976, 72.57814 23.0397, 72.57814 23.0397, 72.57986 23.03944, 72.58056 23.039375, 72.580547 23.039372, 72.5816 23.03927, 72.58184 23.03925, 72.5831 23.03909, 72.583573 23.039047, 72.58357 23.03901, 72.58385 23.03896, 72.58576 23.03853, 72.58576 23.03853, 72.5879 23.03803, 72.58836 23.03794, 72.58965 23.03775, 72.58965 23.03775, 72.59011 23.03765, 72.59033 23.03762, 72.59088 23.03767, 72.59148 23.03771, 72.59216 23.03771, 72.59216 23.03771, 72.59274 23.03771, 72.59288 23.03775, 72.59289 23.0378, 72.59291 23.03782, 72.59293 23.03784, 72.59299 23.03786, 72.59302 23.03787, 72.59355 23.03781, 72.5936 23.03777, 72.59362 23.03774, 72.59386 23.03767, 72.59462 23.03743, 72.595 23.03729, 72.59538 23.0371, 72.59573 23.03689, 72.59589 23.03675, 72.5964 23.03629, 72.59662 23.03605, 72.59664 23.03606, 72.59708 23.03544, 72.59719 23.0353, 72.59726 23.03523, 72.59737 23.03517, 72.59746 23.03513, 72.59752 23.03507, 72.59759 23.03497, 72.59763 23.03477, 72.5976 23.03469, 72.59764 23.0346, 72.5978 23.03395, 72.5978 23.03395, 72.59801 23.03317, 72.59826 23.03228, 72.59834 23.03205, 72.59873 23.03129, 72.59873 23.03129, 72.59913 23.0316, 72.59928 23.0317, 72.59948 23.0319, 72.60028 23.03274, 72.60053 23.03297, 72.60073 23.0331, 72.60092 23.03318, 72.60121 23.03322, 72.60277 23.03312, 72.60307 23.03306, 72.60308 23.03308, 72.6031 23.03309, 72.60314 23.03308, 72.60317 23.03305, 72.60317 23.03301, 72.60316 23.03299, 72.60315 23.03299, 72.6032 23.03281, 72.60345 23.03217, 72.60356 23.03195, 72.60371 23.03174, 72.60408 23.03136, 72.60425 23.0312, 72.60425 23.03119, 72.60429 23.03116, 72.60458 23.03106, 72.60477 23.03104, 72.60594 23.03057, 72.6068 23.03023, 72.6068 23.03023, 72.60727 23.02999, 72.6073 23.02996, 72.60753 23.02997, 72.60803 23.03019, 72.60845 23.03035, 72.60862 23.03039, 72.60922 23.03062, 72.60992 23.03091, 72.60992 23.03091, 72.61061 23.03123, 72.61109 23.03147, 72.61115 23.03148, 72.61128 23.03166, 72.61127 23.03166, 72.61126 23.03166, 72.61125 23.03166, 72.61122 23.03168, 72.6112 23.03169, 72.61118 23.03174, 72.6112 23.03179, 72.61124 23.03182, 72.61128 23.03183, 72.61128 23.03183, 72.61131 23.03183, 72.61132 23.03182, 72.61133 23.03182, 72.61182 23.03237, 72.6119 23.03244, 72.61286 23.03301, 72.61363 23.03341, 72.61387 23.03351, 72.61387 23.03352, 72.61388 23.03353, 72.61389 23.03355, 72.61391 23.03357, 72.61395 23.03358, 72.61401 23.03357, 72.61403 23.03355, 72.61405 23.03354, 72.61456 23.03382, 72.61456 23.03382, 72.61477 23.03395, 72.61532 23.03427, 72.61579 23.03452, 72.61621 23.03472, 72.61658 23.03485, 72.61689 23.03494, 72.61714 23.03497, 72.61747 23.03496, 72.61747 23.03496, 72.61772 23.03493, 72.61792 23.03494, 72.61792 23.03495, 72.61793 23.03496, 72.61795 23.03496, 72.61796 23.03496, 72.61797 23.03496, 72.61843 23.03535, 72.61843 23.03536, 72.61844 23.03537, 72.61846 23.03538, 72.61849 23.03538, 72.6185 23.03536, 72.61922 23.03512, 72.61925 23.03511, 72.62008 23.03484, 72.62037 23.03477, 72.62062 23.03477, 72.62106 23.03482, 72.62135 23.03488, 72.62165 23.03488, 72.62201 23.03485, 72.62217 23.03487, 72.62221 23.03483, 72.62222 23.03488, 72.62255 23.03488, 72.62328 23.03491, 72.62426 23.03498, 72.62574 23.03509, 72.62611 23.0351, 72.62611 23.0351, 72.6284 23.03511, 72.62949 23.03507, 72.62949 23.03507, 72.62976 23.03506, 72.62977 23.03507, 72.6298 23.03509, 72.62986 23.03507, 72.62989 23.03501, 72.62988 23.03498, 72.62986 23.03497, 72.62983 23.03483, 72.63035 23.03475, 72.63087 23.03466, 72.63159 23.03451, 72.632 23.03445, 72.632 23.03445, 72.63397 23.03406, 72.63397 23.03406, 72.63431 23.03396, 72.63485 23.03363, 72.635 23.03356, 72.63518 23.03351, 72.63586 23.03338, 72.63657 23.03332, 72.63684 23.03329, 72.63684 23.03329, 72.63805 23.03318, 72.63865 23.03318, 72.63934 23.03319, 72.63941 23.03319, 72.63936 23.03269, 72.63936 23.03269, 72.63926 23.03146, 72.63913 23.03015, 72.63909 23.02965, 72.639112 23.029637, 72.638865 23.027129, 72.63887 23.02707, 72.63886 23.02701, 72.63901 23.02704, 72.63947 23.02721, 72.63994 23.02734, 72.64025 23.02745, 72.64079 23.02772, 72.641 23.02785, 72.64115 23.02795, 72.64115 23.02795, 72.64187 23.02843, 72.64215 23.02858, 72.64239 23.02866, 72.64318 23.02892, 72.64391 23.02915, 72.64391 23.02915, 72.6449 23.02946, 72.64533 23.02962, 72.6458 23.02983, 72.64617 23.03001, 72.64617 23.03001, 72.64642 23.03012, 72.64679 23.03026, 72.6472 23.0304, 72.64749 23.03049, 72.64806 23.0306, 72.64806 23.0306, 72.64825 23.03064, 72.64826 23.03065, 72.6483 23.03066, 72.64838 23.03065, 72.64839 23.03064, 72.6486 23.03064, 72.64899 23.03065, 72.64981 23.03093, 72.6506 23.03116, 72.65073 23.03124, 72.65154 23.03145, 72.6519 23.03153, 72.6519 23.03153, 72.65289 23.03179, 72.65336 23.0319, 72.655 23.03206, 72.655 23.03206, 72.65619 23.03211, 72.65619 23.03211, 72.65866 23.03217, 72.65866 23.03217, 72.65933 23.03219, 72.65952 23.03217, 72.66009 23.03215, 72.66086 23.03216, 72.66108 23.03221, 72.662 23.03247)"
  },
  {
    "stopName": "Shahpur Darwaja",
    "stopCode": 1154,
    "stationCode": 2683,
    "stopType": "MUNICIPAL_BUS",
    "shortStopName": null,
    "Position": {
      "stopLongitude": "72.580563",
      "stopLatitude": "23.039361"
    },
    "RouteCodes": null,
    "Sequence": 39,
    "routeFlow": null
  },
  {
    "stopName": "Halimni Khadki",
    "stopCode": 1155,
    "stationCode": 1646,
    "stopType": "MUNICIPAL_BUS",
    "shortStopName": null,
    "Position": {
      "stopLongitude": "72.583578",
      "stopLatitude": "23.039036"
    },
    "RouteCodes": null,
    "Sequence": 40,
    "routeFlow": null
  },
  {
    "stopName": "Delhi Darwaja (Rt.77 Stand)",
    "stopCode": 1156,
    "stationCode": 1432,
    "stopType": "MUNICIPAL_BUS",
    "shortStopName": null,
    "Position": {
      "stopLongitude": "72.585762",
      "stopLatitude": "23.038551"
    },
    "RouteCodes": null,
    "Sequence": 41,
    "routeFlow": null
  },
  {
    "stopName": "Madhupura",
    "stopCode": 1157,
    "stationCode": 1991,
    "stopType": "MUNICIPAL_BUS",
    "shortStopName": null,
    "Position": {
      "stopLongitude": "72.589655",
      "stopLatitude": "23.037773"
    },
    "RouteCodes": null,
    "Sequence": 42,
    "routeFlow": null
  },
  {
    "stopName": "Dariyapur Darwaja",
    "stopCode": 1158,
    "stationCode": 1423,
    "stopType": "MUNICIPAL_BUS",
    "shortStopName": null,
    "Position": {
      "stopLongitude": "72.592156",
      "stopLatitude": "23.037796"
    },
    "RouteCodes": null,
    "Sequence": 43,
    "routeFlow": null
  },
  {
    "stopName": "Prem Darwaja",
    "stopCode": 1159,
    "stationCode": 2378,
    "stopType": "MUNICIPAL_BUS",
    "shortStopName": null,
    "Position": {
      "stopLongitude": "72.596685",
      "stopLatitude": "23.036086"
    },
    "RouteCodes": null,
    "Sequence": 44,
    "routeFlow": null
  },
  {
    "stopName": "Ramapirnu Mandir",
    "stopCode": 2100,
    "stationCode": 2463,
    "stopType": "MUNICIPAL_BUS",
    "shortStopName": null,
    "Position": {
      "stopLongitude": "72.559883",
      "stopLatitude": "23.070475"
    },
    "RouteCodes": null,
    "Sequence": 25,
    "routeFlow": null
  },
  {
    "stopName": "Nava Vadaj",
    "stopCode": 2101,
    "stationCode": 2185,
    "stopType": "MUNICIPAL_BUS",
    "shortStopName": null,
    "Position": {
      "stopLongitude": "72.562473",
      "stopLatitude": "23.068281"
    },
    "RouteCodes": null,
    "Sequence": 26,
    "routeFlow": null
  },
  {
    "stopName": "Krushnanagar (Nava Vadaj)",
    "stopCode": 2102,
    "stationCode": 3106,
    "stopType": "MUNICIPAL_BUS",
    "shortStopName": null,
    "Position": {
      "stopLongitude": "72.56392",
      "stopLatitude": "23.065333"
    },
    "RouteCodes": null,
    "Sequence": 27,
    "routeFlow": null
  },
  {
    "stopName": "Punam Party Plot",
    "stopCode": 2103,
    "stationCode": 2392,
    "stopType": "MUNICIPAL_BUS",
    "shortStopName": null,
    "Position": {
      "stopLongitude": "72.56536",
      "stopLatitude": "23.063785"
    },
    "RouteCodes": null,
    "Sequence": 28,
    "routeFlow": null
  },
  {
    "stopName": "Purushottamnagar (Nava Vadaj)",
    "stopCode": 2104,
    "stationCode": 2397,
    "stopType": "MUNICIPAL_BUS",
    "shortStopName": null,
    "Position": {
      "stopLongitude": "72.567251",
      "stopLatitude": "23.061778"
    },
    "RouteCodes": null,
    "Sequence": 29,
    "routeFlow": null
  },
  {
    "stopName": "Bhimjipura",
    "stopCode": 2105,
    "stationCode": 1299,
    "stopType": "MUNICIPAL_BUS",
    "shortStopName": null,
    "Position": {
      "stopLongitude": "72.568108",
      "stopLatitude": "23.059473"
    },
    "RouteCodes": null,
    "Sequence": 30,
    "routeFlow": null
  },
  {
    "stopName": "Tulsishyam Society",
    "stopCode": 2106,
    "stationCode": 2958,
    "stopType": "MUNICIPAL_BUS",
    "shortStopName": null,
    "Position": {
      "stopLongitude": "72.56928",
      "stopLatitude": "23.058035"
    },
    "RouteCodes": null,
    "Sequence": 31,
    "routeFlow": null
  },
  {
    "stopName": "Champaner Society",
    "stopCode": 2108,
    "stationCode": 1348,
    "stopType": "MUNICIPAL_BUS",
    "shortStopName": null,
    "Position": {
      "stopLongitude": "72.571363",
      "stopLatitude": "23.050541"
    },
    "RouteCodes": null,
    "Sequence": 34,
    "routeFlow": null
  },
  {
    "stopName": "Gujarat Vidyapith",
    "stopCode": 2110,
    "stationCode": 1627,
    "stopType": "MUNICIPAL_BUS",
    "shortStopName": null,
    "Position": {
      "stopLongitude": "72.569903",
      "stopLatitude": "23.043365"
    },
    "RouteCodes": null,
    "Sequence": 36,
    "routeFlow": null
  },
  {
    "stopName": "Kalupur",
    "stopCode": 2271,
    "stationCode": 1836,
    "stopType": "MUNICIPAL_BUS",
    "shortStopName": null,
    "Position": {
      "stopLongitude": "72.59866",
      "stopLatitude": "23.031238"
    },
    "RouteCodes": null,
    "Sequence": 46,
    "routeFlow": null
  },
  {
    "stopName": "Sanjivani Hospital",
    "stopCode": 2272,
    "stationCode": 2581,
    "stopType": "MUNICIPAL_BUS",
    "shortStopName": null,
    "Position": {
      "stopLongitude": "72.570053",
      "stopLatitude": "23.057371"
    },
    "RouteCodes": null,
    "Sequence": 32,
    "routeFlow": null
  },
  {
    "stopName": "Income Tax Office",
    "stopCode": 2273,
    "stationCode": 1705,
    "stopType": "MUNICIPAL_BUS",
    "shortStopName": null,
    "Position": {
      "stopLongitude": "72.569608",
      "stopLatitude": "23.041513"
    },
    "RouteCodes": null,
    "Sequence": 37,
    "routeFlow": null
  },
  {
    "stopName": "Shrinagar Mills",
    "stopCode": 2501,
    "stationCode": 2751,
    "stopType": "MUNICIPAL_BUS",
    "shortStopName": null,
    "Position": {
      "stopLongitude": "72.604276",
      "stopLatitude": "23.031221"
    },
    "RouteCodes": null,
    "Sequence": 47,
    "routeFlow": null
  },
  {
    "stopName": "Dr.Ambedkar Hall (Saraspur)",
    "stopCode": 2502,
    "stationCode": 1468,
    "stopType": "MUNICIPAL_BUS",
    "shortStopName": null,
    "Position": {
      "stopLongitude": "72.606785",
      "stopLatitude": "23.030225"
    },
    "RouteCodes": null,
    "Sequence": 48,
    "routeFlow": null
  },
  {
    "stopName": "Saraspur Char Rasta",
    "stopCode": 2503,
    "stationCode": 2596,
    "stopType": "MUNICIPAL_BUS",
    "shortStopName": null,
    "Position": {
      "stopLongitude": "72.609891",
      "stopLatitude": "23.030973"
    },
    "RouteCodes": null,
    "Sequence": 49,
    "routeFlow": null
  },
  {
    "stopName": "Lapakaman Gam",
    "stopCode": 2774,
    "stationCode": 1965,
    "stopType": "MUNICIPAL_BUS",
    "shortStopName": null,
    "Position": {
      "stopLongitude": "72.499628",
      "stopLatitude": "23.128865"
    },
    "RouteCodes": null,
    "Sequence": 1,
    "routeFlow": null
  },
  {
    "stopName": "Ahmedabad Institute Of Medical Science",
    "stopCode": 2775,
    "stationCode": 1078,
    "stopType": "MUNICIPAL_BUS",
    "shortStopName": null,
    "Position": {
      "stopLongitude": "72.501375",
      "stopLatitude": "23.127391"
    },
    "RouteCodes": null,
    "Sequence": 2,
    "routeFlow": null
  },
  {
    "stopName": "Karnavati Eye Hospital",
    "stopCode": 2777,
    "stationCode": 1858,
    "stopType": "MUNICIPAL_BUS",
    "shortStopName": null,
    "Position": {
      "stopLongitude": "72.5059",
      "stopLatitude": "23.12363"
    },
    "RouteCodes": null,
    "Sequence": 4,
    "routeFlow": null
  },
  {
    "stopName": "Sardar Patel Ring Road (Lapkaman)",
    "stopCode": 2778,
    "stationCode": 5038,
    "stopType": "MUNICIPAL_BUS",
    "shortStopName": null,
    "Position": {
      "stopLongitude": "72.507733",
      "stopLatitude": "23.121608"
    },
    "RouteCodes": null,
    "Sequence": 5,
    "routeFlow": null
  },
  {
    "stopName": "Brahmaninagar",
    "stopCode": 2779,
    "stationCode": 1321,
    "stopType": "MUNICIPAL_BUS",
    "shortStopName": null,
    "Position": {
      "stopLongitude": "72.510305",
      "stopLatitude": "23.118495"
    },
    "RouteCodes": null,
    "Sequence": 6,
    "routeFlow": null
  },
  {
    "stopName": "Oganaj Gam",
    "stopCode": 2780,
    "stationCode": 2266,
    "stopType": "MUNICIPAL_BUS",
    "shortStopName": null,
    "Position": {
      "stopLongitude": "72.51483",
      "stopLatitude": "23.115658"
    },
    "RouteCodes": null,
    "Sequence": 7,
    "routeFlow": null
  },
  {
    "stopName": "Prathamik Arogya Kendra",
    "stopCode": 2781,
    "stationCode": 2374,
    "stopType": "MUNICIPAL_BUS",
    "shortStopName": null,
    "Position": {
      "stopLongitude": "72.516381",
      "stopLatitude": "23.113673"
    },
    "RouteCodes": null,
    "Sequence": 8,
    "routeFlow": null
  },
  {
    "stopName": "Jarmaliya Talavdi",
    "stopCode": 2782,
    "stationCode": 1762,
    "stopType": "MUNICIPAL_BUS",
    "shortStopName": null,
    "Position": {
      "stopLongitude": "72.517828",
      "stopLatitude": "23.112326"
    },
    "RouteCodes": null,
    "Sequence": 9,
    "routeFlow": null
  },
  {
    "stopName": "Vishwakarma Sankul",
    "stopCode": 2783,
    "stationCode": 3068,
    "stopType": "MUNICIPAL_BUS",
    "shortStopName": null,
    "Position": {
      "stopLongitude": "72.521931",
      "stopLatitude": "23.109081"
    },
    "RouteCodes": null,
    "Sequence": 10,
    "routeFlow": null
  },
  {
    "stopName": "Vasantnagar Township",
    "stopCode": 2784,
    "stationCode": 3016,
    "stopType": "MUNICIPAL_BUS",
    "shortStopName": null,
    "Position": {
      "stopLongitude": "72.524533",
      "stopLatitude": "23.106763"
    },
    "RouteCodes": null,
    "Sequence": 11,
    "routeFlow": null
  },
  {
    "stopName": "Gota Housing (Gandhi Vasahat)",
    "stopCode": 2785,
    "stationCode": 1591,
    "stopType": "MUNICIPAL_BUS",
    "shortStopName": null,
    "Position": {
      "stopLongitude": "72.526055",
      "stopLatitude": "23.10492"
    },
    "RouteCodes": null,
    "Sequence": 12,
    "routeFlow": null
  },
  {
    "stopName": "Jilla Shikshan Talim Bhavan",
    "stopCode": 2786,
    "stationCode": 1784,
    "stopType": "MUNICIPAL_BUS",
    "shortStopName": null,
    "Position": {
      "stopLongitude": "72.528223",
      "stopLatitude": "23.102705"
    },
    "RouteCodes": null,
    "Sequence": 13,
    "routeFlow": null
  },
  {
    "stopName": "Gota Highway Cross Road",
    "stopCode": 2787,
    "stationCode": 1589,
    "stopType": "MUNICIPAL_BUS",
    "shortStopName": null,
    "Position": {
      "stopLongitude": "72.531181",
      "stopLatitude": "23.099141"
    },
    "RouteCodes": null,
    "Sequence": 14,
    "routeFlow": null
  },
  {
    "stopName": "Gota Highway Cross Road (Rt.137 Stand)",
    "stopCode": 2788,
    "stationCode": 1590,
    "stopType": "MUNICIPAL_BUS",
    "shortStopName": null,
    "Position": {
      "stopLongitude": "72.532248",
      "stopLatitude": "23.09827"
    },
    "RouteCodes": null,
    "Sequence": 15,
    "routeFlow": null
  },
  {
    "stopName": "Gota Gam",
    "stopCode": 2789,
    "stationCode": 1588,
    "stopType": "MUNICIPAL_BUS",
    "shortStopName": null,
    "Position": {
      "stopLongitude": "72.53657",
      "stopLatitude": "23.09448"
    },
    "RouteCodes": null,
    "Sequence": 16,
    "routeFlow": null
  },
  {
    "stopName": "Raj Granite",
    "stopCode": 2790,
    "stationCode": 2437,
    "stopType": "MUNICIPAL_BUS",
    "shortStopName": null,
    "Position": {
      "stopLongitude": "72.539068",
      "stopLatitude": "23.092015"
    },
    "RouteCodes": null,
    "Sequence": 17,
    "routeFlow": null
  },
  {
    "stopName": "Vishwakarma Mandir",
    "stopCode": 2791,
    "stationCode": 3067,
    "stopType": "MUNICIPAL_BUS",
    "shortStopName": null,
    "Position": {
      "stopLongitude": "72.54424",
      "stopLatitude": "23.085751"
    },
    "RouteCodes": null,
    "Sequence": 18,
    "routeFlow": null
  },
  {
    "stopName": "J.K.Park",
    "stopCode": 2792,
    "stationCode": 1734,
    "stopType": "MUNICIPAL_BUS",
    "shortStopName": null,
    "Position": {
      "stopLongitude": "72.545298",
      "stopLatitude": "23.084583"
    },
    "RouteCodes": null,
    "Sequence": 19,
    "routeFlow": null
  },
  {
    "stopName": "Chuval Society",
    "stopCode": 2793,
    "stationCode": 1396,
    "stopType": "MUNICIPAL_BUS",
    "shortStopName": null,
    "Position": {
      "stopLongitude": "72.548245",
      "stopLatitude": "23.081501"
    },
    "RouteCodes": null,
    "Sequence": 20,
    "routeFlow": null
  },
  {
    "stopName": "Chandlodiya Gam",
    "stopCode": 2794,
    "stationCode": 1360,
    "stopType": "MUNICIPAL_BUS",
    "shortStopName": null,
    "Position": {
      "stopLongitude": "72.549953",
      "stopLatitude": "23.080638"
    },
    "RouteCodes": null,
    "Sequence": 21,
    "routeFlow": null
  },
  {
    "stopName": "Arjun Ashram",
    "stopCode": 2795,
    "stationCode": 1156,
    "stopType": "MUNICIPAL_BUS",
    "shortStopName": null,
    "Position": {
      "stopLongitude": "72.553091",
      "stopLatitude": "23.078856"
    },
    "RouteCodes": null,
    "Sequence": 22,
    "routeFlow": null
  },
  {
    "stopName": "Dhanjibhaino Kuvo",
    "stopCode": 2796,
    "stationCode": 1455,
    "stopType": "MUNICIPAL_BUS",
    "shortStopName": null,
    "Position": {
      "stopLongitude": "72.555455",
      "stopLatitude": "23.076505"
    },
    "RouteCodes": null,
    "Sequence": 23,
    "routeFlow": null
  },
  {
    "stopName": "Deshwali Society",
    "stopCode": 2797,
    "stationCode": 1433,
    "stopType": "MUNICIPAL_BUS",
    "shortStopName": null,
    "Position": {
      "stopLongitude": "72.556581",
      "stopLatitude": "23.075158"
    },
    "RouteCodes": null,
    "Sequence": 24,
    "routeFlow": null
  },
  {
    "stopName": "Nutan Mills",
    "stopCode": 2831,
    "stationCode": 2249,
    "stopType": "MUNICIPAL_BUS",
    "shortStopName": null,
    "Position": {
      "stopLongitude": "72.614556",
      "stopLatitude": "23.03383"
    },
    "RouteCodes": null,
    "Sequence": 51,
    "routeFlow": null
  },
  {
    "stopName": "Bombay Housing Colony",
    "stopCode": 2832,
    "stationCode": 1318,
    "stopType": "MUNICIPAL_BUS",
    "shortStopName": null,
    "Position": {
      "stopLongitude": "72.6175",
      "stopLatitude": "23.035031"
    },
    "RouteCodes": null,
    "Sequence": 52,
    "routeFlow": null
  },
  {
    "stopName": "Ambar Cinema",
    "stopCode": 2833,
    "stationCode": 1105,
    "stopType": "MUNICIPAL_BUS",
    "shortStopName": null,
    "Position": {
      "stopLongitude": "72.619226",
      "stopLatitude": "23.035125"
    },
    "RouteCodes": null,
    "Sequence": 53,
    "routeFlow": null
  },
  {
    "stopName": "Bhid Bhanjan Hanuman",
    "stopCode": 2834,
    "stationCode": 1296,
    "stopType": "MUNICIPAL_BUS",
    "shortStopName": null,
    "Position": {
      "stopLongitude": "72.622175",
      "stopLatitude": "23.034835"
    },
    "RouteCodes": null,
    "Sequence": 54,
    "routeFlow": null
  },
  {
    "stopName": "Bapunagar Ghanti (Patelwadi)",
    "stopCode": 2835,
    "stationCode": 1251,
    "stopType": "MUNICIPAL_BUS",
    "shortStopName": null,
    "Position": {
      "stopLongitude": "72.626111",
      "stopLatitude": "23.035095"
    },
    "RouteCodes": null,
    "Sequence": 55,
    "routeFlow": null
  },
  {
    "stopName": "Bapunagar Char Rasta",
    "stopCode": 2836,
    "stationCode": 1249,
    "stopType": "MUNICIPAL_BUS",
    "shortStopName": null,
    "Position": {
      "stopLongitude": "72.629486",
      "stopLatitude": "23.035063"
    },
    "RouteCodes": null,
    "Sequence": 56,
    "routeFlow": null
  },
  {
    "stopName": "Usmanpura",
    "stopCode": 2863,
    "stationCode": 2975,
    "stopType": "MUNICIPAL_BUS",
    "shortStopName": null,
    "Position": {
      "stopLongitude": "72.570203",
      "stopLatitude": "23.045203"
    },
    "RouteCodes": null,
    "Sequence": 35,
    "routeFlow": null
  },
  {
    "stopName": "Jain Tirthdham",
    "stopCode": 2912,
    "stationCode": 1745,
    "stopType": "MUNICIPAL_BUS",
    "shortStopName": null,
    "Position": {
      "stopLongitude": "72.503533",
      "stopLatitude": "23.125721"
    },
    "RouteCodes": null,
    "Sequence": 3,
    "routeFlow": null
  },
  {
    "stopName": "Vadaj",
    "stopCode": 3232,
    "stationCode": 2978,
    "stopType": "MUNICIPAL_BUS",
    "shortStopName": null,
    "Position": {
      "stopLongitude": "72.571758",
      "stopLatitude": "23.054121"
    },
    "RouteCodes": null,
    "Sequence": 33,
    "routeFlow": null
  },
  {
    "stopName": "Shardaben Hospital",
    "stopCode": 3438,
    "stationCode": 2708,
    "stopType": "MUNICIPAL_BUS",
    "shortStopName": null,
    "Position": {
      "stopLongitude": "72.611281",
      "stopLatitude": "23.031841"
    },
    "RouteCodes": null,
    "Sequence": 50,
    "routeFlow": null
  },
  {
    "stopName": "Khodiyarnagar (Bapunagar)",
    "stopCode": 3668,
    "stationCode": 1891,
    "stopType": "MUNICIPAL_BUS",
    "shortStopName": null,
    "Position": {
      "stopLongitude": "72.639401",
      "stopLatitude": "23.032686"
    },
    "RouteCodes": null,
    "Sequence": 60,
    "routeFlow": null
  },
  {
    "stopName": "Chamundanagar",
    "stopCode": 3669,
    "stationCode": 1350,
    "stopType": "MUNICIPAL_BUS",
    "shortStopName": null,
    "Position": {
      "stopLongitude": "72.639125",
      "stopLatitude": "23.029643"
    },
    "RouteCodes": null,
    "Sequence": 61,
    "routeFlow": null
  },
  {
    "stopName": "Fruit Market",
    "stopCode": 4021,
    "stationCode": 1501,
    "stopType": "MUNICIPAL_BUS",
    "shortStopName": null,
    "Position": {
      "stopLongitude": "72.597846",
      "stopLatitude": "23.033961"
    },
    "RouteCodes": null,
    "Sequence": 45,
    "routeFlow": null
  },
  {
    "stopName": "Manmohan Park",
    "stopCode": 4129,
    "stationCode": 2050,
    "stopType": "MUNICIPAL_BUS",
    "shortStopName": null,
    "Position": {
      "stopLongitude": "72.661983",
      "stopLatitude": "23.032553"
    },
    "RouteCodes": null,
    "Sequence": 71,
    "routeFlow": null
  },
  {
    "stopName": "Kalyan Kendra",
    "stopCode": 4163,
    "stationCode": 1841,
    "stopType": "MUNICIPAL_BUS",
    "shortStopName": null,
    "Position": {
      "stopLongitude": "72.631993",
      "stopLatitude": "23.034471"
    },
    "RouteCodes": null,
    "Sequence": 57,
    "routeFlow": null
  },
  {
    "stopName": "Bapunagar",
    "stopCode": 4164,
    "stationCode": 1248,
    "stopType": "MUNICIPAL_BUS",
    "shortStopName": null,
    "Position": {
      "stopLongitude": "72.633975",
      "stopLatitude": "23.034078"
    },
    "RouteCodes": null,
    "Sequence": 58,
    "routeFlow": null
  },
  {
    "stopName": "Swaminarayan Mandir (Viratnagar)",
    "stopCode": 4329,
    "stationCode": 2895,
    "stopType": "MUNICIPAL_BUS",
    "shortStopName": null,
    "Position": {
      "stopLongitude": "72.643897",
      "stopLatitude": "23.02919"
    },
    "RouteCodes": null,
    "Sequence": 64,
    "routeFlow": null
  },
  {
    "stopName": "Tejendranagar",
    "stopCode": 4330,
    "stationCode": 2922,
    "stopType": "MUNICIPAL_BUS",
    "shortStopName": null,
    "Position": {
      "stopLongitude": "72.646136",
      "stopLatitude": "23.030063"
    },
    "RouteCodes": null,
    "Sequence": 65,
    "routeFlow": null
  },
  {
    "stopName": "Viratnagar Canal (Tapshil Society)",
    "stopCode": 4331,
    "stationCode": 3059,
    "stopType": "MUNICIPAL_BUS",
    "shortStopName": null,
    "Position": {
      "stopLongitude": "72.64805",
      "stopLatitude": "23.030688"
    },
    "RouteCodes": null,
    "Sequence": 66,
    "routeFlow": null
  },
  {
    "stopName": "Viratnagar",
    "stopCode": 5199,
    "stationCode": 3058,
    "stopType": "MUNICIPAL_BUS",
    "shortStopName": null,
    "Position": {
      "stopLongitude": "72.638897",
      "stopLatitude": "23.027067"
    },
    "RouteCodes": null,
    "Sequence": 62,
    "routeFlow": null
  },
  {
    "stopName": "Gandhi Park",
    "stopCode": 5200,
    "stationCode": 1519,
    "stopType": "MUNICIPAL_BUS",
    "shortStopName": null,
    "Position": {
      "stopLongitude": "72.641098",
      "stopLatitude": "23.028021"
    },
    "RouteCodes": null,
    "Sequence": 63,
    "routeFlow": null
  },
  {
    "stopName": "Mohannagar",
    "stopCode": 5205,
    "stationCode": 2090,
    "stopType": "MUNICIPAL_BUS",
    "shortStopName": null,
    "Position": {
      "stopLongitude": "72.636851",
      "stopLatitude": "23.033345"
    },
    "RouteCodes": null,
    "Sequence": 59,
    "routeFlow": null
  },
  {
    "stopName": "Gokul Park",
    "stopCode": 5206,
    "stationCode": 1572,
    "stopType": "MUNICIPAL_BUS",
    "shortStopName": null,
    "Position": {
      "stopLongitude": "72.651876",
      "stopLatitude": "23.031613"
    },
    "RouteCodes": null,
    "Sequence": 67,
    "routeFlow": null
  },
  {
    "stopName": "Vinayak Park",
    "stopCode": 5207,
    "stationCode": 3052,
    "stopType": "MUNICIPAL_BUS",
    "shortStopName": null,
    "Position": {
      "stopLongitude": "72.654995",
      "stopLatitude": "23.032166"
    },
    "RouteCodes": null,
    "Sequence": 68,
    "routeFlow": null
  },
  {
    "stopName": "Vaibhav Park",
    "stopCode": 5208,
    "stationCode": 2990,
    "stopType": "MUNICIPAL_BUS",
    "shortStopName": null,
    "Position": {
      "stopLongitude": "72.65619",
      "stopLatitude": "23.032135"
    },
    "RouteCodes": null,
    "Sequence": 69,
    "routeFlow": null
  },
  {
    "stopName": "Varahi Prathamik School",
    "stopCode": 5209,
    "stationCode": 3011,
    "stopType": "MUNICIPAL_BUS",
    "shortStopName": null,
    "Position": {
      "stopLongitude": "72.658658",
      "stopLatitude": "23.032263"
    },
    "RouteCodes": null,
    "Sequence": 70,
    "routeFlow": null
  }
]