[
  {
    "stopName": "Ramapirnu Mandir",
    "stopCode": 2100,
    "stationCode": 2463,
    "stopType": "MUNICIPAL_BUS",
    "shortStopName": null,
    "Position": {
      "stopLongitude": "72.559883",
      "stopLatitude": "23.070475"
    },
    "RouteCodes": null,
    "Sequence": 16,
    "routeFlow": "LINESTRING (72.55369 23.08428, 72.55312 23.08362, 72.55281 23.08332, 72.55237 23.083, 72.55223 23.0829, 72.55215 23.08286, 72.55211 23.08284, 72.55202 23.08288, 72.55187 23.08299, 72.55157 23.08321, 72.5512 23.08353, 72.55105 23.08366, 72.55099 23.08385, 72.55099 23.08385, 72.55096 23.08399, 72.55096 23.08424, 72.55112 23.08456, 72.55117 23.08466, 72.5512 23.0848, 72.55117 23.08493, 72.5509 23.08558, 72.55077 23.08601, 72.55077 23.08601, 72.5507 23.08629, 72.55052 23.08721, 72.55032 23.08808, 72.55027 23.08833, 72.55026 23.08835, 72.55015 23.08893, 72.55015 23.08893, 72.55004 23.08921, 72.55 23.08927, 72.5499 23.08937, 72.54967 23.08958, 72.5494 23.08981, 72.54936 23.0899, 72.54935 23.08999, 72.54902 23.08994, 72.54888 23.08992, 72.54888 23.08992, 72.54703 23.08963, 72.5473 23.0887, 72.54739 23.08826, 72.54744 23.08807, 72.54754 23.08752, 72.54754 23.08752, 72.54784 23.08612, 72.54784 23.08612, 72.54809 23.08504, 72.54815 23.08456, 72.54815 23.08456, 72.54822 23.08397, 72.54822 23.08388, 72.54817 23.0838, 72.54767 23.08355, 72.54685 23.0832, 72.54685 23.0832, 72.54629 23.08295, 72.54653 23.08268, 72.5466 23.08261, 72.54678 23.08248, 72.54823 23.08148, 72.54823 23.08148, 72.5488 23.08111, 72.5491 23.08095, 72.54929 23.08086, 72.54994 23.08061, 72.54994 23.08061, 72.55024 23.08051, 72.55138 23.0802, 72.55171 23.08007, 72.55189 23.07993, 72.55254 23.0793, 72.55306 23.07883, 72.55306 23.07883, 72.55416 23.07785, 72.55457 23.07752, 72.55467 23.07742, 72.55544 23.07649, 72.55544 23.07649, 72.55588 23.07592, 72.55638 23.07537, 72.55656 23.07515, 72.55656 23.07515, 72.55688 23.0747, 72.55701 23.07446, 72.55718 23.07399, 72.55772 23.07256, 72.55786 23.07237, 72.55858 23.07168, 72.55881 23.0714, 72.55885 23.07136, 72.55942 23.07085, 72.55987 23.07046, 72.55987 23.07046, 72.56052 23.06981, 72.56141 23.06884, 72.56166 23.06854, 72.561914 23.068237, 72.562231 23.068344, 72.562422 23.068437, 72.562488 23.068364, 72.562527 23.068308)"
  },
  {
    "stopName": "Nava Vadaj",
    "stopCode": 2101,
    "stationCode": 2185,
    "stopType": "MUNICIPAL_BUS",
    "shortStopName": null,
    "Position": {
      "stopLongitude": "72.562473",
      "stopLatitude": "23.068281"
    },
    "RouteCodes": null,
    "Sequence": 17,
    "routeFlow": null
  },
  {
    "stopName": "Chuval Society",
    "stopCode": 2793,
    "stationCode": 1396,
    "stopType": "MUNICIPAL_BUS",
    "shortStopName": null,
    "Position": {
      "stopLongitude": "72.548245",
      "stopLatitude": "23.081501"
    },
    "RouteCodes": null,
    "Sequence": 11,
    "routeFlow": null
  },
  {
    "stopName": "Chandlodiya Gam",
    "stopCode": 2794,
    "stationCode": 1360,
    "stopType": "MUNICIPAL_BUS",
    "shortStopName": null,
    "Position": {
      "stopLongitude": "72.549953",
      "stopLatitude": "23.080638"
    },
    "RouteCodes": null,
    "Sequence": 12,
    "routeFlow": null
  },
  {
    "stopName": "Arjun Ashram",
    "stopCode": 2795,
    "stationCode": 1156,
    "stopType": "MUNICIPAL_BUS",
    "shortStopName": null,
    "Position": {
      "stopLongitude": "72.553091",
      "stopLatitude": "23.078856"
    },
    "RouteCodes": null,
    "Sequence": 13,
    "routeFlow": null
  },
  {
    "stopName": "Dhanjibhaino Kuvo",
    "stopCode": 2796,
    "stationCode": 1455,
    "stopType": "MUNICIPAL_BUS",
    "shortStopName": null,
    "Position": {
      "stopLongitude": "72.555455",
      "stopLatitude": "23.076505"
    },
    "RouteCodes": null,
    "Sequence": 14,
    "routeFlow": null
  },
  {
    "stopName": "Deshwali Society",
    "stopCode": 2797,
    "stationCode": 1433,
    "stopType": "MUNICIPAL_BUS",
    "shortStopName": null,
    "Position": {
      "stopLongitude": "72.556581",
      "stopLatitude": "23.075158"
    },
    "RouteCodes": null,
    "Sequence": 15,
    "routeFlow": null
  },
  {
    "stopName": "Simran Avenue",
    "stopCode": 5041,
    "stationCode": 2800,
    "stopType": "MUNICIPAL_BUS",
    "shortStopName": null,
    "Position": {
      "stopLongitude": "72.547911",
      "stopLatitude": "23.086138"
    },
    "RouteCodes": null,
    "Sequence": 8,
    "routeFlow": null
  },
  {
    "stopName": "Shriji Residency",
    "stopCode": 5042,
    "stationCode": 2748,
    "stopType": "MUNICIPAL_BUS",
    "shortStopName": null,
    "Position": {
      "stopLongitude": "72.548196",
      "stopLatitude": "23.084568"
    },
    "RouteCodes": null,
    "Sequence": 9,
    "routeFlow": null
  },
  {
    "stopName": "Silver Star Mall",
    "stopCode": 5043,
    "stationCode": 2797,
    "stopType": "MUNICIPAL_BUS",
    "shortStopName": null,
    "Position": {
      "stopLongitude": "72.546859",
      "stopLatitude": "23.083183"
    },
    "RouteCodes": null,
    "Sequence": 10,
    "routeFlow": null
  },
  {
    "stopName": "Chandlodiya Talav (Ganeshwar Mahadev)",
    "stopCode": 5293,
    "stationCode": 1361,
    "stopType": "MUNICIPAL_BUS",
    "shortStopName": null,
    "Position": {
      "stopLongitude": "72.553706",
      "stopLatitude": "23.084263"
    },
    "RouteCodes": null,
    "Sequence": 1,
    "routeFlow": null
  },
  {
    "stopName": "Gayatri Society",
    "stopCode": 5294,
    "stationCode": 1538,
    "stopType": "MUNICIPAL_BUS",
    "shortStopName": null,
    "Position": {
      "stopLongitude": "72.551001",
      "stopLatitude": "23.08385"
    },
    "RouteCodes": null,
    "Sequence": 2,
    "routeFlow": null
  },
  {
    "stopName": "Tirupati School",
    "stopCode": 5295,
    "stationCode": 5093,
    "stopType": "MUNICIPAL_BUS",
    "shortStopName": null,
    "Position": {
      "stopLongitude": "72.550803",
      "stopLatitude": "23.08602"
    },
    "RouteCodes": null,
    "Sequence": 3,
    "routeFlow": null
  },
  {
    "stopName": "Khodiyarnagar (Chandlodiya)",
    "stopCode": 5296,
    "stationCode": 3082,
    "stopType": "MUNICIPAL_BUS",
    "shortStopName": null,
    "Position": {
      "stopLongitude": "72.550288",
      "stopLatitude": "23.088335"
    },
    "RouteCodes": null,
    "Sequence": 4,
    "routeFlow": null
  },
  {
    "stopName": "Shubhmangal society",
    "stopCode": 5297,
    "stationCode": 2771,
    "stopType": "MUNICIPAL_BUS",
    "shortStopName": null,
    "Position": {
      "stopLongitude": "72.548875",
      "stopLatitude": "23.089923"
    },
    "RouteCodes": null,
    "Sequence": 6,
    "routeFlow": null
  },
  {
    "stopName": "Madhav Farm",
    "stopCode": 5298,
    "stationCode": 1984,
    "stopType": "MUNICIPAL_BUS",
    "shortStopName": null,
    "Position": {
      "stopLongitude": "72.547593",
      "stopLatitude": "23.087533"
    },
    "RouteCodes": null,
    "Sequence": 7,
    "routeFlow": null
  },
  {
    "stopName": "Vallabh Farm",
    "stopCode": 7408,
    "stationCode": 3001,
    "stopType": "MUNICIPAL_BUS",
    "shortStopName": null,
    "Position": {
      "stopLongitude": "72.550111",
      "stopLatitude": "23.088918"
    },
    "RouteCodes": null,
    "Sequence": 5,
    "routeFlow": null
  }
]