[
  {
    "stopName": "Gujarat University",
    "stopCode": 1051,
    "stationCode": 1625,
    "stopType": "MUNICIPAL_BUS",
    "shortStopName": null,
    "Position": {
      "stopLongitude": "72.548851",
      "stopLatitude": "23.034453"
    },
    "RouteCodes": null,
    "Sequence": 42,
    "routeFlow": "LINESTRING (72.63399 23.03405, 72.63343 23.03417, 72.63244 23.03434, 72.63204 23.03441, 72.63204 23.03441, 72.63083 23.03463, 72.63031 23.03471, 72.6297 23.03484, 72.62976 23.03498, 72.6294 23.03495, 72.6294 23.03499, 72.62682 23.03499, 72.62682 23.03498, 72.62574 23.03498, 72.6243 23.03488, 72.62291 23.03477, 72.62291 23.03477, 72.62272 23.03476, 72.62221 23.03478, 72.62205 23.03482, 72.62184 23.03484, 72.62153 23.03486, 72.62106 23.03481, 72.62061 23.03473, 72.62047 23.03473, 72.62025 23.03476, 72.61985 23.03489, 72.61963 23.03496, 72.61963 23.03498, 72.61851 23.03535, 72.61851 23.03534, 72.61851 23.03533, 72.6185 23.03531, 72.61797 23.03489, 72.61793 23.03489, 72.61791 23.03493, 72.61791 23.03494, 72.61792 23.03494, 72.61772 23.03493, 72.61738 23.03497, 72.61706 23.03496, 72.61705 23.03501, 72.61691 23.035, 72.6166 23.0349, 72.61622 23.03475, 72.61579 23.03454, 72.61534 23.03429, 72.61477 23.03395, 72.61457 23.03383, 72.61457 23.03383, 72.61406 23.03353, 72.61406 23.03351, 72.61407 23.03348, 72.61404 23.03343, 72.61399 23.0334, 72.61392 23.0334, 72.6139 23.03342, 72.61389 23.03343, 72.61369 23.03334, 72.61286 23.03287, 72.61209 23.03237, 72.61191 23.03224, 72.6117 23.03201, 72.61136 23.03172, 72.61136 23.0317, 72.61134 23.03168, 72.61132 23.03167, 72.61131 23.03167, 72.61128 23.03166, 72.61115 23.03148, 72.61109 23.03147, 72.61061 23.03123, 72.60968 23.03081, 72.60968 23.03081, 72.60905 23.03055, 72.60862 23.03039, 72.60845 23.03035, 72.60787 23.03011, 72.60755 23.02998, 72.60753 23.02997, 72.60739 23.02989, 72.60729 23.02986, 72.60727 23.02985, 72.60722 23.02985, 72.60718 23.02986, 72.60716 23.0299, 72.60715 23.02994, 72.60716 23.02996, 72.60677 23.03017, 72.60473 23.03096, 72.60458 23.03106, 72.60429 23.03116, 72.60424 23.0312, 72.60424 23.0312, 72.60396 23.03149, 72.60362 23.03186, 72.60349 23.03205, 72.6032 23.03269, 72.6031 23.03295, 72.60309 23.03295, 72.60308 23.03295, 72.60307 23.03295, 72.60305 23.03296, 72.60303 23.03297, 72.60302 23.03301, 72.60303 23.03301, 72.60303 23.03302, 72.60273 23.0331, 72.60192 23.03318, 72.60113 23.03322, 72.60102 23.0332, 72.60085 23.03314, 72.60052 23.03299, 72.60017 23.03271, 72.59985 23.03235, 72.59924 23.0317, 72.59906 23.03154, 72.59912 23.0314, 72.59919 23.03135, 72.59939 23.03124, 72.60013 23.03139, 72.60024 23.03134, 72.6003 23.03124, 72.60033 23.03077, 72.60032 23.03024, 72.60032 23.03024, 72.60029 23.02853, 72.6003 23.02786, 72.60029 23.02661, 72.60029 23.02623, 72.60026 23.0256, 72.60024 23.02532, 72.60018 23.02505, 72.60013 23.02486, 72.60007 23.02477, 72.59925 23.02348, 72.59906 23.02317, 72.59899 23.02305, 72.59893 23.0229, 72.59891 23.02273, 72.59896 23.0223, 72.5987 23.02233, 72.5986 23.02242, 72.5985 23.02252, 72.5985 23.02252, 72.598545 23.022633, 72.598533 23.022939, 72.598535 23.023094, 72.59858 23.02322, 72.59861 23.02324, 72.59866 23.02327, 72.59878 23.02331, 72.59887 23.02334, 72.59892 23.0233, 72.59901 23.02323, 72.59906 23.02317, 72.59899 23.02305, 72.59893 23.0229, 72.59891 23.02273, 72.59896 23.0223, 72.59915 23.02148, 72.59924 23.02106, 72.59939 23.02037, 72.59942 23.02011, 72.59941 23.01983, 72.59935 23.01958, 72.59927 23.01939, 72.59902 23.01901, 72.59889 23.01887, 72.5989 23.01888, 72.59848 23.01847, 72.59825 23.01831, 72.59772 23.01797, 72.59772 23.01797, 72.5972 23.0177, 72.59659 23.01745, 72.59626 23.01738, 72.59572 23.01727, 72.59533 23.01722, 72.59533 23.01722, 72.59484 23.01717, 72.59441 23.01708, 72.59335 23.0169, 72.59272 23.0168, 72.59139 23.01677, 72.59107 23.01671, 72.59104 23.01669, 72.59103 23.01668, 72.59105 23.01653, 72.59102 23.01626, 72.59102 23.01626, 72.59105 23.01653, 72.59102 23.01667, 72.59099 23.01667, 72.59097 23.01667, 72.59095 23.01667, 72.59087 23.0167, 72.59084 23.01672, 72.59082 23.01674, 72.59081 23.01676, 72.59061 23.0168, 72.59036 23.01689, 72.59027 23.01693, 72.59011 23.01704, 72.59001 23.01714, 72.58992 23.01724, 72.58968 23.01763, 72.58945 23.01814, 72.58933 23.01825, 72.58907 23.01838, 72.5887 23.01851, 72.5887 23.01851, 72.587 23.01913, 72.58674 23.0192, 72.58649 23.01933, 72.58636 23.01942, 72.58616 23.01959, 72.58601 23.01977, 72.58601 23.01977, 72.58558 23.02022, 72.58487 23.02087, 72.58461 23.02106, 72.58426 23.02123, 72.58406 23.0213, 72.5833 23.02144, 72.5833 23.02144, 72.58075 23.02185, 72.58075 23.02185, 72.57995 23.02198, 72.5796 23.02204, 72.5796 23.02212, 72.57959 23.02226, 72.57956 23.02302, 72.57949 23.02352, 72.57923 23.02351, 72.57914 23.02354, 72.57906 23.0237, 72.57904 23.02434, 72.5786 23.02437, 72.5786 23.02437, 72.57864 23.02437, 72.57865 23.02503, 72.57904 23.02503, 72.57907 23.02503, 72.58002 23.02499, 72.58037 23.02497, 72.58045 23.02499, 72.58058 23.02506, 72.58064 23.02513, 72.58065 23.02554, 72.58059 23.02624, 72.58064 23.02715, 72.58054 23.02724, 72.5804 23.02727, 72.57955 23.02725, 72.57888 23.02719, 72.57888 23.02719, 72.57778 23.02711, 72.57124 23.02658, 72.57128 23.02613, 72.57133 23.0253, 72.57133 23.0253, 72.57139 23.02444, 72.5714 23.02408, 72.5714 23.02408, 72.57143 23.02345, 72.57142 23.02262, 72.57144 23.02239, 72.57129 23.02231, 72.57117 23.02225, 72.57077 23.0222, 72.56982 23.02207, 72.56982 23.02207, 72.5681 23.022, 72.56748 23.02189, 72.56628 23.02148, 72.56611 23.02143, 72.56611 23.02143, 72.56423 23.02087, 72.56358 23.02071, 72.56358 23.02071, 72.5627 23.02052, 72.56178 23.02033, 72.56108 23.02023, 72.56074 23.02018, 72.56066 23.02016, 72.56063 23.02023, 72.56058 23.02037, 72.5604 23.02087, 72.56038 23.02094, 72.56038 23.02094, 72.56007 23.02191, 72.55973 23.02316, 72.55959 23.02384, 72.55908 23.02386, 72.5586 23.02391, 72.55813 23.02368, 72.55797 23.02358, 72.55797 23.02358, 72.55686 23.02288, 72.55686 23.02288, 72.55632 23.02256, 72.55633 23.02254, 72.55633 23.02252, 72.55631 23.02248, 72.55623 23.02243, 72.55617 23.02244, 72.55589 23.02225, 72.5549 23.02152, 72.5543 23.02112, 72.55388 23.02081, 72.55387 23.0208, 72.55387 23.02078, 72.55384 23.02075, 72.55379 23.02074, 72.55372 23.02078, 72.55372 23.02079, 72.55325 23.02089, 72.55316 23.02094, 72.553 23.02102, 72.55228 23.02142, 72.55228 23.02142, 72.55171 23.02177, 72.55095 23.02225, 72.55064 23.02239, 72.55062 23.02239, 72.5506 23.02239, 72.55058 23.0224, 72.55054 23.02242, 72.55037 23.02244, 72.54982 23.02235, 72.54982 23.02235, 72.54921 23.02221, 72.54823 23.02202, 72.54792 23.02198, 72.54727 23.02188, 72.54727 23.02188, 72.54687 23.02184, 72.54585 23.02184, 72.54504 23.02193, 72.54434 23.02199, 72.54434 23.02199, 72.54319 23.02218, 72.54305 23.02218, 72.54302 23.02214, 72.54293 23.02212, 72.54285 23.02212, 72.5427 23.02218, 72.54265 23.02224, 72.54262 23.0223, 72.54261 23.02236, 72.54266 23.02247, 72.54271 23.02251, 72.54279 23.02315, 72.54279 23.02315, 72.54284 23.02379, 72.54291 23.02418, 72.54295 23.02434, 72.54299 23.0247, 72.54299 23.0247, 72.54308 23.02516, 72.54318 23.02533, 72.54407 23.0264, 72.54487 23.02734, 72.54509 23.02755, 72.54509 23.02755, 72.54634 23.02876, 72.54706 23.02944, 72.54794 23.03026, 72.54833 23.03071, 72.54833 23.03071, 72.54896 23.03145, 72.54921 23.03184, 72.54937 23.03215, 72.54941 23.03242, 72.54935 23.03271, 72.54902 23.03372, 72.54887 23.03446)"
  },
  {
    "stopName": "Lal Darwaja",
    "stopCode": 1125,
    "stationCode": 1961,
    "stopType": "MUNICIPAL_BUS",
    "shortStopName": null,
    "Position": {
      "stopLongitude": "72.578605",
      "stopLatitude": "23.024376"
    },
    "RouteCodes": null,
    "Sequence": 23,
    "routeFlow": null
  },
  {
    "stopName": "Apna Bazar",
    "stopCode": 1126,
    "stationCode": 1150,
    "stopType": "MUNICIPAL_BUS",
    "shortStopName": null,
    "Position": {
      "stopLongitude": "72.579073",
      "stopLatitude": "23.025068"
    },
    "RouteCodes": null,
    "Sequence": 24,
    "routeFlow": null
  },
  {
    "stopName": "Sardarbag",
    "stopCode": 1127,
    "stationCode": 2611,
    "stopType": "MUNICIPAL_BUS",
    "shortStopName": null,
    "Position": {
      "stopLongitude": "72.578883",
      "stopLatitude": "23.027145"
    },
    "RouteCodes": null,
    "Sequence": 25,
    "routeFlow": null
  },
  {
    "stopName": "Gandhigram Railway Station",
    "stopCode": 1128,
    "stationCode": 1522,
    "stopType": "MUNICIPAL_BUS",
    "shortStopName": null,
    "Position": {
      "stopLongitude": "72.571413",
      "stopLatitude": "23.025308"
    },
    "RouteCodes": null,
    "Sequence": 26,
    "routeFlow": null
  },
  {
    "stopName": "Sanyas Ashram",
    "stopCode": 1129,
    "stationCode": 2588,
    "stopType": "MUNICIPAL_BUS",
    "shortStopName": null,
    "Position": {
      "stopLongitude": "72.571466",
      "stopLatitude": "23.02408"
    },
    "RouteCodes": null,
    "Sequence": 27,
    "routeFlow": null
  },
  {
    "stopName": "Sarangpur",
    "stopCode": 1204,
    "stationCode": 2593,
    "stopType": "MUNICIPAL_BUS",
    "shortStopName": null,
    "Position": {
      "stopLongitude": "72.598497",
      "stopLatitude": "23.022515"
    },
    "RouteCodes": null,
    "Sequence": 14,
    "routeFlow": null
  },
  {
    "stopName": "Panjarapol",
    "stopCode": 1575,
    "stationCode": 2297,
    "stopType": "MUNICIPAL_BUS",
    "shortStopName": null,
    "Position": {
      "stopLongitude": "72.54505",
      "stopLatitude": "23.027585"
    },
    "RouteCodes": null,
    "Sequence": 40,
    "routeFlow": null
  },
  {
    "stopName": "Shaifali Society",
    "stopCode": 1576,
    "stationCode": 2685,
    "stopType": "MUNICIPAL_BUS",
    "shortStopName": null,
    "Position": {
      "stopLongitude": "72.548303",
      "stopLatitude": "23.030726"
    },
    "RouteCodes": null,
    "Sequence": 41,
    "routeFlow": null
  },
  {
    "stopName": "Kalupur Terminus",
    "stopCode": 1715,
    "stationCode": 1840,
    "stopType": "MUNICIPAL_BUS",
    "shortStopName": null,
    "Position": {
      "stopLongitude": "72.600373",
      "stopLatitude": "23.030241"
    },
    "RouteCodes": null,
    "Sequence": 13,
    "routeFlow": null
  },
  {
    "stopName": "New Cloth Market",
    "stopCode": 1845,
    "stationCode": 2208,
    "stopType": "MUNICIPAL_BUS",
    "shortStopName": null,
    "Position": {
      "stopLongitude": "72.598915",
      "stopLatitude": "23.01886"
    },
    "RouteCodes": null,
    "Sequence": 15,
    "routeFlow": null
  },
  {
    "stopName": "Mahipatram Ashram",
    "stopCode": 1846,
    "stationCode": 2012,
    "stopType": "MUNICIPAL_BUS",
    "shortStopName": null,
    "Position": {
      "stopLongitude": "72.597764",
      "stopLatitude": "23.017908"
    },
    "RouteCodes": null,
    "Sequence": 16,
    "routeFlow": null
  },
  {
    "stopName": "Raipur Darwaja",
    "stopCode": 1847,
    "stationCode": 2497,
    "stopType": "MUNICIPAL_BUS",
    "shortStopName": null,
    "Position": {
      "stopLongitude": "72.595344",
      "stopLatitude": "23.017108"
    },
    "RouteCodes": null,
    "Sequence": 17,
    "routeFlow": null
  },
  {
    "stopName": "Astodiya Darwaja",
    "stopCode": 1848,
    "stationCode": 1197,
    "stopType": "MUNICIPAL_BUS",
    "shortStopName": null,
    "Position": {
      "stopLongitude": "72.590998",
      "stopLatitude": "23.016266"
    },
    "RouteCodes": null,
    "Sequence": 18,
    "routeFlow": null
  },
  {
    "stopName": "Law College",
    "stopCode": 1971,
    "stationCode": 1967,
    "stopType": "MUNICIPAL_BUS",
    "shortStopName": null,
    "Position": {
      "stopLongitude": "72.557993",
      "stopLatitude": "23.023551"
    },
    "RouteCodes": null,
    "Sequence": 32,
    "routeFlow": null
  },
  {
    "stopName": "Panchvati",
    "stopCode": 1972,
    "stationCode": 2294,
    "stopType": "MUNICIPAL_BUS",
    "shortStopName": null,
    "Position": {
      "stopLongitude": "72.556883",
      "stopLatitude": "23.022848"
    },
    "RouteCodes": null,
    "Sequence": 33,
    "routeFlow": null
  },
  {
    "stopName": "C.N. Vidyalay",
    "stopCode": 1973,
    "stationCode": 1324,
    "stopType": "MUNICIPAL_BUS",
    "shortStopName": null,
    "Position": {
      "stopLongitude": "72.552275",
      "stopLatitude": "23.021416"
    },
    "RouteCodes": null,
    "Sequence": 34,
    "routeFlow": null
  },
  {
    "stopName": "L Colony",
    "stopCode": 2028,
    "stationCode": 1943,
    "stopType": "MUNICIPAL_BUS",
    "shortStopName": null,
    "Position": {
      "stopLongitude": "72.542995",
      "stopLatitude": "23.0247"
    },
    "RouteCodes": null,
    "Sequence": 39,
    "routeFlow": null
  },
  {
    "stopName": "Astodiya Chakla",
    "stopCode": 2156,
    "stationCode": 1195,
    "stopType": "MUNICIPAL_BUS",
    "shortStopName": null,
    "Position": {
      "stopLongitude": "72.58869",
      "stopLatitude": "23.018495"
    },
    "RouteCodes": null,
    "Sequence": 19,
    "routeFlow": null
  },
  {
    "stopName": "Sardar Bhavan (Gol Limda)",
    "stopCode": 2157,
    "stationCode": 2601,
    "stopType": "MUNICIPAL_BUS",
    "shortStopName": null,
    "Position": {
      "stopLongitude": "72.58602",
      "stopLatitude": "23.01977"
    },
    "RouteCodes": null,
    "Sequence": 20,
    "routeFlow": null
  },
  {
    "stopName": "Khamasa",
    "stopCode": 2158,
    "stationCode": 1879,
    "stopType": "MUNICIPAL_BUS",
    "shortStopName": null,
    "Position": {
      "stopLongitude": "72.583295",
      "stopLatitude": "23.021433"
    },
    "RouteCodes": null,
    "Sequence": 21,
    "routeFlow": null
  },
  {
    "stopName": "Tilakbag",
    "stopCode": 2159,
    "stationCode": 2941,
    "stopType": "MUNICIPAL_BUS",
    "shortStopName": null,
    "Position": {
      "stopLongitude": "72.580751",
      "stopLatitude": "23.021846"
    },
    "RouteCodes": null,
    "Sequence": 22,
    "routeFlow": null
  },
  {
    "stopName": "Shardaben Hospital",
    "stopCode": 2497,
    "stationCode": 2708,
    "stopType": "MUNICIPAL_BUS",
    "shortStopName": null,
    "Position": {
      "stopLongitude": "72.611318",
      "stopLatitude": "23.031652"
    },
    "RouteCodes": null,
    "Sequence": 9,
    "routeFlow": null
  },
  {
    "stopName": "Saraspur Char Rasta",
    "stopCode": 2498,
    "stationCode": 2596,
    "stopType": "MUNICIPAL_BUS",
    "shortStopName": null,
    "Position": {
      "stopLongitude": "72.609691",
      "stopLatitude": "23.030789"
    },
    "RouteCodes": null,
    "Sequence": 10,
    "routeFlow": null
  },
  {
    "stopName": "Dr.Ambedkar Hall (Saraspur)",
    "stopCode": 2499,
    "stationCode": 1468,
    "stopType": "MUNICIPAL_BUS",
    "shortStopName": null,
    "Position": {
      "stopLongitude": "72.607565",
      "stopLatitude": "23.02995"
    },
    "RouteCodes": null,
    "Sequence": 11,
    "routeFlow": null
  },
  {
    "stopName": "Shrinagar Mills",
    "stopCode": 2500,
    "stationCode": 2751,
    "stopType": "MUNICIPAL_BUS",
    "shortStopName": null,
    "Position": {
      "stopLongitude": "72.604189",
      "stopLatitude": "23.031156"
    },
    "RouteCodes": null,
    "Sequence": 12,
    "routeFlow": null
  },
  {
    "stopName": "Madalpur (Town Hall)",
    "stopCode": 2608,
    "stationCode": 1982,
    "stopType": "MUNICIPAL_BUS",
    "shortStopName": null,
    "Position": {
      "stopLongitude": "72.569816",
      "stopLatitude": "23.022096"
    },
    "RouteCodes": null,
    "Sequence": 28,
    "routeFlow": null
  },
  {
    "stopName": "Gujarat College",
    "stopCode": 2609,
    "stationCode": 1614,
    "stopType": "MUNICIPAL_BUS",
    "shortStopName": null,
    "Position": {
      "stopLongitude": "72.566111",
      "stopLatitude": "23.021423"
    },
    "RouteCodes": null,
    "Sequence": 29,
    "routeFlow": null
  },
  {
    "stopName": "Hope Nuro Care Hospital",
    "stopCode": 2610,
    "stationCode": 1691,
    "stopType": "MUNICIPAL_BUS",
    "shortStopName": null,
    "Position": {
      "stopLongitude": "72.563578",
      "stopLatitude": "23.020716"
    },
    "RouteCodes": null,
    "Sequence": 30,
    "routeFlow": null
  },
  {
    "stopName": "University Granth Nirman Board",
    "stopCode": 2611,
    "stationCode": 2973,
    "stopType": "MUNICIPAL_BUS",
    "shortStopName": null,
    "Position": {
      "stopLongitude": "72.560386",
      "stopLatitude": "23.020945"
    },
    "RouteCodes": null,
    "Sequence": 31,
    "routeFlow": null
  },
  {
    "stopName": "Exise Chowki (Cn)",
    "stopCode": 2612,
    "stationCode": 1490,
    "stopType": "MUNICIPAL_BUS",
    "shortStopName": null,
    "Position": {
      "stopLongitude": "72.549823",
      "stopLatitude": "23.022355"
    },
    "RouteCodes": null,
    "Sequence": 35,
    "routeFlow": null
  },
  {
    "stopName": "Snehkunj",
    "stopCode": 2613,
    "stationCode": 2812,
    "stopType": "MUNICIPAL_BUS",
    "shortStopName": null,
    "Position": {
      "stopLongitude": "72.547263",
      "stopLatitude": "23.021925"
    },
    "RouteCodes": null,
    "Sequence": 36,
    "routeFlow": null
  },
  {
    "stopName": "Government Quarters (Nehrunagar)",
    "stopCode": 2614,
    "stationCode": 1597,
    "stopType": "MUNICIPAL_BUS",
    "shortStopName": null,
    "Position": {
      "stopLongitude": "72.54434",
      "stopLatitude": "23.022033"
    },
    "RouteCodes": null,
    "Sequence": 37,
    "routeFlow": null
  },
  {
    "stopName": "Bapunagar Char Rasta",
    "stopCode": 2812,
    "stationCode": 1249,
    "stopType": "MUNICIPAL_BUS",
    "shortStopName": null,
    "Position": {
      "stopLongitude": "72.629401",
      "stopLatitude": "23.034961"
    },
    "RouteCodes": null,
    "Sequence": 3,
    "routeFlow": null
  },
  {
    "stopName": "Bapunagar Ghanti (Patelwadi)",
    "stopCode": 2813,
    "stationCode": 1251,
    "stopType": "MUNICIPAL_BUS",
    "shortStopName": null,
    "Position": {
      "stopLongitude": "72.626825",
      "stopLatitude": "23.035"
    },
    "RouteCodes": null,
    "Sequence": 4,
    "routeFlow": null
  },
  {
    "stopName": "Bhid Bhanjan Hanuman",
    "stopCode": 2814,
    "stationCode": 1296,
    "stopType": "MUNICIPAL_BUS",
    "shortStopName": null,
    "Position": {
      "stopLongitude": "72.622918",
      "stopLatitude": "23.034724"
    },
    "RouteCodes": null,
    "Sequence": 5,
    "routeFlow": null
  },
  {
    "stopName": "Ambar Cinema",
    "stopCode": 2815,
    "stationCode": 1105,
    "stopType": "MUNICIPAL_BUS",
    "shortStopName": null,
    "Position": {
      "stopLongitude": "72.619618",
      "stopLatitude": "23.034938"
    },
    "RouteCodes": null,
    "Sequence": 6,
    "routeFlow": null
  },
  {
    "stopName": "Bombay Housing Colony",
    "stopCode": 2816,
    "stationCode": 1318,
    "stopType": "MUNICIPAL_BUS",
    "shortStopName": null,
    "Position": {
      "stopLongitude": "72.61705",
      "stopLatitude": "23.035003"
    },
    "RouteCodes": null,
    "Sequence": 7,
    "routeFlow": null
  },
  {
    "stopName": "Nutan Mills",
    "stopCode": 2817,
    "stationCode": 2249,
    "stopType": "MUNICIPAL_BUS",
    "shortStopName": null,
    "Position": {
      "stopLongitude": "72.614588",
      "stopLatitude": "23.033795"
    },
    "RouteCodes": null,
    "Sequence": 8,
    "routeFlow": null
  },
  {
    "stopName": "Bapunagar",
    "stopCode": 4416,
    "stationCode": 1248,
    "stopType": "MUNICIPAL_BUS",
    "shortStopName": null,
    "Position": {
      "stopLongitude": "72.633983",
      "stopLatitude": "23.034028"
    },
    "RouteCodes": null,
    "Sequence": 1,
    "routeFlow": null
  },
  {
    "stopName": "Nehrunagar Char Rasta",
    "stopCode": 4417,
    "stationCode": 2204,
    "stopType": "MUNICIPAL_BUS",
    "shortStopName": null,
    "Position": {
      "stopLongitude": "72.54275",
      "stopLatitude": "23.023155"
    },
    "RouteCodes": null,
    "Sequence": 38,
    "routeFlow": null
  },
  {
    "stopName": "Kalyan Kendra",
    "stopCode": 4940,
    "stationCode": 1841,
    "stopType": "MUNICIPAL_BUS",
    "shortStopName": null,
    "Position": {
      "stopLongitude": "72.63203",
      "stopLatitude": "23.034383"
    },
    "RouteCodes": null,
    "Sequence": 2,
    "routeFlow": null
  }
]