[
  {
    "stopName": "Sanyas Ashram",
    "stopCode": 1073,
    "stationCode": 2588,
    "stopType": "MUNICIPAL_BUS",
    "shortStopName": null,
    "Position": {
      "stopLongitude": "72.571266",
      "stopLatitude": "23.024094"
    },
    "RouteCodes": null,
    "Sequence": 16,
    "routeFlow": "LINESTRING (72.549024 23.034622, 72.54908 23.034, 72.54915 23.03372, 72.54948 23.03274, 72.54953 23.0325, 72.54952 23.03224, 72.54943 23.03194, 72.54923 23.03158, 72.54911 23.03139, 72.54874 23.03092, 72.54833 23.03046, 72.54821 23.03034, 72.54821 23.03034, 72.54791 23.03002, 72.54737 23.02948, 72.54675 23.0289, 72.54649 23.02869, 72.54564 23.02784, 72.54536 23.02756, 72.54501 23.02727, 72.54473 23.02696, 72.54442 23.02657, 72.54442 23.02657, 72.54339 23.02533, 72.54331 23.02521, 72.54327 23.02512, 72.54313 23.02445, 72.54307 23.02402, 72.54302 23.02378, 72.54302 23.02378, 72.54295 23.02297, 72.54295 23.02297, 72.54292 23.02266, 72.54294 23.02249, 72.543 23.02245, 72.54305 23.02241, 72.54308 23.02236, 72.54308 23.02234, 72.54318 23.0223, 72.54333 23.02224, 72.54364 23.02217, 72.54384 23.02213, 72.54384 23.02213, 72.54459 23.02204, 72.54559 23.02195, 72.54634 23.02192, 72.54705 23.02193, 72.5481 23.0221, 72.5481 23.0221, 72.54947 23.02238, 72.55033 23.02252, 72.55051 23.02254, 72.55052 23.02255, 72.55053 23.02257, 72.55057 23.0226, 72.55062 23.02262, 72.55071 23.02259, 72.55075 23.0225, 72.55089 23.02241, 72.55112 23.02228, 72.55132 23.02217, 72.55132 23.02217, 72.5528 23.02124, 72.5528 23.02124, 72.5533 23.02096, 72.55374 23.02088, 72.55376 23.02089, 72.55381 23.02089, 72.55382 23.02089, 72.55421 23.02118, 72.55493 23.02166, 72.55583 23.02236, 72.55608 23.02252, 72.55608 23.02253, 72.55608 23.02254, 72.55608 23.02258, 72.55611 23.02262, 72.55618 23.02266, 72.55627 23.02264, 72.55628 23.02263, 72.55742 23.02335, 72.55742 23.02335, 72.5579 23.02366, 72.55813 23.02378, 72.55839 23.02394, 72.55851 23.02396, 72.55859 23.024, 72.55923 23.02397, 72.55968 23.02395, 72.55968 23.02385, 72.55977 23.02342, 72.55977 23.02342, 72.56015 23.02194, 72.56037 23.02122, 72.56057 23.02065, 72.56057 23.02065, 72.56065 23.02044, 72.56075 23.02038, 72.56095 23.02029, 72.56108 23.02023, 72.56178 23.02033, 72.56339 23.02067, 72.56416 23.02085, 72.56416 23.02085, 72.56541 23.02121, 72.5664 23.02153, 72.5664 23.02153, 72.56748 23.02189, 72.56769 23.02193, 72.5681 23.022, 72.56843 23.02201, 72.56985 23.02208, 72.57018 23.02213, 72.57066 23.02219, 72.57066 23.02219, 72.57078 23.0222, 72.57088 23.02226, 72.57105 23.02232, 72.57128 23.02247, 72.57125 23.02299, 72.57124 23.02334, 72.57126 23.02409, 72.57126 23.02409, 72.57125 23.025, 72.57123 23.025, 72.57115 23.02616, 72.57111 23.02667, 72.57251 23.02678, 72.57841 23.02725, 72.57865 23.02727, 72.57869 23.02727, 72.58005 23.02736, 72.58111 23.02732, 72.5813 23.02725, 72.58135 23.02722, 72.58136 23.02709, 72.5814 23.02643, 72.58107 23.0264, 72.58082 23.02643, 72.58059 23.02624, 72.58062 23.02571, 72.58064 23.02532, 72.58073 23.02532, 72.58063 23.02532, 72.58064 23.02513, 72.58062 23.02472, 72.58064 23.02449, 72.58059 23.02439, 72.58049 23.02415, 72.58041 23.02401, 72.58031 23.02393, 72.57974 23.02367, 72.57949 23.02352, 72.57918 23.02352, 72.57912 23.02356, 72.57906 23.0237, 72.57906 23.02384, 72.57905 23.02408, 72.57904 23.02436, 72.57898 23.02436, 72.57898 23.02434, 72.57864 23.02437, 72.5784 23.02436, 72.5784 23.02443, 72.5784 23.02443, 72.5784 23.02437, 72.57855 23.02437, 72.5789 23.02438, 72.5791 23.02438, 72.57907 23.02504, 72.57968 23.02508, 72.57977 23.02505, 72.58006 23.02505, 72.58067 23.02493, 72.58067 23.02466, 72.58067 23.02448, 72.58061 23.02425, 72.58057 23.02413, 72.58051 23.02407, 72.58033 23.02392, 72.57975 23.02366, 72.57953 23.02355, 72.57962 23.02301, 72.57967 23.02228, 72.57966 23.02217, 72.57997 23.02214, 72.5804 23.02208, 72.5808 23.02201, 72.580795 23.022007, 72.58198 23.02181, 72.58305 23.02162, 72.58365 23.0215, 72.58365 23.0215, 72.5841 23.02141, 72.5845 23.02126, 72.58474 23.02112, 72.58512 23.02084, 72.58542 23.02055, 72.58613 23.01988, 72.58622 23.01977, 72.58622 23.01977, 72.58649 23.01954, 72.58665 23.01943, 72.58719 23.01919, 72.58857 23.0187, 72.58857 23.0187, 72.58902 23.01854, 72.5894 23.01832, 72.58957 23.01813, 72.58976 23.01768, 72.58998 23.0173, 72.59014 23.01713, 72.59046 23.01694, 72.59064 23.01691, 72.59084 23.01692, 72.59091 23.01696, 72.59099 23.01696, 72.59106 23.01693, 72.5911 23.0169, 72.59139 23.01685, 72.5922 23.0169, 72.59285 23.01694, 72.59329 23.017, 72.59329 23.017, 72.59549 23.01739, 72.59549 23.01739, 72.59589 23.01747, 72.59657 23.01764, 72.59731 23.0179, 72.59782 23.0182, 72.59789 23.01824, 72.59789 23.01824, 72.59826 23.01848, 72.59852 23.01869, 72.59881 23.01901, 72.59906 23.01931, 72.59913 23.01942, 72.59913 23.01942, 72.59923 23.01963, 72.59929 23.01993, 72.59929 23.02022, 72.59881 23.02232, 72.5987 23.02233, 72.59864 23.02237, 72.5985 23.02252, 72.5985 23.02252, 72.59838 23.02272, 72.59826 23.02301, 72.59826 23.02315, 72.59795 23.02386, 72.59754 23.02479, 72.59735 23.02522, 72.59739 23.02523, 72.59758 23.02529, 72.59758 23.02529, 72.5977 23.02534, 72.59784 23.02544, 72.59858 23.02598, 72.59889 23.02622, 72.59899 23.0263, 72.59899 23.0263, 72.60022 23.02725, 72.60016 23.02763, 72.60016 23.02792, 72.60013 23.02836, 72.60009 23.02849, 72.59968 23.02931, 72.59931 23.03006, 72.59931 23.03006, 72.5988 23.03109, 72.59872 23.03126, 72.59906 23.03154, 72.59924 23.0317, 72.59985 23.03235, 72.60017 23.03271, 72.60031 23.03283, 72.60052 23.03299, 72.60074 23.0331, 72.60102 23.0332, 72.60113 23.03322, 72.60192 23.03318, 72.60273 23.0331, 72.60303 23.03302, 72.60303 23.03303, 72.60304 23.03304, 72.60305 23.03304, 72.60307 23.03305, 72.60311 23.03304, 72.60314 23.03301, 72.60313 23.03297, 72.60312 23.03296, 72.60311 23.03295, 72.6031 23.03295, 72.60343 23.03216, 72.60355 23.03195, 72.60371 23.03174, 72.60408 23.03135, 72.60425 23.03119, 72.60425 23.03119, 72.60429 23.03116, 72.60458 23.03106, 72.60477 23.03104, 72.60594 23.03057, 72.6068 23.03023, 72.6068 23.03023, 72.60727 23.02999, 72.6073 23.02996, 72.60753 23.02997, 72.60803 23.03019, 72.60845 23.03035, 72.60862 23.03039, 72.60922 23.03062, 72.60992 23.03091, 72.60992 23.03091, 72.61061 23.03123, 72.61109 23.03147, 72.61115 23.03148, 72.61128 23.03166, 72.61127 23.03166, 72.61126 23.03166, 72.61125 23.03166, 72.61122 23.03168, 72.6112 23.03169, 72.61118 23.03174, 72.6112 23.03179, 72.61124 23.03182, 72.61128 23.03183, 72.61128 23.03183, 72.61131 23.03183, 72.61132 23.03182, 72.61133 23.03182, 72.61182 23.03237, 72.6119 23.03244, 72.61286 23.03301, 72.61363 23.03341, 72.61387 23.03351, 72.61387 23.03352, 72.61388 23.03353, 72.61389 23.03355, 72.61391 23.03357, 72.61395 23.03358, 72.61401 23.03357, 72.61403 23.03355, 72.61405 23.03354, 72.61456 23.03382, 72.61456 23.03382, 72.61477 23.03395, 72.61532 23.03427, 72.61579 23.03452, 72.61621 23.03472, 72.61658 23.03485, 72.61689 23.03494, 72.61714 23.03497, 72.61747 23.03496, 72.61747 23.03496, 72.61772 23.03493, 72.61792 23.03494, 72.61792 23.03495, 72.61793 23.03496, 72.61795 23.03496, 72.61796 23.03496, 72.61797 23.03496, 72.61843 23.03535, 72.61843 23.03536, 72.61844 23.03537, 72.61846 23.03538, 72.61849 23.03538, 72.6185 23.03536, 72.61922 23.03512, 72.61925 23.03511, 72.62008 23.03484, 72.62037 23.03477, 72.62062 23.03477, 72.62106 23.03482, 72.62135 23.03488, 72.62165 23.03488, 72.62201 23.03485, 72.62217 23.03487, 72.62221 23.03483, 72.62222 23.03488, 72.62255 23.03488, 72.62328 23.03491, 72.62426 23.03498, 72.62574 23.03509, 72.62611 23.0351, 72.62611 23.0351, 72.6284 23.03511, 72.62949 23.03507, 72.62949 23.03507, 72.62976 23.03506, 72.62977 23.03507, 72.6298 23.03509, 72.62986 23.03507, 72.62989 23.03501, 72.62988 23.03498, 72.62986 23.03497, 72.62983 23.03483, 72.63035 23.03475, 72.63087 23.03466, 72.63159 23.03451, 72.632 23.03445, 72.632 23.03445, 72.63397 23.03406)"
  },
  {
    "stopName": "Gandhigram Railway Station",
    "stopCode": 1074,
    "stationCode": 1522,
    "stopType": "MUNICIPAL_BUS",
    "shortStopName": null,
    "Position": {
      "stopLongitude": "72.571216",
      "stopLatitude": "23.024998"
    },
    "RouteCodes": null,
    "Sequence": 17,
    "routeFlow": null
  },
  {
    "stopName": "Sardarbag",
    "stopCode": 1075,
    "stationCode": 2611,
    "stopType": "MUNICIPAL_BUS",
    "shortStopName": null,
    "Position": {
      "stopLongitude": "72.578645",
      "stopLatitude": "23.027351"
    },
    "RouteCodes": null,
    "Sequence": 18,
    "routeFlow": null
  },
  {
    "stopName": "Apna Bazar",
    "stopCode": 1076,
    "stationCode": 1150,
    "stopType": "MUNICIPAL_BUS",
    "shortStopName": null,
    "Position": {
      "stopLongitude": "72.580705",
      "stopLatitude": "23.025321"
    },
    "RouteCodes": null,
    "Sequence": 19,
    "routeFlow": null
  },
  {
    "stopName": "Sarangpur",
    "stopCode": 1204,
    "stationCode": 2593,
    "stopType": "MUNICIPAL_BUS",
    "shortStopName": null,
    "Position": {
      "stopLongitude": "72.598497",
      "stopLatitude": "23.022515"
    },
    "RouteCodes": null,
    "Sequence": 29,
    "routeFlow": null
  },
  {
    "stopName": "Gujarat University",
    "stopCode": 1222,
    "stationCode": 1625,
    "stopType": "MUNICIPAL_BUS",
    "shortStopName": null,
    "Position": {
      "stopLongitude": "72.549028",
      "stopLatitude": "23.034608"
    },
    "RouteCodes": null,
    "Sequence": 1,
    "routeFlow": null
  },
  {
    "stopName": "Astodiya Darwaja",
    "stopCode": 1299,
    "stationCode": 1197,
    "stopType": "MUNICIPAL_BUS",
    "shortStopName": null,
    "Position": {
      "stopLongitude": "72.593273",
      "stopLatitude": "23.01708"
    },
    "RouteCodes": null,
    "Sequence": 25,
    "routeFlow": null
  },
  {
    "stopName": "Shaifali Society",
    "stopCode": 1402,
    "stationCode": 2685,
    "stopType": "MUNICIPAL_BUS",
    "shortStopName": null,
    "Position": {
      "stopLongitude": "72.548258",
      "stopLatitude": "23.030305"
    },
    "RouteCodes": null,
    "Sequence": 2,
    "routeFlow": null
  },
  {
    "stopName": "Panjarapol",
    "stopCode": 1403,
    "stationCode": 2297,
    "stopType": "MUNICIPAL_BUS",
    "shortStopName": null,
    "Position": {
      "stopLongitude": "72.544458",
      "stopLatitude": "23.026545"
    },
    "RouteCodes": null,
    "Sequence": 3,
    "routeFlow": null
  },
  {
    "stopName": "Kalupur Terminus",
    "stopCode": 1734,
    "stationCode": 1840,
    "stopType": "MUNICIPAL_BUS",
    "shortStopName": null,
    "Position": {
      "stopLongitude": "72.599252",
      "stopLatitude": "23.030033"
    },
    "RouteCodes": null,
    "Sequence": 32,
    "routeFlow": null
  },
  {
    "stopName": "Raipur Darwaja",
    "stopCode": 1945,
    "stationCode": 2497,
    "stopType": "MUNICIPAL_BUS",
    "shortStopName": null,
    "Position": {
      "stopLongitude": "72.595473",
      "stopLatitude": "23.017458"
    },
    "RouteCodes": null,
    "Sequence": 26,
    "routeFlow": null
  },
  {
    "stopName": "Mahipatram Ashram",
    "stopCode": 1946,
    "stationCode": 2012,
    "stopType": "MUNICIPAL_BUS",
    "shortStopName": null,
    "Position": {
      "stopLongitude": "72.597851",
      "stopLatitude": "23.018296"
    },
    "RouteCodes": null,
    "Sequence": 27,
    "routeFlow": null
  },
  {
    "stopName": "New Cloth Market",
    "stopCode": 1947,
    "stationCode": 2208,
    "stopType": "MUNICIPAL_BUS",
    "shortStopName": null,
    "Position": {
      "stopLongitude": "72.59909",
      "stopLatitude": "23.019433"
    },
    "RouteCodes": null,
    "Sequence": 28,
    "routeFlow": null
  },
  {
    "stopName": "L Colony",
    "stopCode": 2112,
    "stationCode": 1943,
    "stopType": "MUNICIPAL_BUS",
    "shortStopName": null,
    "Position": {
      "stopLongitude": "72.543016",
      "stopLatitude": "23.023785"
    },
    "RouteCodes": null,
    "Sequence": 4,
    "routeFlow": null
  },
  {
    "stopName": "Tilakbag",
    "stopCode": 2223,
    "stationCode": 2941,
    "stopType": "MUNICIPAL_BUS",
    "shortStopName": null,
    "Position": {
      "stopLongitude": "72.580798",
      "stopLatitude": "23.022018"
    },
    "RouteCodes": null,
    "Sequence": 21,
    "routeFlow": null
  },
  {
    "stopName": "Khamasa",
    "stopCode": 2224,
    "stationCode": 1879,
    "stopType": "MUNICIPAL_BUS",
    "shortStopName": null,
    "Position": {
      "stopLongitude": "72.583653",
      "stopLatitude": "23.021513"
    },
    "RouteCodes": null,
    "Sequence": 22,
    "routeFlow": null
  },
  {
    "stopName": "Sardar Bhavan (Gol Limda)",
    "stopCode": 2225,
    "stationCode": 2601,
    "stopType": "MUNICIPAL_BUS",
    "shortStopName": null,
    "Position": {
      "stopLongitude": "72.58625",
      "stopLatitude": "23.01979"
    },
    "RouteCodes": null,
    "Sequence": 23,
    "routeFlow": null
  },
  {
    "stopName": "Astodiya Chakla",
    "stopCode": 2226,
    "stationCode": 1195,
    "stopType": "MUNICIPAL_BUS",
    "shortStopName": null,
    "Position": {
      "stopLongitude": "72.588583",
      "stopLatitude": "23.018735"
    },
    "RouteCodes": null,
    "Sequence": 24,
    "routeFlow": null
  },
  {
    "stopName": "Shrinagar Mills",
    "stopCode": 2501,
    "stationCode": 2751,
    "stopType": "MUNICIPAL_BUS",
    "shortStopName": null,
    "Position": {
      "stopLongitude": "72.604276",
      "stopLatitude": "23.031221"
    },
    "RouteCodes": null,
    "Sequence": 33,
    "routeFlow": null
  },
  {
    "stopName": "Dr.Ambedkar Hall (Saraspur)",
    "stopCode": 2502,
    "stationCode": 1468,
    "stopType": "MUNICIPAL_BUS",
    "shortStopName": null,
    "Position": {
      "stopLongitude": "72.606785",
      "stopLatitude": "23.030225"
    },
    "RouteCodes": null,
    "Sequence": 34,
    "routeFlow": null
  },
  {
    "stopName": "Saraspur Char Rasta",
    "stopCode": 2503,
    "stationCode": 2596,
    "stopType": "MUNICIPAL_BUS",
    "shortStopName": null,
    "Position": {
      "stopLongitude": "72.609891",
      "stopLatitude": "23.030973"
    },
    "RouteCodes": null,
    "Sequence": 35,
    "routeFlow": null
  },
  {
    "stopName": "Government Quarters (Nehrunagar)",
    "stopCode": 2665,
    "stationCode": 1597,
    "stopType": "MUNICIPAL_BUS",
    "shortStopName": null,
    "Position": {
      "stopLongitude": "72.543851",
      "stopLatitude": "23.022185"
    },
    "RouteCodes": null,
    "Sequence": 6,
    "routeFlow": null
  },
  {
    "stopName": "Snehkunj",
    "stopCode": 2666,
    "stationCode": 2812,
    "stopType": "MUNICIPAL_BUS",
    "shortStopName": null,
    "Position": {
      "stopLongitude": "72.548083",
      "stopLatitude": "23.02217"
    },
    "RouteCodes": null,
    "Sequence": 7,
    "routeFlow": null
  },
  {
    "stopName": "Exise Chowki (Cn)",
    "stopCode": 2667,
    "stationCode": 1490,
    "stopType": "MUNICIPAL_BUS",
    "shortStopName": null,
    "Position": {
      "stopLongitude": "72.551321",
      "stopLatitude": "23.022176"
    },
    "RouteCodes": null,
    "Sequence": 8,
    "routeFlow": null
  },
  {
    "stopName": "C.N. Vidyalay",
    "stopCode": 2668,
    "stationCode": 1324,
    "stopType": "MUNICIPAL_BUS",
    "shortStopName": null,
    "Position": {
      "stopLongitude": "72.552826",
      "stopLatitude": "23.021271"
    },
    "RouteCodes": null,
    "Sequence": 9,
    "routeFlow": null
  },
  {
    "stopName": "Panchvati",
    "stopCode": 2669,
    "stationCode": 2294,
    "stopType": "MUNICIPAL_BUS",
    "shortStopName": null,
    "Position": {
      "stopLongitude": "72.55742",
      "stopLatitude": "23.023346"
    },
    "RouteCodes": null,
    "Sequence": 10,
    "routeFlow": null
  },
  {
    "stopName": "Law College",
    "stopCode": 2670,
    "stationCode": 1967,
    "stopType": "MUNICIPAL_BUS",
    "shortStopName": null,
    "Position": {
      "stopLongitude": "72.559796",
      "stopLatitude": "23.023426"
    },
    "RouteCodes": null,
    "Sequence": 11,
    "routeFlow": null
  },
  {
    "stopName": "University Granth Nirman Board",
    "stopCode": 2671,
    "stationCode": 2973,
    "stopType": "MUNICIPAL_BUS",
    "shortStopName": null,
    "Position": {
      "stopLongitude": "72.560603",
      "stopLatitude": "23.02066"
    },
    "RouteCodes": null,
    "Sequence": 12,
    "routeFlow": null
  },
  {
    "stopName": "Hope Nuro Care Hospital",
    "stopCode": 2672,
    "stationCode": 1691,
    "stopType": "MUNICIPAL_BUS",
    "shortStopName": null,
    "Position": {
      "stopLongitude": "72.564141",
      "stopLatitude": "23.020933"
    },
    "RouteCodes": null,
    "Sequence": 13,
    "routeFlow": null
  },
  {
    "stopName": "Gujarat College",
    "stopCode": 2673,
    "stationCode": 1614,
    "stopType": "MUNICIPAL_BUS",
    "shortStopName": null,
    "Position": {
      "stopLongitude": "72.566376",
      "stopLatitude": "23.021593"
    },
    "RouteCodes": null,
    "Sequence": 14,
    "routeFlow": null
  },
  {
    "stopName": "Madalpur (Town Hall)",
    "stopCode": 2674,
    "stationCode": 1982,
    "stopType": "MUNICIPAL_BUS",
    "shortStopName": null,
    "Position": {
      "stopLongitude": "72.570651",
      "stopLatitude": "23.022258"
    },
    "RouteCodes": null,
    "Sequence": 15,
    "routeFlow": null
  },
  {
    "stopName": "Nutan Mills",
    "stopCode": 2831,
    "stationCode": 2249,
    "stopType": "MUNICIPAL_BUS",
    "shortStopName": null,
    "Position": {
      "stopLongitude": "72.614556",
      "stopLatitude": "23.03383"
    },
    "RouteCodes": null,
    "Sequence": 37,
    "routeFlow": null
  },
  {
    "stopName": "Bombay Housing Colony",
    "stopCode": 2832,
    "stationCode": 1318,
    "stopType": "MUNICIPAL_BUS",
    "shortStopName": null,
    "Position": {
      "stopLongitude": "72.6175",
      "stopLatitude": "23.035031"
    },
    "RouteCodes": null,
    "Sequence": 38,
    "routeFlow": null
  },
  {
    "stopName": "Ambar Cinema",
    "stopCode": 2833,
    "stationCode": 1105,
    "stopType": "MUNICIPAL_BUS",
    "shortStopName": null,
    "Position": {
      "stopLongitude": "72.619226",
      "stopLatitude": "23.035125"
    },
    "RouteCodes": null,
    "Sequence": 39,
    "routeFlow": null
  },
  {
    "stopName": "Bhid Bhanjan Hanuman",
    "stopCode": 2834,
    "stationCode": 1296,
    "stopType": "MUNICIPAL_BUS",
    "shortStopName": null,
    "Position": {
      "stopLongitude": "72.622175",
      "stopLatitude": "23.034835"
    },
    "RouteCodes": null,
    "Sequence": 40,
    "routeFlow": null
  },
  {
    "stopName": "Bapunagar Ghanti (Patelwadi)",
    "stopCode": 2835,
    "stationCode": 1251,
    "stopType": "MUNICIPAL_BUS",
    "shortStopName": null,
    "Position": {
      "stopLongitude": "72.626111",
      "stopLatitude": "23.035095"
    },
    "RouteCodes": null,
    "Sequence": 41,
    "routeFlow": null
  },
  {
    "stopName": "Bapunagar Char Rasta",
    "stopCode": 2836,
    "stationCode": 1249,
    "stopType": "MUNICIPAL_BUS",
    "shortStopName": null,
    "Position": {
      "stopLongitude": "72.629486",
      "stopLatitude": "23.035063"
    },
    "RouteCodes": null,
    "Sequence": 42,
    "routeFlow": null
  },
  {
    "stopName": "Shardaben Hospital",
    "stopCode": 3438,
    "stationCode": 2708,
    "stopType": "MUNICIPAL_BUS",
    "shortStopName": null,
    "Position": {
      "stopLongitude": "72.611281",
      "stopLatitude": "23.031841"
    },
    "RouteCodes": null,
    "Sequence": 36,
    "routeFlow": null
  },
  {
    "stopName": "Panchkuva",
    "stopCode": 4091,
    "stationCode": 5020,
    "stopType": "MUNICIPAL_BUS",
    "shortStopName": null,
    "Position": {
      "stopLongitude": "72.597568",
      "stopLatitude": "23.025312"
    },
    "RouteCodes": null,
    "Sequence": 30,
    "routeFlow": null
  },
  {
    "stopName": "Shaher Kotda",
    "stopCode": 4092,
    "stationCode": 5021,
    "stopType": "MUNICIPAL_BUS",
    "shortStopName": null,
    "Position": {
      "stopLongitude": "72.598991",
      "stopLatitude": "23.026296"
    },
    "RouteCodes": null,
    "Sequence": 31,
    "routeFlow": null
  },
  {
    "stopName": "Kalyan Kendra",
    "stopCode": 4163,
    "stationCode": 1841,
    "stopType": "MUNICIPAL_BUS",
    "shortStopName": null,
    "Position": {
      "stopLongitude": "72.631993",
      "stopLatitude": "23.034471"
    },
    "RouteCodes": null,
    "Sequence": 43,
    "routeFlow": null
  },
  {
    "stopName": "Bapunagar",
    "stopCode": 4164,
    "stationCode": 1248,
    "stopType": "MUNICIPAL_BUS",
    "shortStopName": null,
    "Position": {
      "stopLongitude": "72.633975",
      "stopLatitude": "23.034078"
    },
    "RouteCodes": null,
    "Sequence": 44,
    "routeFlow": null
  },
  {
    "stopName": "Nehrunagar Char Rasta",
    "stopCode": 5210,
    "stationCode": 2204,
    "stopType": "MUNICIPAL_BUS",
    "shortStopName": null,
    "Position": {
      "stopLongitude": "72.542965",
      "stopLatitude": "23.02297"
    },
    "RouteCodes": null,
    "Sequence": 5,
    "routeFlow": null
  },
  {
    "stopName": "Lal Darwaja",
    "stopCode": 5976,
    "stationCode": 1961,
    "stopType": "MUNICIPAL_BUS",
    "shortStopName": null,
    "Position": {
      "stopLongitude": "72.578388",
      "stopLatitude": "23.024426"
    },
    "RouteCodes": null,
    "Sequence": 20,
    "routeFlow": null
  }
]