[
  {
    "stopName": "Vadaj",
    "stopCode": 2107,
    "stationCode": 2978,
    "stopType": "MUNICIPAL_BUS",
    "shortStopName": null,
    "Position": {
      "stopLongitude": "72.571935",
      "stopLatitude": "23.055433"
    },
    "RouteCodes": null,
    "Sequence": 13,
    "routeFlow": "LINESTRING (72.57746 23.0808, 72.57803 23.08071, 72.57819 23.08067, 72.5782 23.08069, 72.57824 23.08071, 72.57829 23.08071, 72.57833 23.08069, 72.57835 23.08065, 72.57834 23.08061, 72.57831 23.08057, 72.5783 23.08057, 72.5783 23.08043, 72.57835 23.07997, 72.57835 23.07997, 72.57841 23.07957, 72.57841 23.07923, 72.57843 23.07869, 72.57848 23.0783, 72.57848 23.0783, 72.57854 23.07807, 72.57872 23.07768, 72.57877 23.0775, 72.57881 23.07715, 72.57886 23.07627, 72.57884 23.07595, 72.57886 23.07571, 72.57897 23.07522, 72.57897 23.07513, 72.57893 23.07501, 72.57875 23.07478, 72.57875 23.07478, 72.57818 23.0741, 72.57814 23.07402, 72.57795 23.07341, 72.57773 23.07284, 72.57769 23.07272, 72.57769 23.07272, 72.57728 23.07139, 72.57728 23.07139, 72.57699 23.07039, 72.57675 23.06929, 72.57658 23.06839, 72.57658 23.06839, 72.57649 23.06774, 72.57701 23.06773, 72.57768 23.06778, 72.57829 23.06792, 72.58006 23.06833, 72.5807 23.0685, 72.58098 23.06857, 72.58127 23.06867, 72.5815 23.06877, 72.58153 23.06881, 72.5816 23.06887, 72.58172 23.06891, 72.58181 23.0689, 72.58187 23.06884, 72.58194 23.06874, 72.58198 23.06865, 72.58199 23.06857, 72.58198 23.06851, 72.58197 23.06848, 72.58203 23.06832, 72.58215 23.06809, 72.5822 23.06801, 72.5828 23.06747, 72.5828 23.06747, 72.58302 23.06726, 72.58311 23.06715, 72.58316 23.06703, 72.5832 23.06686, 72.58325 23.06644, 72.58328 23.06641, 72.58331 23.06637, 72.58332 23.06627, 72.58327 23.06618, 72.58317 23.06613, 72.5831 23.06613, 72.58309 23.06613, 72.583 23.06611, 72.58288 23.06607, 72.58275 23.06598, 72.5825 23.06567, 72.58213 23.06508, 72.58213 23.06508, 72.58185 23.06455, 72.58145 23.06352, 72.58114 23.0628, 72.58114 23.0628, 72.58007 23.06022, 72.58007 23.06022, 72.57999 23.06003, 72.57989 23.05989, 72.57961 23.0596, 72.57919 23.05924, 72.57846 23.05861, 72.578464 23.058613, 72.57588 23.05645, 72.57572 23.05637, 72.5753 23.05624, 72.57482 23.05616, 72.57414 23.05608, 72.57319 23.05598, 72.57263 23.05593, 72.57249 23.05588, 72.57205 23.05564, 72.57202 23.0556, 72.57194 23.05554, 72.571934 23.055509, 72.571926 23.05545)"
  },
  {
    "stopName": "Collector Office",
    "stopCode": 2215,
    "stationCode": 1401,
    "stopType": "MUNICIPAL_BUS",
    "shortStopName": null,
    "Position": {
      "stopLongitude": "72.582168",
      "stopLatitude": "23.065061"
    },
    "RouteCodes": null,
    "Sequence": 9,
    "routeFlow": null
  },
  {
    "stopName": "Lal Bangla (Abhay Ghat)",
    "stopCode": 2216,
    "stationCode": 1958,
    "stopType": "MUNICIPAL_BUS",
    "shortStopName": null,
    "Position": {
      "stopLongitude": "72.581213",
      "stopLatitude": "23.062771"
    },
    "RouteCodes": null,
    "Sequence": 10,
    "routeFlow": null
  },
  {
    "stopName": "Gandhi Ashram",
    "stopCode": 2217,
    "stationCode": 1518,
    "stopType": "MUNICIPAL_BUS",
    "shortStopName": null,
    "Position": {
      "stopLongitude": "72.580096",
      "stopLatitude": "23.06021"
    },
    "RouteCodes": null,
    "Sequence": 11,
    "routeFlow": null
  },
  {
    "stopName": "Chandrabhaga Bridge",
    "stopCode": 2218,
    "stationCode": 1364,
    "stopType": "MUNICIPAL_BUS",
    "shortStopName": null,
    "Position": {
      "stopLongitude": "72.578482",
      "stopLatitude": "23.058589"
    },
    "RouteCodes": null,
    "Sequence": 12,
    "routeFlow": null
  },
  {
    "stopName": "Ranip Gam",
    "stopCode": 3229,
    "stationCode": 2484,
    "stopType": "MUNICIPAL_BUS",
    "shortStopName": null,
    "Position": {
      "stopLongitude": "72.577471",
      "stopLatitude": "23.080836"
    },
    "RouteCodes": null,
    "Sequence": 1,
    "routeFlow": null
  },
  {
    "stopName": "Maganpura Chowk",
    "stopCode": 3539,
    "stationCode": 1994,
    "stopType": "MUNICIPAL_BUS",
    "shortStopName": null,
    "Position": {
      "stopLongitude": "72.57838",
      "stopLatitude": "23.07997"
    },
    "RouteCodes": null,
    "Sequence": 2,
    "routeFlow": null
  },
  {
    "stopName": "Sarkari Press Colony",
    "stopCode": 3596,
    "stationCode": 2622,
    "stopType": "MUNICIPAL_BUS",
    "shortStopName": null,
    "Position": {
      "stopLongitude": "72.578536",
      "stopLatitude": "23.078303"
    },
    "RouteCodes": null,
    "Sequence": 3,
    "routeFlow": null
  },
  {
    "stopName": "Sarveshwar Mahadev",
    "stopCode": 3597,
    "stationCode": 2643,
    "stopType": "MUNICIPAL_BUS",
    "shortStopName": null,
    "Position": {
      "stopLongitude": "72.57877",
      "stopLatitude": "23.074761"
    },
    "RouteCodes": null,
    "Sequence": 4,
    "routeFlow": null
  },
  {
    "stopName": "Radhaswami Satsang (Ranip)",
    "stopCode": 3598,
    "stationCode": 3096,
    "stopType": "MUNICIPAL_BUS",
    "shortStopName": null,
    "Position": {
      "stopLongitude": "72.577743",
      "stopLatitude": "23.072705"
    },
    "RouteCodes": null,
    "Sequence": 5,
    "routeFlow": null
  },
  {
    "stopName": "Umang Park Society",
    "stopCode": 3599,
    "stationCode": 2964,
    "stopType": "MUNICIPAL_BUS",
    "shortStopName": null,
    "Position": {
      "stopLongitude": "72.577238",
      "stopLatitude": "23.071401"
    },
    "RouteCodes": null,
    "Sequence": 6,
    "routeFlow": null
  },
  {
    "stopName": "Dr.Ambedkar Rashtriya Foundation",
    "stopCode": 3692,
    "stationCode": 1469,
    "stopType": "MUNICIPAL_BUS",
    "shortStopName": null,
    "Position": {
      "stopLongitude": "72.576631",
      "stopLatitude": "23.068383"
    },
    "RouteCodes": null,
    "Sequence": 7,
    "routeFlow": null
  },
  {
    "stopName": "Subhash Bridge Circle",
    "stopCode": 3693,
    "stationCode": 2848,
    "stopType": "MUNICIPAL_BUS",
    "shortStopName": null,
    "Position": {
      "stopLongitude": "72.58282",
      "stopLatitude": "23.067486"
    },
    "RouteCodes": null,
    "Sequence": 8,
    "routeFlow": null
  }
]