[
  {
    "stopName": "Gujarat University",
    "stopCode": 1051,
    "stationCode": 1625,
    "stopType": "MUNICIPAL_BUS",
    "shortStopName": null,
    "Position": {
      "stopLongitude": "72.548851",
      "stopLatitude": "23.034453"
    },
    "RouteCodes": null,
    "Sequence": 28,
    "routeFlow": "LINESTRING (72.59859 23.02219, 72.59897 23.02228, 72.59905 23.022, 72.59919 23.02131, 72.59941 23.02024, 72.59943 23.01999, 72.59939 23.01968, 72.59931 23.01946, 72.59902 23.01901, 72.59889 23.01887, 72.59896 23.01882, 72.5989 23.01888, 72.59848 23.01847, 72.59825 23.01831, 72.59772 23.01797, 72.59772 23.01797, 72.5972 23.0177, 72.59659 23.01745, 72.59626 23.01738, 72.59572 23.01727, 72.59533 23.01722, 72.59533 23.01722, 72.59484 23.01717, 72.59441 23.01708, 72.59335 23.0169, 72.59272 23.0168, 72.59139 23.01677, 72.59107 23.01671, 72.59104 23.01669, 72.59103 23.01668, 72.59105 23.01653, 72.59102 23.01626, 72.59102 23.01626, 72.59105 23.01653, 72.59102 23.01667, 72.59099 23.01667, 72.59097 23.01667, 72.59095 23.01667, 72.59087 23.0167, 72.59084 23.01672, 72.59082 23.01674, 72.59081 23.01676, 72.59061 23.0168, 72.59036 23.01689, 72.59027 23.01693, 72.59011 23.01704, 72.59001 23.01714, 72.58992 23.01724, 72.58968 23.01763, 72.58945 23.01814, 72.58933 23.01825, 72.58907 23.01838, 72.5887 23.01851, 72.5887 23.01851, 72.587 23.01913, 72.58674 23.0192, 72.58649 23.01933, 72.58636 23.01942, 72.58616 23.01959, 72.586 23.01979, 72.586 23.01979, 72.58558 23.02022, 72.58487 23.02087, 72.58461 23.02106, 72.58426 23.02123, 72.58406 23.0213, 72.5833 23.02144, 72.5833 23.02144, 72.58075 23.02185, 72.58075 23.02185, 72.57995 23.02198, 72.5796 23.02204, 72.5796 23.02212, 72.57959 23.02226, 72.57956 23.02302, 72.57949 23.02352, 72.57923 23.02351, 72.57914 23.02354, 72.57906 23.0237, 72.57904 23.02434, 72.5786 23.02437, 72.5786 23.02437, 72.57864 23.02437, 72.57865 23.02503, 72.57904 23.02503, 72.57907 23.02503, 72.58002 23.02499, 72.58037 23.02497, 72.58045 23.02499, 72.58058 23.02506, 72.58064 23.02513, 72.58065 23.02554, 72.58059 23.02624, 72.58064 23.02715, 72.58054 23.02724, 72.5804 23.02727, 72.57955 23.02725, 72.57888 23.02719, 72.57888 23.02719, 72.57778 23.02711, 72.57124 23.02658, 72.57128 23.02613, 72.57133 23.0253, 72.57133 23.0253, 72.57139 23.02444, 72.5714 23.02408, 72.5714 23.02408, 72.57143 23.02345, 72.57142 23.02262, 72.57144 23.02239, 72.57129 23.02231, 72.57117 23.02225, 72.57077 23.0222, 72.56982 23.02207, 72.56982 23.02207, 72.5681 23.022, 72.56748 23.02189, 72.56628 23.02148, 72.56611 23.02143, 72.56611 23.02143, 72.56423 23.02087, 72.56358 23.02071, 72.56358 23.02071, 72.5627 23.02052, 72.56178 23.02033, 72.56108 23.02023, 72.56074 23.02018, 72.56066 23.02016, 72.56063 23.02023, 72.56058 23.02037, 72.5604 23.02087, 72.56038 23.02094, 72.56038 23.02094, 72.56007 23.02191, 72.55973 23.02316, 72.55959 23.02384, 72.55908 23.02386, 72.5586 23.02391, 72.55813 23.02368, 72.55797 23.02358, 72.55797 23.02358, 72.55706 23.02299, 72.55632 23.02256, 72.55633 23.02253, 72.55632 23.02249, 72.55624 23.02244, 72.55618 23.02243, 72.55614 23.02245, 72.55608 23.02252, 72.55609 23.02259, 72.55611 23.02263, 72.55612 23.02264, 72.5561 23.0228, 72.55603 23.02324, 72.55603 23.02324, 72.55599 23.02361, 72.55597 23.02398, 72.55603 23.02452, 72.55613 23.02495, 72.55621 23.02518, 72.55646 23.02572, 72.55646 23.02572, 72.55693 23.02665, 72.5575 23.02776, 72.5581 23.02884, 72.5581 23.02884, 72.55831 23.02921, 72.55815 23.02922, 72.55655 23.02925, 72.55538 23.02922, 72.55538 23.02922, 72.5551 23.0292, 72.55507 23.02922, 72.55505 23.02925, 72.55506 23.02928, 72.55508 23.0293, 72.55509 23.0293, 72.55506 23.03058, 72.55505 23.03123, 72.55505 23.03123, 72.55502 23.03215, 72.55501 23.03327, 72.55501 23.03327, 72.55499 23.03374, 72.55386 23.03359, 72.55324 23.03347, 72.55286 23.03341, 72.55286 23.03341, 72.55028 23.03299, 72.54991 23.03291, 72.54991 23.03291, 72.54933 23.0328, 72.54911 23.03344, 72.54898 23.03391, 72.54894 23.03409, 72.54887 23.03446)"
  },
  {
    "stopName": "Lal Darwaja",
    "stopCode": 1125,
    "stationCode": 1961,
    "stopType": "MUNICIPAL_BUS",
    "shortStopName": null,
    "Position": {
      "stopLongitude": "72.578605",
      "stopLatitude": "23.024376"
    },
    "RouteCodes": null,
    "Sequence": 10,
    "routeFlow": null
  },
  {
    "stopName": "Apna Bazar",
    "stopCode": 1126,
    "stationCode": 1150,
    "stopType": "MUNICIPAL_BUS",
    "shortStopName": null,
    "Position": {
      "stopLongitude": "72.579073",
      "stopLatitude": "23.025068"
    },
    "RouteCodes": null,
    "Sequence": 11,
    "routeFlow": null
  },
  {
    "stopName": "Sardarbag",
    "stopCode": 1127,
    "stationCode": 2611,
    "stopType": "MUNICIPAL_BUS",
    "shortStopName": null,
    "Position": {
      "stopLongitude": "72.578883",
      "stopLatitude": "23.027145"
    },
    "RouteCodes": null,
    "Sequence": 12,
    "routeFlow": null
  },
  {
    "stopName": "Gandhigram Railway Station",
    "stopCode": 1128,
    "stationCode": 1522,
    "stopType": "MUNICIPAL_BUS",
    "shortStopName": null,
    "Position": {
      "stopLongitude": "72.571413",
      "stopLatitude": "23.025308"
    },
    "RouteCodes": null,
    "Sequence": 13,
    "routeFlow": null
  },
  {
    "stopName": "Sanyas Ashram",
    "stopCode": 1129,
    "stationCode": 2588,
    "stopType": "MUNICIPAL_BUS",
    "shortStopName": null,
    "Position": {
      "stopLongitude": "72.571466",
      "stopLatitude": "23.02408"
    },
    "RouteCodes": null,
    "Sequence": 14,
    "routeFlow": null
  },
  {
    "stopName": "Sarangpur",
    "stopCode": 1489,
    "stationCode": 2593,
    "stopType": "MUNICIPAL_BUS",
    "shortStopName": null,
    "Position": {
      "stopLongitude": "72.598729",
      "stopLatitude": "23.022186"
    },
    "RouteCodes": null,
    "Sequence": 1,
    "routeFlow": null
  },
  {
    "stopName": "New Cloth Market",
    "stopCode": 1845,
    "stationCode": 2208,
    "stopType": "MUNICIPAL_BUS",
    "shortStopName": null,
    "Position": {
      "stopLongitude": "72.598915",
      "stopLatitude": "23.01886"
    },
    "RouteCodes": null,
    "Sequence": 2,
    "routeFlow": null
  },
  {
    "stopName": "Mahipatram Ashram",
    "stopCode": 1846,
    "stationCode": 2012,
    "stopType": "MUNICIPAL_BUS",
    "shortStopName": null,
    "Position": {
      "stopLongitude": "72.597764",
      "stopLatitude": "23.017908"
    },
    "RouteCodes": null,
    "Sequence": 3,
    "routeFlow": null
  },
  {
    "stopName": "Raipur Darwaja",
    "stopCode": 1847,
    "stationCode": 2497,
    "stopType": "MUNICIPAL_BUS",
    "shortStopName": null,
    "Position": {
      "stopLongitude": "72.595344",
      "stopLatitude": "23.017108"
    },
    "RouteCodes": null,
    "Sequence": 4,
    "routeFlow": null
  },
  {
    "stopName": "Astodiya Darwaja",
    "stopCode": 1848,
    "stationCode": 1197,
    "stopType": "MUNICIPAL_BUS",
    "shortStopName": null,
    "Position": {
      "stopLongitude": "72.590998",
      "stopLatitude": "23.016266"
    },
    "RouteCodes": null,
    "Sequence": 5,
    "routeFlow": null
  },
  {
    "stopName": "Law College",
    "stopCode": 1971,
    "stationCode": 1967,
    "stopType": "MUNICIPAL_BUS",
    "shortStopName": null,
    "Position": {
      "stopLongitude": "72.557993",
      "stopLatitude": "23.023551"
    },
    "RouteCodes": null,
    "Sequence": 19,
    "routeFlow": null
  },
  {
    "stopName": "Astodiya Chakla",
    "stopCode": 2156,
    "stationCode": 1195,
    "stopType": "MUNICIPAL_BUS",
    "shortStopName": null,
    "Position": {
      "stopLongitude": "72.58869",
      "stopLatitude": "23.018495"
    },
    "RouteCodes": null,
    "Sequence": 6,
    "routeFlow": null
  },
  {
    "stopName": "Khamasa",
    "stopCode": 2158,
    "stationCode": 1879,
    "stopType": "MUNICIPAL_BUS",
    "shortStopName": null,
    "Position": {
      "stopLongitude": "72.583295",
      "stopLatitude": "23.021433"
    },
    "RouteCodes": null,
    "Sequence": 8,
    "routeFlow": null
  },
  {
    "stopName": "Tilakbag",
    "stopCode": 2159,
    "stationCode": 2941,
    "stopType": "MUNICIPAL_BUS",
    "shortStopName": null,
    "Position": {
      "stopLongitude": "72.580751",
      "stopLatitude": "23.021846"
    },
    "RouteCodes": null,
    "Sequence": 9,
    "routeFlow": null
  },
  {
    "stopName": "Madalpur (Town Hall)",
    "stopCode": 2608,
    "stationCode": 1982,
    "stopType": "MUNICIPAL_BUS",
    "shortStopName": null,
    "Position": {
      "stopLongitude": "72.569816",
      "stopLatitude": "23.022096"
    },
    "RouteCodes": null,
    "Sequence": 15,
    "routeFlow": null
  },
  {
    "stopName": "Gujarat College",
    "stopCode": 2609,
    "stationCode": 1614,
    "stopType": "MUNICIPAL_BUS",
    "shortStopName": null,
    "Position": {
      "stopLongitude": "72.566111",
      "stopLatitude": "23.021423"
    },
    "RouteCodes": null,
    "Sequence": 16,
    "routeFlow": null
  },
  {
    "stopName": "Hope Nuro Care Hospital",
    "stopCode": 2610,
    "stationCode": 1691,
    "stopType": "MUNICIPAL_BUS",
    "shortStopName": null,
    "Position": {
      "stopLongitude": "72.563578",
      "stopLatitude": "23.020716"
    },
    "RouteCodes": null,
    "Sequence": 17,
    "routeFlow": null
  },
  {
    "stopName": "University Granth Nirman Board",
    "stopCode": 2611,
    "stationCode": 2973,
    "stopType": "MUNICIPAL_BUS",
    "shortStopName": null,
    "Position": {
      "stopLongitude": "72.560386",
      "stopLatitude": "23.020945"
    },
    "RouteCodes": null,
    "Sequence": 18,
    "routeFlow": null
  },
  {
    "stopName": "Gol Limda (Sardard Bhavan)",
    "stopCode": 3173,
    "stationCode": 1575,
    "stopType": "MUNICIPAL_BUS",
    "shortStopName": null,
    "Position": {
      "stopLongitude": "72.586031",
      "stopLatitude": "23.019815"
    },
    "RouteCodes": null,
    "Sequence": 7,
    "routeFlow": null
  },
  {
    "stopName": "Municipal Quarters (Cg Road)",
    "stopCode": 3731,
    "stationCode": 2125,
    "stopType": "MUNICIPAL_BUS",
    "shortStopName": null,
    "Position": {
      "stopLongitude": "72.555385",
      "stopLatitude": "23.02921"
    },
    "RouteCodes": null,
    "Sequence": 23,
    "routeFlow": null
  },
  {
    "stopName": "Panchvati",
    "stopCode": 3831,
    "stationCode": 2294,
    "stopType": "MUNICIPAL_BUS",
    "shortStopName": null,
    "Position": {
      "stopLongitude": "72.55603",
      "stopLatitude": "23.023238"
    },
    "RouteCodes": null,
    "Sequence": 20,
    "routeFlow": null
  },
  {
    "stopName": "Patel Society",
    "stopCode": 3832,
    "stationCode": 2325,
    "stopType": "MUNICIPAL_BUS",
    "shortStopName": null,
    "Position": {
      "stopLongitude": "72.556496",
      "stopLatitude": "23.025701"
    },
    "RouteCodes": null,
    "Sequence": 21,
    "routeFlow": null
  },
  {
    "stopName": "Lal Bangla (Cg Road)",
    "stopCode": 3833,
    "stationCode": 1959,
    "stopType": "MUNICIPAL_BUS",
    "shortStopName": null,
    "Position": {
      "stopLongitude": "72.558105",
      "stopLatitude": "23.028833"
    },
    "RouteCodes": null,
    "Sequence": 22,
    "routeFlow": null
  },
  {
    "stopName": "Rajhans Society",
    "stopCode": 3835,
    "stationCode": 2447,
    "stopType": "MUNICIPAL_BUS",
    "shortStopName": null,
    "Position": {
      "stopLongitude": "72.555045",
      "stopLatitude": "23.031225"
    },
    "RouteCodes": null,
    "Sequence": 24,
    "routeFlow": null
  },
  {
    "stopName": "St. Xaviers Corner",
    "stopCode": 3836,
    "stationCode": 2839,
    "stopType": "MUNICIPAL_BUS",
    "shortStopName": null,
    "Position": {
      "stopLongitude": "72.555008",
      "stopLatitude": "23.033266"
    },
    "RouteCodes": null,
    "Sequence": 25,
    "routeFlow": null
  },
  {
    "stopName": "St. Xaviers College",
    "stopCode": 3837,
    "stationCode": 2838,
    "stopType": "MUNICIPAL_BUS",
    "shortStopName": null,
    "Position": {
      "stopLongitude": "72.552863",
      "stopLatitude": "23.033366"
    },
    "RouteCodes": null,
    "Sequence": 26,
    "routeFlow": null
  },
  {
    "stopName": "P.W.D. Workshop",
    "stopCode": 3838,
    "stationCode": 2277,
    "stopType": "MUNICIPAL_BUS",
    "shortStopName": null,
    "Position": {
      "stopLongitude": "72.549921",
      "stopLatitude": "23.032856"
    },
    "RouteCodes": null,
    "Sequence": 27,
    "routeFlow": null
  }
]