[
  {
    "stopName": "Arbudanagar",
    "stopCode": 1182,
    "stationCode": 1154,
    "stopType": "MUNICIPAL_BUS",
    "shortStopName": null,
    "Position": {
      "stopLongitude": "72.644908",
      "stopLatitude": "23.00976"
    },
    "RouteCodes": null,
    "Sequence": 1,
    "routeFlow": "LINESTRING (72.644908 23.009792, 72.64491 23.00989, 72.6449 23.01025, 72.64487 23.01097, 72.64481 23.01242, 72.644777 23.01352, 72.644752 23.013525, 72.64469 23.01476, 72.64447 23.01474, 72.64447 23.01474, 72.64394 23.01469, 72.64364 23.01469, 72.64271 23.01473, 72.64238 23.01474, 72.64238 23.01474, 72.64203 23.01478, 72.64169 23.01485, 72.6412 23.01486, 72.64098 23.01487, 72.64051 23.01485, 72.64028 23.01484, 72.64025 23.01483, 72.63938 23.01462, 72.63884 23.0145, 72.63872 23.01442, 72.63869 23.0144, 72.6387 23.01429, 72.6387 23.01417, 72.6387 23.01415, 72.63867 23.01347, 72.63866 23.01312, 72.63868 23.01252, 72.63868 23.01226, 72.63856 23.01226, 72.63857 23.00983, 72.63857 23.00983, 72.63854 23.00924, 72.63847 23.00885, 72.63841 23.00862, 72.63815 23.00783, 72.63815 23.00783, 72.63803 23.00745, 72.63797 23.00747, 72.63776 23.00755, 72.63667 23.00797, 72.63584 23.00828, 72.63584 23.00828, 72.63371 23.00907, 72.63371 23.00907, 72.63295 23.00937, 72.63278 23.00946, 72.63261 23.00956, 72.63229 23.00969, 72.63219 23.00974, 72.63207 23.00985, 72.6319 23.0101, 72.63182 23.01026, 72.63182 23.01026, 72.63172 23.01049, 72.63164 23.01056, 72.63152 23.01077, 72.63128 23.01117, 72.63118 23.01131, 72.63112 23.01137, 72.63102 23.01142, 72.63083 23.0116, 72.63077 23.01165, 72.63077 23.01165, 72.63066 23.01177, 72.63026 23.01242, 72.63009 23.01272, 72.62971 23.01327, 72.62937 23.01381, 72.62936 23.0138, 72.62917 23.01411, 72.62718 23.01381, 72.6269 23.01372, 72.62657 23.01429, 72.62656 23.01431, 72.62599 23.01525, 72.62533 23.01645, 72.6251 23.01693, 72.62484 23.01764, 72.6243 23.01754, 72.6243 23.01754, 72.62336 23.0174, 72.62294 23.01732, 72.62255 23.01726, 72.62253 23.01726, 72.62253 23.01726, 72.6217 23.01723, 72.62004 23.01733, 72.61954 23.0173, 72.61954 23.0173, 72.61835 23.01721, 72.61788 23.01718, 72.61654 23.0171, 72.61595 23.01712, 72.61499 23.01712, 72.61419 23.01717, 72.61403 23.0172, 72.61403 23.0172, 72.61373 23.01727, 72.61356 23.01732, 72.61361 23.01741, 72.61384 23.01781, 72.61383 23.01782, 72.61382 23.01783, 72.6138 23.01787, 72.6138 23.0179, 72.61384 23.01796, 72.61386 23.01797, 72.61387 23.01798, 72.61386 23.01884, 72.61382 23.01911, 72.61376 23.01928, 72.61367 23.01943, 72.61351 23.01961, 72.61322 23.01992, 72.61322 23.01992, 72.61311 23.02004, 72.61297 23.02038, 72.61273 23.02098, 72.61266 23.02121, 72.61266 23.0212, 72.61247 23.02184, 72.60923 23.02113, 72.60841 23.02092, 72.60841 23.02092, 72.60823 23.02094, 72.60794 23.02088, 72.60777 23.02085, 72.60742 23.02079, 72.607 23.02067, 72.6062 23.02057, 72.60604 23.02057, 72.60595 23.02056, 72.60602 23.02031, 72.60562 23.02032, 72.60553 23.02034, 72.605527 23.020362, 72.60513 23.02047, 72.60311 23.02052, 72.6028 23.02054, 72.60251 23.0206, 72.60186 23.02079, 72.60148 23.02093, 72.60111 23.02112, 72.59906 23.02226, 72.59896 23.0223, 72.59881 23.02232, 72.5987 23.02233, 72.59864 23.02237, 72.598473 23.022551)"
  },
  {
    "stopName": "Shitalchhaya Society",
    "stopCode": 1183,
    "stationCode": 2719,
    "stopType": "MUNICIPAL_BUS",
    "shortStopName": null,
    "Position": {
      "stopLongitude": "72.644746",
      "stopLatitude": "23.013513"
    },
    "RouteCodes": null,
    "Sequence": 2,
    "routeFlow": null
  },
  {
    "stopName": "Radheshyam Society",
    "stopCode": 1184,
    "stationCode": 2422,
    "stopType": "MUNICIPAL_BUS",
    "shortStopName": null,
    "Position": {
      "stopLongitude": "72.644471",
      "stopLatitude": "23.01475"
    },
    "RouteCodes": null,
    "Sequence": 3,
    "routeFlow": null
  },
  {
    "stopName": "Mukeshnagar",
    "stopCode": 1185,
    "stationCode": 2105,
    "stopType": "MUNICIPAL_BUS",
    "shortStopName": null,
    "Position": {
      "stopLongitude": "72.642376",
      "stopLatitude": "23.014741"
    },
    "RouteCodes": null,
    "Sequence": 4,
    "routeFlow": null
  },
  {
    "stopName": "Rajendra Park",
    "stopCode": 1186,
    "stationCode": 2445,
    "stopType": "MUNICIPAL_BUS",
    "shortStopName": null,
    "Position": {
      "stopLongitude": "72.640286",
      "stopLatitude": "23.014823"
    },
    "RouteCodes": null,
    "Sequence": 5,
    "routeFlow": null
  },
  {
    "stopName": "Rajratna Society",
    "stopCode": 1187,
    "stationCode": 2456,
    "stopType": "MUNICIPAL_BUS",
    "shortStopName": null,
    "Position": {
      "stopLongitude": "72.638723",
      "stopLatitude": "23.014172"
    },
    "RouteCodes": null,
    "Sequence": 6,
    "routeFlow": null
  },
  {
    "stopName": "Rajdeep Society",
    "stopCode": 1188,
    "stationCode": 2443,
    "stopType": "MUNICIPAL_BUS",
    "shortStopName": null,
    "Position": {
      "stopLongitude": "72.638626",
      "stopLatitude": "23.01226"
    },
    "RouteCodes": null,
    "Sequence": 7,
    "routeFlow": null
  },
  {
    "stopName": "Harbholenath Park",
    "stopCode": 1189,
    "stationCode": 1652,
    "stopType": "MUNICIPAL_BUS",
    "shortStopName": null,
    "Position": {
      "stopLongitude": "72.638631",
      "stopLatitude": "23.009831"
    },
    "RouteCodes": null,
    "Sequence": 8,
    "routeFlow": null
  },
  {
    "stopName": "Ramrajyanagar",
    "stopCode": 1190,
    "stationCode": 2475,
    "stopType": "MUNICIPAL_BUS",
    "shortStopName": null,
    "Position": {
      "stopLongitude": "72.638216",
      "stopLatitude": "23.007811"
    },
    "RouteCodes": null,
    "Sequence": 9,
    "routeFlow": null
  },
  {
    "stopName": "Satyamnagar",
    "stopCode": 1191,
    "stationCode": 2658,
    "stopType": "MUNICIPAL_BUS",
    "shortStopName": null,
    "Position": {
      "stopLongitude": "72.635836",
      "stopLatitude": "23.008266"
    },
    "RouteCodes": null,
    "Sequence": 10,
    "routeFlow": null
  },
  {
    "stopName": "Ashwamegh Society (Nagarvel)",
    "stopCode": 1192,
    "stationCode": 1187,
    "stopType": "MUNICIPAL_BUS",
    "shortStopName": null,
    "Position": {
      "stopLongitude": "72.633703",
      "stopLatitude": "23.009053"
    },
    "RouteCodes": null,
    "Sequence": 11,
    "routeFlow": null
  },
  {
    "stopName": "Sanjay Chowk",
    "stopCode": 1193,
    "stationCode": 2578,
    "stopType": "MUNICIPAL_BUS",
    "shortStopName": null,
    "Position": {
      "stopLongitude": "72.631758",
      "stopLatitude": "23.010238"
    },
    "RouteCodes": null,
    "Sequence": 12,
    "routeFlow": null
  },
  {
    "stopName": "Nagarvel Hanuman",
    "stopCode": 1194,
    "stationCode": 2139,
    "stopType": "MUNICIPAL_BUS",
    "shortStopName": null,
    "Position": {
      "stopLongitude": "72.630793",
      "stopLatitude": "23.011671"
    },
    "RouteCodes": null,
    "Sequence": 13,
    "routeFlow": null
  },
  {
    "stopName": "Ghanshyam Engg. Works",
    "stopCode": 1195,
    "stationCode": 1544,
    "stopType": "MUNICIPAL_BUS",
    "shortStopName": null,
    "Position": {
      "stopLongitude": "72.629365",
      "stopLatitude": "23.013803"
    },
    "RouteCodes": null,
    "Sequence": 14,
    "routeFlow": null
  },
  {
    "stopName": "Gravity House",
    "stopCode": 1196,
    "stationCode": 1603,
    "stopType": "MUNICIPAL_BUS",
    "shortStopName": null,
    "Position": {
      "stopLongitude": "72.626536",
      "stopLatitude": "23.014302"
    },
    "RouteCodes": null,
    "Sequence": 15,
    "routeFlow": null
  },
  {
    "stopName": "Chakudiya Mahadev",
    "stopCode": 1197,
    "stationCode": 1346,
    "stopType": "MUNICIPAL_BUS",
    "shortStopName": null,
    "Position": {
      "stopLongitude": "72.624298",
      "stopLatitude": "23.017525"
    },
    "RouteCodes": null,
    "Sequence": 16,
    "routeFlow": null
  },
  {
    "stopName": "Anant Society",
    "stopCode": 1198,
    "stationCode": 1133,
    "stopType": "MUNICIPAL_BUS",
    "shortStopName": null,
    "Position": {
      "stopLongitude": "72.622533",
      "stopLatitude": "23.017211"
    },
    "RouteCodes": null,
    "Sequence": 17,
    "routeFlow": null
  },
  {
    "stopName": "Government Quarters (Gomtipur)",
    "stopCode": 1199,
    "stationCode": 1596,
    "stopType": "MUNICIPAL_BUS",
    "shortStopName": null,
    "Position": {
      "stopLongitude": "72.619541",
      "stopLatitude": "23.01729"
    },
    "RouteCodes": null,
    "Sequence": 18,
    "routeFlow": null
  },
  {
    "stopName": "Chhinkaniwala Estate",
    "stopCode": 1200,
    "stationCode": 1380,
    "stopType": "MUNICIPAL_BUS",
    "shortStopName": null,
    "Position": {
      "stopLongitude": "72.617886",
      "stopLatitude": "23.01717"
    },
    "RouteCodes": null,
    "Sequence": 19,
    "routeFlow": null
  },
  {
    "stopName": "Gomtipur Darwaja",
    "stopCode": 1201,
    "stationCode": 1576,
    "stopType": "MUNICIPAL_BUS",
    "shortStopName": null,
    "Position": {
      "stopLongitude": "72.614021",
      "stopLatitude": "23.017171"
    },
    "RouteCodes": null,
    "Sequence": 20,
    "routeFlow": null
  },
  {
    "stopName": "Shuddodhannagar",
    "stopCode": 1202,
    "stationCode": 2772,
    "stopType": "MUNICIPAL_BUS",
    "shortStopName": null,
    "Position": {
      "stopLongitude": "72.613233",
      "stopLatitude": "23.019933"
    },
    "RouteCodes": null,
    "Sequence": 21,
    "routeFlow": null
  },
  {
    "stopName": "Patel Mills",
    "stopCode": 1203,
    "stationCode": 2323,
    "stopType": "MUNICIPAL_BUS",
    "shortStopName": null,
    "Position": {
      "stopLongitude": "72.612637",
      "stopLatitude": "23.0212"
    },
    "RouteCodes": null,
    "Sequence": 22,
    "routeFlow": null
  },
  {
    "stopName": "Sarangpur",
    "stopCode": 1204,
    "stationCode": 2593,
    "stopType": "MUNICIPAL_BUS",
    "shortStopName": null,
    "Position": {
      "stopLongitude": "72.598497",
      "stopLatitude": "23.022515"
    },
    "RouteCodes": null,
    "Sequence": 25,
    "routeFlow": null
  },
  {
    "stopName": "Hathi Khai",
    "stopCode": 1486,
    "stationCode": 1669,
    "stopType": "MUNICIPAL_BUS",
    "shortStopName": null,
    "Position": {
      "stopLongitude": "72.608411",
      "stopLatitude": "23.020918"
    },
    "RouteCodes": null,
    "Sequence": 23,
    "routeFlow": null
  },
  {
    "stopName": "Kamdar Medan",
    "stopCode": 1487,
    "stationCode": 1845,
    "stopType": "MUNICIPAL_BUS",
    "shortStopName": null,
    "Position": {
      "stopLongitude": "72.605533",
      "stopLatitude": "23.020345"
    },
    "RouteCodes": null,
    "Sequence": 24,
    "routeFlow": null
  }
]