[
  {
    "stopName": "Gomtipur Darwaja",
    "stopCode": 1201,
    "stationCode": 1576,
    "stopType": "MUNICIPAL_BUS",
    "shortStopName": null,
    "Position": {
      "stopLongitude": "72.614021",
      "stopLatitude": "23.017171"
    },
    "RouteCodes": null,
    "Sequence": 46,
    "routeFlow": "LINESTRING (72.67929 23.0126, 72.67896 23.01138, 72.67871 23.01042, 72.67861 23.01018, 72.67857 23.00997, 72.67857 23.00997, 72.6786 23.01012, 72.67812 23.01023, 72.67778 23.01031, 72.67689 23.0105, 72.67557 23.01082, 72.67557 23.01082, 72.67337 23.01133, 72.67259 23.01152, 72.67255 23.01134, 72.67255 23.01134, 72.6722 23.00997, 72.6722 23.00997, 72.67169 23.00778, 72.67169 23.00778, 72.67173 23.00793, 72.67103 23.00814, 72.6705 23.0083, 72.67 23.00844, 72.66978 23.00847, 72.66932 23.00852, 72.66903 23.00853, 72.66892 23.00854, 72.66882 23.00852, 72.66853 23.00853, 72.66829 23.00851, 72.66829 23.00851, 72.6641 23.00812, 72.6641 23.00812, 72.66382 23.0081, 72.66382 23.00717, 72.66364 23.00624, 72.66349 23.00553, 72.6634 23.00494, 72.6633 23.00373, 72.6632 23.00325, 72.66317 23.00261, 72.66318 23.0026, 72.66314 23.00236, 72.6631 23.00169, 72.66308 23.0015, 72.66295 23.0008, 72.66272 22.99982, 72.66262 22.99949, 72.66246 22.99915, 72.66219 22.99871, 72.66216 22.99859, 72.66151 22.99873, 72.66117 22.99881, 72.66104 22.99885, 72.66104 22.99885, 72.66067 22.99896, 72.66008 22.9992, 72.65973 22.99934, 72.65881 22.99977, 72.658 23.00013, 72.65777 22.99975, 72.65777 22.99975, 72.65591 22.99675, 72.65591 22.99675, 72.65578 22.99653, 72.65565 22.99624, 72.65538 22.99579, 72.65523 22.99553, 72.65481 22.99495, 72.65514 22.99482, 72.65535 22.99478, 72.65535 22.99478, 72.65822 22.99425, 72.65822 22.99425, 72.66244 22.99348, 72.66244 22.99348, 72.66264 22.99344, 72.66257 22.99317, 72.66244 22.99279, 72.66225 22.99233, 72.66205 22.99187, 72.66205 22.99187, 72.66195 22.99172, 72.66186 22.99167, 72.66169 22.9917, 72.6614 22.99174, 72.66015 22.99197, 72.65792 22.99239, 72.65761 22.99243, 72.657 22.99254, 72.657 22.99254, 72.65526 22.99286, 72.65523 22.99288, 72.65517 22.99292, 72.65516 22.99286, 72.65501 22.99177, 72.65501 22.99177, 72.65486 22.99068, 72.65474 22.99074, 72.65464 22.99083, 72.65432 22.99118, 72.65394 22.9916, 72.65265 22.9929, 72.65187 22.99373, 72.65187 22.99373, 72.65155 22.99408, 72.65085 22.99486, 72.65067 22.99513, 72.64923 22.99667, 72.64923 22.99667, 72.64843 22.99752, 72.64736 22.99871, 72.64736 22.99871, 72.64639 22.99972, 72.64588 23.00029, 72.64572 23.0005, 72.64565 23.00068, 72.64554 23.00114, 72.64551 23.00131, 72.64551 23.00131, 72.64532 23.00235, 72.6451 23.00336, 72.64498 23.00408, 72.64474 23.00405, 72.64474 23.00405, 72.64422 23.004, 72.64409 23.00396, 72.64386 23.00382, 72.64367 23.0038, 72.64348 23.00382, 72.6433 23.00387, 72.64318 23.00393, 72.64316 23.00394, 72.64316 23.00394, 72.64281 23.00415, 72.64275 23.00421, 72.6427 23.00431, 72.64261 23.00458, 72.64257 23.00463, 72.64232 23.00473, 72.6418 23.00488, 72.64148 23.00491, 72.64118 23.00492, 72.64118 23.00492, 72.64032 23.00487, 72.64015 23.00486, 72.6404 23.00415, 72.6404 23.00415, 72.64056 23.0037, 72.64062 23.00345, 72.64066 23.00328, 72.64067 23.00306, 72.64067 23.0027, 72.64063 23.00234, 72.6405 23.00124, 72.64045 23.00067, 72.64045 23.00067, 72.6403 22.99967, 72.64017 22.9991, 72.64011 22.99894, 72.63993 22.99865, 72.63952 22.99809, 72.6388 22.99723, 72.6388 22.99723, 72.63831 22.99666, 72.63807 22.99637, 72.63768 22.99596, 72.6372 22.99545, 72.63693 22.99512, 72.63667 22.9948, 72.63667 22.9948, 72.63621 22.99425, 72.63582 22.99385, 72.63408 22.99182, 72.63396 22.9917, 72.63381 22.99184, 72.63381 22.99184, 72.63319 22.99239, 72.63288 22.99266, 72.63279 22.99272, 72.63266 22.9928, 72.63235 22.99301, 72.63235 22.99301, 72.63144 22.9937, 72.63051 22.99421, 72.63043 22.99426, 72.63039 22.99432, 72.62943 22.99496, 72.62933 22.99502, 72.62925 22.99506, 72.62925 22.99506, 72.6288 22.99532, 72.62841 22.99559, 72.62759 22.99628, 72.62639 22.9973, 72.62622 22.99746, 72.62618 22.99742, 72.62508 22.99841, 72.62457 22.99884, 72.62451 22.99888, 72.62444 22.99889, 72.6247 22.99922, 72.62501 22.99975, 72.62521 23.00015, 72.62553 23.00085, 72.62578 23.00125, 72.62579 23.00127, 72.62579 23.00127, 72.62631 23.00227, 72.6265 23.00273, 72.62676 23.0035, 72.62676 23.0035, 72.62694 23.00404, 72.62706 23.00456, 72.62722 23.00544, 72.62726 23.00566, 72.62726 23.00566, 72.62733 23.00606, 72.62674 23.00615, 72.62607 23.00623, 72.62516 23.00633, 72.6249 23.00637, 72.62475 23.00643, 72.62459 23.00654, 72.62437 23.00673, 72.62429 23.00681, 72.62429 23.00681, 72.62421 23.00694, 72.62419 23.00702, 72.62421 23.00789, 72.62428 23.00891, 72.62398 23.00902, 72.62398 23.00902, 72.62198 23.00979, 72.62198 23.00979, 72.62114 23.0101, 72.62015 23.01045, 72.62015 23.01045, 72.6199 23.01054, 72.61987 23.01059, 72.61972 23.01062, 72.61938 23.01068, 72.61891 23.0107, 72.61835 23.01073, 72.61801 23.01077, 72.61786 23.01076, 72.61699 23.0108, 72.61692 23.01076, 72.61692 23.01076, 72.61706 23.01085, 72.61725 23.01102, 72.61741 23.01114, 72.61757 23.01133, 72.61774 23.01161, 72.61803 23.01217, 72.6181 23.01226, 72.61847 23.01305, 72.61849 23.01311, 72.61847 23.01311, 72.619 23.01422, 72.61877 23.01431, 72.61877 23.01431, 72.6173 23.01488, 72.61693 23.01502, 72.61668 23.01516, 72.61654 23.01524, 72.61648 23.01531, 72.61644 23.01538, 72.61641 23.01563, 72.61651 23.01641, 72.61651 23.01641, 72.61662 23.01709, 72.61654 23.0171, 72.61595 23.01712, 72.61499 23.01712, 72.61419 23.01717, 72.61403 23.0172, 72.61403 23.0172, 72.61373 23.01727, 72.61356 23.01732, 72.61361 23.01741, 72.61384 23.01781, 72.61383 23.01782, 72.61382 23.01783, 72.6138 23.01787, 72.6138 23.0179, 72.61384 23.01796, 72.61386 23.01797, 72.61387 23.01798, 72.61386 23.01884, 72.61382 23.01911, 72.61376 23.01928, 72.61367 23.01943, 72.61351 23.01961, 72.61322 23.01992, 72.61322 23.01992, 72.61311 23.02004, 72.61297 23.02038, 72.61273 23.02098, 72.61266 23.02121, 72.61266 23.02121, 72.61247 23.02184, 72.60954 23.0212, 72.60954 23.0212, 72.609233 23.021118, 72.60841 23.02092, 72.60841 23.02093, 72.60823 23.02094, 72.60792 23.02088, 72.60742 23.02079, 72.60709 23.0207, 72.60709 23.0207, 72.607 23.02067, 72.60699 23.02077, 72.60688 23.02155, 72.60675 23.02227, 72.60667 23.02293, 72.60658 23.02387, 72.60657 23.02397, 72.60661 23.02411, 72.60658 23.02437, 72.60655 23.02455, 72.60656 23.02458, 72.60656 23.02458, 72.60629 23.02495, 72.60611 23.02518, 72.6059 23.02539, 72.60577 23.02543, 72.60519 23.0255, 72.60505 23.02553, 72.60497 23.02557, 72.60486 23.0257, 72.60478 23.02584, 72.60468 23.02612, 72.60459 23.02664, 72.60456 23.02681, 72.60458 23.02698, 72.60446 23.02758, 72.60448 23.02761, 72.60443 23.02768, 72.60451 23.02775, 72.60447 23.02792, 72.60447 23.02792, 72.60446 23.02841, 72.60446 23.02889, 72.60448 23.02956, 72.60447 23.03043, 72.60445 23.03065, 72.60445 23.03065, 72.60433 23.03094, 72.6043 23.03104, 72.60429 23.03116, 72.60396 23.03149, 72.60362 23.03186, 72.6035 23.03206, 72.60323 23.03271, 72.60314 23.03298, 72.60313 23.03298, 72.60312 23.03298, 72.6031 23.03298, 72.60308 23.03299, 72.60306 23.03303, 72.60306 23.03305, 72.60277 23.03312, 72.60121 23.03322, 72.60092 23.03318, 72.60073 23.0331, 72.60053 23.03297, 72.60028 23.03274, 72.5995 23.03192, 72.5995 23.03192, 72.59928 23.0317, 72.59906 23.03154, 72.59873 23.03129, 72.59875 23.03126, 72.59879 23.03114, 72.59864 23.03111, 72.59841 23.03106, 72.59822 23.03104, 72.59802 23.0314, 72.59798 23.03156, 72.59791 23.0318, 72.59791 23.0318, 72.59777 23.03255, 72.59755 23.03328, 72.59748 23.03355, 72.59732 23.034, 72.59714 23.03437, 72.59707 23.03469, 72.59703 23.0348, 72.59694 23.03492, 72.59719 23.03502, 72.59729 23.03511, 72.59712 23.03522, 72.59685 23.03554, 72.59661 23.03585, 72.59659 23.03584, 72.59629 23.03621, 72.59604 23.03644, 72.5958 23.03664, 72.59544 23.03688, 72.59504 23.03711, 72.59454 23.03732, 72.59399 23.03748, 72.59399 23.03748, 72.59357 23.03758, 72.59354 23.03758, 72.59296 23.03765, 72.59293 23.03766, 72.59274 23.03763, 72.59219 23.03763, 72.59166 23.03763, 72.5914 23.03763, 72.59078 23.03756, 72.59027 23.03751, 72.59015 23.03752, 72.59015 23.03752, 72.58983 23.03757, 72.58939 23.03767, 72.58807 23.03789, 72.5862 23.03831, 72.58506 23.03857, 72.58506 23.03857, 72.5835 23.0389, 72.5835 23.0389, 72.58274 23.03902, 72.58199 23.03912, 72.58086 23.0392, 72.58086 23.0392, 72.58003 23.03928, 72.57966 23.03934, 72.57817 23.0396, 72.57713 23.03973, 72.57713 23.03973, 72.57562 23.03985, 72.57354 23.03997, 72.57147 23.04014, 72.56925 23.04023, 72.56934 23.04138, 72.56945 23.04214, 72.56945 23.04214, 72.56961 23.04307, 72.56961 23.04307, 72.57001 23.0453, 72.57014 23.04614, 72.57014 23.04614, 72.57024 23.0466, 72.57029 23.04674, 72.57043 23.04706, 72.57065 23.04743, 72.57082 23.04771, 72.57093 23.04794, 72.571 23.04824, 72.5711 23.04902, 72.5712 23.05006, 72.57126 23.05088, 72.57126 23.05088, 72.57146 23.05381, 72.57153 23.05509, 72.57153 23.05509, 72.57157 23.0555, 72.5716 23.05564, 72.57158 23.05574, 72.5716 23.05583, 72.57162 23.05586, 72.57159 23.05623, 72.57147 23.0563, 72.57066 23.05676, 72.57046 23.0569, 72.57007 23.05718, 72.57007 23.05718, 72.56912 23.05801, 72.56887 23.05831, 72.56887 23.05831, 72.56841 23.05888, 72.56823 23.05909, 72.5681 23.05924, 72.56802 23.05936, 72.56785 23.05975, 72.56785 23.05975, 72.56763 23.06022, 72.5668 23.06026, 72.56616 23.06022, 72.56538 23.06004, 72.56469 23.05991, 72.56438 23.05986, 72.5642 23.05986, 72.56383 23.05992, 72.56341 23.05995, 72.56341 23.05995, 72.56297 23.05997, 72.56219 23.05997, 72.56167 23.05995, 72.56167 23.05995, 72.56128 23.05992, 72.56068 23.05985, 72.55997 23.05975, 72.55916 23.0596, 72.55916 23.0596, 72.55744 23.05912, 72.55668 23.05898, 72.55599 23.05886, 72.55599 23.05886, 72.5558 23.05882, 72.55563 23.05876, 72.55556 23.0587, 72.55552 23.05875, 72.55497 23.05919, 72.55337 23.06083, 72.55292 23.06131, 72.55292 23.06131, 72.55242 23.06181, 72.55086 23.06292, 72.54981 23.06365, 72.54981 23.06365, 72.54919 23.06411, 72.54897 23.06431, 72.54877 23.06455, 72.54835 23.06505, 72.54793 23.0656, 72.54775 23.0658, 72.54762 23.0659, 72.54732 23.06615, 72.54688 23.06642, 72.54687 23.06642, 72.54578 23.06715, 72.54576 23.06715, 72.54573 23.06717, 72.54571 23.06719, 72.54567 23.06722, 72.54465 23.0677, 72.54406 23.06801, 72.54396 23.0681, 72.54391 23.06821, 72.54366 23.06876, 72.54366 23.06876, 72.54359 23.06892, 72.54358 23.06896, 72.54366 23.06899, 72.5443 23.06929, 72.54444 23.06936, 72.54444 23.06936, 72.5457 23.06995, 72.54736 23.07068, 72.54868 23.07124, 72.54868 23.07124, 72.54956 23.07161, 72.55007 23.07183, 72.54953 23.07288, 72.54934 23.0733, 72.54934 23.0733, 72.54898 23.07406, 72.54869 23.0747, 72.54848 23.07519, 72.54778 23.07492, 72.5474 23.07478, 72.5472 23.0747, 72.5472 23.0747, 72.54605 23.07431, 72.54595 23.07446, 72.54568 23.07472, 72.54564 23.07477, 72.54558 23.07498, 72.54545 23.0756, 72.54637 23.076, 72.54662 23.07612, 72.54662 23.07612, 72.54772 23.07662, 72.54793 23.07672)"
  },
  {
    "stopName": "Shuddodhannagar",
    "stopCode": 1202,
    "stationCode": 2772,
    "stopType": "MUNICIPAL_BUS",
    "shortStopName": null,
    "Position": {
      "stopLongitude": "72.613233",
      "stopLatitude": "23.019933"
    },
    "RouteCodes": null,
    "Sequence": 47,
    "routeFlow": null
  },
  {
    "stopName": "Patel Mills",
    "stopCode": 1203,
    "stationCode": 2323,
    "stopType": "MUNICIPAL_BUS",
    "shortStopName": null,
    "Position": {
      "stopLongitude": "72.612637",
      "stopLatitude": "23.0212"
    },
    "RouteCodes": null,
    "Sequence": 48,
    "routeFlow": null
  },
  {
    "stopName": "Prem Darwaja",
    "stopCode": 1205,
    "stationCode": 2378,
    "stopType": "MUNICIPAL_BUS",
    "shortStopName": null,
    "Position": {
      "stopLongitude": "72.596563",
      "stopLatitude": "23.035823"
    },
    "RouteCodes": null,
    "Sequence": 58,
    "routeFlow": null
  },
  {
    "stopName": "Dariyapur Darwaja",
    "stopCode": 1206,
    "stationCode": 1423,
    "stopType": "MUNICIPAL_BUS",
    "shortStopName": null,
    "Position": {
      "stopLongitude": "72.593976",
      "stopLatitude": "23.037433"
    },
    "RouteCodes": null,
    "Sequence": 59,
    "routeFlow": null
  },
  {
    "stopName": "Madhupura",
    "stopCode": 1207,
    "stationCode": 1991,
    "stopType": "MUNICIPAL_BUS",
    "shortStopName": null,
    "Position": {
      "stopLongitude": "72.590148",
      "stopLatitude": "23.03751"
    },
    "RouteCodes": null,
    "Sequence": 60,
    "routeFlow": null
  },
  {
    "stopName": "Delhi Darwaja (Rt.77 Stand)",
    "stopCode": 1208,
    "stationCode": 1432,
    "stopType": "MUNICIPAL_BUS",
    "shortStopName": null,
    "Position": {
      "stopLongitude": "72.585037",
      "stopLatitude": "23.038497"
    },
    "RouteCodes": null,
    "Sequence": 61,
    "routeFlow": null
  },
  {
    "stopName": "Halimni Khadki",
    "stopCode": 1209,
    "stationCode": 1646,
    "stopType": "MUNICIPAL_BUS",
    "shortStopName": null,
    "Position": {
      "stopLongitude": "72.583493",
      "stopLatitude": "23.03888"
    },
    "RouteCodes": null,
    "Sequence": 62,
    "routeFlow": null
  },
  {
    "stopName": "Shahpur Darwaja",
    "stopCode": 1210,
    "stationCode": 2683,
    "stopType": "MUNICIPAL_BUS",
    "shortStopName": null,
    "Position": {
      "stopLongitude": "72.58086",
      "stopLatitude": "23.039192"
    },
    "RouteCodes": null,
    "Sequence": 63,
    "routeFlow": null
  },
  {
    "stopName": "Shankar Bhuvan",
    "stopCode": 1211,
    "stationCode": 2696,
    "stopType": "MUNICIPAL_BUS",
    "shortStopName": null,
    "Position": {
      "stopLongitude": "72.57713",
      "stopLatitude": "23.039758"
    },
    "RouteCodes": null,
    "Sequence": 64,
    "routeFlow": null
  },
  {
    "stopName": "Bombay Housing Police Line",
    "stopCode": 1485,
    "stationCode": 1319,
    "stopType": "MUNICIPAL_BUS",
    "shortStopName": null,
    "Position": {
      "stopLongitude": "72.609546",
      "stopLatitude": "23.021163"
    },
    "RouteCodes": null,
    "Sequence": 49,
    "routeFlow": null
  },
  {
    "stopName": "Hathi Khai",
    "stopCode": 1486,
    "stationCode": 1669,
    "stopType": "MUNICIPAL_BUS",
    "shortStopName": null,
    "Position": {
      "stopLongitude": "72.608411",
      "stopLatitude": "23.020918"
    },
    "RouteCodes": null,
    "Sequence": 50,
    "routeFlow": null
  },
  {
    "stopName": "Kalupur Overbridge",
    "stopCode": 1713,
    "stationCode": 1838,
    "stopType": "MUNICIPAL_BUS",
    "shortStopName": null,
    "Position": {
      "stopLongitude": "72.599526",
      "stopLatitude": "23.031896"
    },
    "RouteCodes": null,
    "Sequence": 55,
    "routeFlow": null
  },
  {
    "stopName": "Sanjivani Hospital",
    "stopCode": 1984,
    "stationCode": 2581,
    "stopType": "MUNICIPAL_BUS",
    "shortStopName": null,
    "Position": {
      "stopLongitude": "72.570035",
      "stopLatitude": "23.057144"
    },
    "RouteCodes": null,
    "Sequence": 70,
    "routeFlow": null
  },
  {
    "stopName": "Income Tax Office",
    "stopCode": 2030,
    "stationCode": 1705,
    "stopType": "MUNICIPAL_BUS",
    "shortStopName": null,
    "Position": {
      "stopLongitude": "72.569513",
      "stopLatitude": "23.042136"
    },
    "RouteCodes": null,
    "Sequence": 65,
    "routeFlow": null
  },
  {
    "stopName": "Champaner Society",
    "stopCode": 2032,
    "stationCode": 1348,
    "stopType": "MUNICIPAL_BUS",
    "shortStopName": null,
    "Position": {
      "stopLongitude": "72.57131",
      "stopLatitude": "23.050876"
    },
    "RouteCodes": null,
    "Sequence": 68,
    "routeFlow": null
  },
  {
    "stopName": "Vadaj",
    "stopCode": 2033,
    "stationCode": 2978,
    "stopType": "MUNICIPAL_BUS",
    "shortStopName": null,
    "Position": {
      "stopLongitude": "72.571524",
      "stopLatitude": "23.055089"
    },
    "RouteCodes": null,
    "Sequence": 69,
    "routeFlow": null
  },
  {
    "stopName": "Tulsishyam Society",
    "stopCode": 2034,
    "stationCode": 2958,
    "stopType": "MUNICIPAL_BUS",
    "shortStopName": null,
    "Position": {
      "stopLongitude": "72.568853",
      "stopLatitude": "23.058305"
    },
    "RouteCodes": null,
    "Sequence": 71,
    "routeFlow": null
  },
  {
    "stopName": "Bhimjipura",
    "stopCode": 2035,
    "stationCode": 1299,
    "stopType": "MUNICIPAL_BUS",
    "shortStopName": null,
    "Position": {
      "stopLongitude": "72.567827",
      "stopLatitude": "23.059739"
    },
    "RouteCodes": null,
    "Sequence": 72,
    "routeFlow": null
  },
  {
    "stopName": "Gujarat Vidyapith",
    "stopCode": 2163,
    "stationCode": 1627,
    "stopType": "MUNICIPAL_BUS",
    "shortStopName": null,
    "Position": {
      "stopLongitude": "72.56962",
      "stopLatitude": "23.043068"
    },
    "RouteCodes": null,
    "Sequence": 66,
    "routeFlow": null
  },
  {
    "stopName": "Hatkeshwar Mahadev",
    "stopCode": 2257,
    "stationCode": 1673,
    "stopType": "MUNICIPAL_BUS",
    "shortStopName": null,
    "Position": {
      "stopLongitude": "72.624486",
      "stopLatitude": "22.998852"
    },
    "RouteCodes": null,
    "Sequence": 34,
    "routeFlow": null
  },
  {
    "stopName": "Kalupur",
    "stopCode": 2271,
    "stationCode": 1836,
    "stopType": "MUNICIPAL_BUS",
    "shortStopName": null,
    "Position": {
      "stopLongitude": "72.59866",
      "stopLatitude": "23.031238"
    },
    "RouteCodes": null,
    "Sequence": 56,
    "routeFlow": null
  },
  {
    "stopName": "C.T.M. Cross Road",
    "stopCode": 2310,
    "stationCode": 1326,
    "stopType": "MUNICIPAL_BUS",
    "shortStopName": null,
    "Position": {
      "stopLongitude": "72.632331",
      "stopLatitude": "22.992985"
    },
    "RouteCodes": null,
    "Sequence": 31,
    "routeFlow": null
  },
  {
    "stopName": "Lal Bangla (Ctm)",
    "stopCode": 2311,
    "stationCode": 1960,
    "stopType": "MUNICIPAL_BUS",
    "shortStopName": null,
    "Position": {
      "stopLongitude": "72.629233",
      "stopLatitude": "22.995045"
    },
    "RouteCodes": null,
    "Sequence": 32,
    "routeFlow": null
  },
  {
    "stopName": "Hatkeshwar Depo",
    "stopCode": 2312,
    "stationCode": 1672,
    "stopType": "MUNICIPAL_BUS",
    "shortStopName": null,
    "Position": {
      "stopLongitude": "72.62607",
      "stopLatitude": "22.99732"
    },
    "RouteCodes": null,
    "Sequence": 33,
    "routeFlow": null
  },
  {
    "stopName": "Kiran Park",
    "stopCode": 3694,
    "stationCode": 1898,
    "stopType": "MUNICIPAL_BUS",
    "shortStopName": null,
    "Position": {
      "stopLongitude": "72.563416",
      "stopLatitude": "23.059973"
    },
    "RouteCodes": null,
    "Sequence": 73,
    "routeFlow": null
  },
  {
    "stopName": "Patrakar Colony (Vijaynagar)",
    "stopCode": 3695,
    "stationCode": 2329,
    "stopType": "MUNICIPAL_BUS",
    "shortStopName": null,
    "Position": {
      "stopLongitude": "72.559166",
      "stopLatitude": "23.059583"
    },
    "RouteCodes": null,
    "Sequence": 75,
    "routeFlow": null
  },
  {
    "stopName": "Ankur Society",
    "stopCode": 3696,
    "stationCode": 1144,
    "stopType": "MUNICIPAL_BUS",
    "shortStopName": null,
    "Position": {
      "stopLongitude": "72.555986",
      "stopLatitude": "23.058885"
    },
    "RouteCodes": null,
    "Sequence": 76,
    "routeFlow": null
  },
  {
    "stopName": "Sureliya Estate",
    "stopCode": 3728,
    "stationCode": 2877,
    "stopType": "MUNICIPAL_BUS",
    "shortStopName": null,
    "Position": {
      "stopLongitude": "72.64118",
      "stopLatitude": "23.00494"
    },
    "RouteCodes": null,
    "Sequence": 25,
    "routeFlow": null
  },
  {
    "stopName": "Fruit Market",
    "stopCode": 3921,
    "stationCode": 1501,
    "stopType": "MUNICIPAL_BUS",
    "shortStopName": null,
    "Position": {
      "stopLongitude": "72.59793",
      "stopLatitude": "23.031806"
    },
    "RouteCodes": null,
    "Sequence": 57,
    "routeFlow": null
  },
  {
    "stopName": "Ranna Park",
    "stopCode": 3970,
    "stationCode": 2487,
    "stopType": "MUNICIPAL_BUS",
    "shortStopName": null,
    "Position": {
      "stopLongitude": "72.546888",
      "stopLatitude": "23.066436"
    },
    "RouteCodes": null,
    "Sequence": 79,
    "routeFlow": null
  },
  {
    "stopName": "Prabhat Chowk",
    "stopCode": 3971,
    "stationCode": 2355,
    "stopType": "MUNICIPAL_BUS",
    "shortStopName": null,
    "Position": {
      "stopLongitude": "72.543671",
      "stopLatitude": "23.068761"
    },
    "RouteCodes": null,
    "Sequence": 80,
    "routeFlow": null
  },
  {
    "stopName": "Pallav Society",
    "stopCode": 4195,
    "stationCode": 2287,
    "stopType": "MUNICIPAL_BUS",
    "shortStopName": null,
    "Position": {
      "stopLongitude": "72.552911",
      "stopLatitude": "23.061301"
    },
    "RouteCodes": null,
    "Sequence": 77,
    "routeFlow": null
  },
  {
    "stopName": "Gujarat Housing Board Office",
    "stopCode": 4232,
    "stationCode": 1620,
    "stopType": "MUNICIPAL_BUS",
    "shortStopName": null,
    "Position": {
      "stopLongitude": "72.5498",
      "stopLatitude": "23.06364"
    },
    "RouteCodes": null,
    "Sequence": 78,
    "routeFlow": null
  },
  {
    "stopName": "Usmanpura",
    "stopCode": 4257,
    "stationCode": 2975,
    "stopType": "MUNICIPAL_BUS",
    "shortStopName": null,
    "Position": {
      "stopLongitude": "72.57012",
      "stopLatitude": "23.046148"
    },
    "RouteCodes": null,
    "Sequence": 67,
    "routeFlow": null
  },
  {
    "stopName": "Gurukrupa Vidyalay",
    "stopCode": 4452,
    "stationCode": 1639,
    "stopType": "MUNICIPAL_BUS",
    "shortStopName": null,
    "Position": {
      "stopLongitude": "72.633793",
      "stopLatitude": "22.991821"
    },
    "RouteCodes": null,
    "Sequence": 30,
    "routeFlow": null
  },
  {
    "stopName": "Sarvodaynagar",
    "stopCode": 4693,
    "stationCode": 2645,
    "stopType": "MUNICIPAL_BUS",
    "shortStopName": null,
    "Position": {
      "stopLongitude": "72.54932",
      "stopLatitude": "23.07329"
    },
    "RouteCodes": null,
    "Sequence": 83,
    "routeFlow": null
  },
  {
    "stopName": "Nilay Apartment",
    "stopCode": 4694,
    "stationCode": 2225,
    "stopType": "MUNICIPAL_BUS",
    "shortStopName": null,
    "Position": {
      "stopLongitude": "72.546607",
      "stopLatitude": "23.076143"
    },
    "RouteCodes": null,
    "Sequence": 85,
    "routeFlow": null
  },
  {
    "stopName": "Vagheshwari Soc(Chandlodia Rly Station)",
    "stopCode": 5493,
    "stationCode": 2984,
    "stopType": "MUNICIPAL_BUS",
    "shortStopName": null,
    "Position": {
      "stopLongitude": "72.54792",
      "stopLatitude": "23.076736"
    },
    "RouteCodes": null,
    "Sequence": 86,
    "routeFlow": null
  },
  {
    "stopName": "Satyanarayan Society",
    "stopCode": 7006,
    "stationCode": 2659,
    "stopType": "MUNICIPAL_BUS",
    "shortStopName": null,
    "Position": {
      "stopLongitude": "72.626688",
      "stopLatitude": "23.003522"
    },
    "RouteCodes": null,
    "Sequence": 36,
    "routeFlow": null
  },
  {
    "stopName": "Amaraiwadi Post Office",
    "stopCode": 7007,
    "stationCode": 1099,
    "stopType": "MUNICIPAL_BUS",
    "shortStopName": null,
    "Position": {
      "stopLongitude": "72.627106",
      "stopLatitude": "23.005685"
    },
    "RouteCodes": null,
    "Sequence": 37,
    "routeFlow": null
  },
  {
    "stopName": "Rudreshwar Mahadev",
    "stopCode": 7413,
    "stationCode": 3108,
    "stopType": "MUNICIPAL_BUS",
    "shortStopName": null,
    "Position": {
      "stopLongitude": "72.625788",
      "stopLatitude": "23.001269"
    },
    "RouteCodes": null,
    "Sequence": 35,
    "routeFlow": null
  },
  {
    "stopName": "Gaurinagar",
    "stopCode": 7737,
    "stationCode": 1535,
    "stopType": "MUNICIPAL_BUS",
    "shortStopName": null,
    "Position": {
      "stopLongitude": "72.547214",
      "stopLatitude": "23.074679"
    },
    "RouteCodes": null,
    "Sequence": 84,
    "routeFlow": null
  },
  {
    "stopName": "Odhav Panjarapol",
    "stopCode": 7798,
    "stationCode": 2262,
    "stopType": "MUNICIPAL_BUS",
    "shortStopName": null,
    "Position": {
      "stopLongitude": "72.668295",
      "stopLatitude": "23.008505"
    },
    "RouteCodes": null,
    "Sequence": 7,
    "routeFlow": null
  },
  {
    "stopName": "Raghulilla Residency",
    "stopCode": 7799,
    "stationCode": 2424,
    "stopType": "MUNICIPAL_BUS",
    "shortStopName": null,
    "Position": {
      "stopLongitude": "72.664101",
      "stopLatitude": "23.008126"
    },
    "RouteCodes": null,
    "Sequence": 8,
    "routeFlow": null
  },
  {
    "stopName": "Madhav School",
    "stopCode": 7800,
    "stationCode": 1987,
    "stopType": "MUNICIPAL_BUS",
    "shortStopName": null,
    "Position": {
      "stopLongitude": "72.663216",
      "stopLatitude": "23.00261"
    },
    "RouteCodes": null,
    "Sequence": 9,
    "routeFlow": null
  },
  {
    "stopName": "Ratanpur",
    "stopCode": 7801,
    "stationCode": 2490,
    "stopType": "MUNICIPAL_BUS",
    "shortStopName": null,
    "Position": {
      "stopLongitude": "72.661016",
      "stopLatitude": "22.99879"
    },
    "RouteCodes": null,
    "Sequence": 10,
    "routeFlow": null
  },
  {
    "stopName": "Nirant Chokdi",
    "stopCode": 7802,
    "stationCode": 2233,
    "stopType": "MUNICIPAL_BUS",
    "shortStopName": null,
    "Position": {
      "stopLongitude": "72.6578",
      "stopLatitude": "22.999736"
    },
    "RouteCodes": null,
    "Sequence": 11,
    "routeFlow": null
  },
  {
    "stopName": "D.P.S. School",
    "stopCode": 7803,
    "stationCode": 1409,
    "stopType": "MUNICIPAL_BUS",
    "shortStopName": null,
    "Position": {
      "stopLongitude": "72.655953",
      "stopLatitude": "22.996725"
    },
    "RouteCodes": null,
    "Sequence": 12,
    "routeFlow": null
  },
  {
    "stopName": "Kisan Lend",
    "stopCode": 7804,
    "stationCode": 1900,
    "stopType": "MUNICIPAL_BUS",
    "shortStopName": null,
    "Position": {
      "stopLongitude": "72.655351",
      "stopLatitude": "22.994796"
    },
    "RouteCodes": null,
    "Sequence": 13,
    "routeFlow": null
  },
  {
    "stopName": "Kalpataru Residency",
    "stopCode": 7805,
    "stationCode": 1834,
    "stopType": "MUNICIPAL_BUS",
    "shortStopName": null,
    "Position": {
      "stopLongitude": "72.658235",
      "stopLatitude": "22.994298"
    },
    "RouteCodes": null,
    "Sequence": 14,
    "routeFlow": null
  },
  {
    "stopName": "Bapasitaram Chowk",
    "stopCode": 7806,
    "stationCode": 1247,
    "stopType": "MUNICIPAL_BUS",
    "shortStopName": null,
    "Position": {
      "stopLongitude": "72.662451",
      "stopLatitude": "22.993505"
    },
    "RouteCodes": null,
    "Sequence": 15,
    "routeFlow": null
  },
  {
    "stopName": "Sarovar-4",
    "stopCode": 7807,
    "stationCode": 2644,
    "stopType": "MUNICIPAL_BUS",
    "shortStopName": null,
    "Position": {
      "stopLongitude": "72.662088",
      "stopLatitude": "22.991851"
    },
    "RouteCodes": null,
    "Sequence": 16,
    "routeFlow": null
  },
  {
    "stopName": "Galaxy Corel",
    "stopCode": 7808,
    "stationCode": 1515,
    "stopType": "MUNICIPAL_BUS",
    "shortStopName": null,
    "Position": {
      "stopLongitude": "72.657",
      "stopLatitude": "22.992546"
    },
    "RouteCodes": null,
    "Sequence": 17,
    "routeFlow": null
  },
  {
    "stopName": "Madhav Homes",
    "stopCode": 7809,
    "stationCode": 1985,
    "stopType": "MUNICIPAL_BUS",
    "shortStopName": null,
    "Position": {
      "stopLongitude": "72.65501",
      "stopLatitude": "22.991766"
    },
    "RouteCodes": null,
    "Sequence": 18,
    "routeFlow": null
  },
  {
    "stopName": "Dharti Status",
    "stopCode": 7810,
    "stationCode": 5048,
    "stopType": "MUNICIPAL_BUS",
    "shortStopName": null,
    "Position": {
      "stopLongitude": "72.65184",
      "stopLatitude": "22.993706"
    },
    "RouteCodes": null,
    "Sequence": 19,
    "routeFlow": null
  },
  {
    "stopName": "Lakshminagar",
    "stopCode": 7811,
    "stationCode": 1954,
    "stopType": "MUNICIPAL_BUS",
    "shortStopName": null,
    "Position": {
      "stopLongitude": "72.649181",
      "stopLatitude": "22.996628"
    },
    "RouteCodes": null,
    "Sequence": 20,
    "routeFlow": null
  },
  {
    "stopName": "Manidhar Society",
    "stopCode": 7812,
    "stationCode": 2039,
    "stopType": "MUNICIPAL_BUS",
    "shortStopName": null,
    "Position": {
      "stopLongitude": "72.647313",
      "stopLatitude": "22.998678"
    },
    "RouteCodes": null,
    "Sequence": 21,
    "routeFlow": null
  },
  {
    "stopName": "R.T.O. (East)",
    "stopCode": 7813,
    "stationCode": 2411,
    "stopType": "MUNICIPAL_BUS",
    "shortStopName": null,
    "Position": {
      "stopLongitude": "72.645465",
      "stopLatitude": "23.001305"
    },
    "RouteCodes": null,
    "Sequence": 22,
    "routeFlow": null
  },
  {
    "stopName": "Shri V.K.Vidyalay",
    "stopCode": 7814,
    "stationCode": 2746,
    "stopType": "MUNICIPAL_BUS",
    "shortStopName": null,
    "Position": {
      "stopLongitude": "72.644746",
      "stopLatitude": "23.004045"
    },
    "RouteCodes": null,
    "Sequence": 23,
    "routeFlow": null
  },
  {
    "stopName": "Ritanagar",
    "stopCode": 7815,
    "stationCode": 2506,
    "stopType": "MUNICIPAL_BUS",
    "shortStopName": null,
    "Position": {
      "stopLongitude": "72.643165",
      "stopLatitude": "23.003945"
    },
    "RouteCodes": null,
    "Sequence": 24,
    "routeFlow": null
  },
  {
    "stopName": "Jain Milan Society",
    "stopCode": 7817,
    "stationCode": 1744,
    "stopType": "MUNICIPAL_BUS",
    "shortStopName": null,
    "Position": {
      "stopLongitude": "72.640438",
      "stopLatitude": "23.004163"
    },
    "RouteCodes": null,
    "Sequence": 26,
    "routeFlow": null
  },
  {
    "stopName": "Anjali Vidyalay",
    "stopCode": 7818,
    "stationCode": 1140,
    "stopType": "MUNICIPAL_BUS",
    "shortStopName": null,
    "Position": {
      "stopLongitude": "72.640443",
      "stopLatitude": "23.000668"
    },
    "RouteCodes": null,
    "Sequence": 27,
    "routeFlow": null
  },
  {
    "stopName": "Jogeshwar Estate",
    "stopCode": 7819,
    "stationCode": 1796,
    "stopType": "MUNICIPAL_BUS",
    "shortStopName": null,
    "Position": {
      "stopLongitude": "72.638773",
      "stopLatitude": "22.997246"
    },
    "RouteCodes": null,
    "Sequence": 28,
    "routeFlow": null
  },
  {
    "stopName": "Dhanjibhai Industrial Estate",
    "stopCode": 7820,
    "stationCode": 1454,
    "stopType": "MUNICIPAL_BUS",
    "shortStopName": null,
    "Position": {
      "stopLongitude": "72.636655",
      "stopLatitude": "22.994808"
    },
    "RouteCodes": null,
    "Sequence": 29,
    "routeFlow": null
  },
  {
    "stopName": "Vijaynagar Railway Crossing",
    "stopCode": 7857,
    "stationCode": 3046,
    "stopType": "MUNICIPAL_BUS",
    "shortStopName": null,
    "Position": {
      "stopLongitude": "72.560983",
      "stopLatitude": "23.059863"
    },
    "RouteCodes": null,
    "Sequence": 74,
    "routeFlow": null
  },
  {
    "stopName": "Simandhar Complex",
    "stopCode": 7863,
    "stationCode": 2798,
    "stopType": "MUNICIPAL_BUS",
    "shortStopName": null,
    "Position": {
      "stopLongitude": "72.54445",
      "stopLatitude": "23.06935"
    },
    "RouteCodes": null,
    "Sequence": 81,
    "routeFlow": null
  },
  {
    "stopName": "Shankarda Hall",
    "stopCode": 7864,
    "stationCode": 2697,
    "stopType": "MUNICIPAL_BUS",
    "shortStopName": null,
    "Position": {
      "stopLongitude": "72.548671",
      "stopLatitude": "23.071251"
    },
    "RouteCodes": null,
    "Sequence": 82,
    "routeFlow": null
  },
  {
    "stopName": "Shrinagar Mill (Gurudwara)",
    "stopCode": 8106,
    "stationCode": 7193,
    "stopType": "MUNICIPAL_BUS",
    "shortStopName": null,
    "Position": {
      "stopLongitude": "72.604418",
      "stopLatitude": "23.030643"
    },
    "RouteCodes": null,
    "Sequence": 54,
    "routeFlow": null
  },
  {
    "stopName": "Kalupur Metro Station",
    "stopCode": 8107,
    "stationCode": 7194,
    "stopType": "MUNICIPAL_BUS",
    "shortStopName": null,
    "Position": {
      "stopLongitude": "72.604451",
      "stopLatitude": "23.02791"
    },
    "RouteCodes": null,
    "Sequence": 53,
    "routeFlow": null
  },
  {
    "stopName": "Kamdar Medan Char Rasta",
    "stopCode": 8110,
    "stationCode": 7195,
    "stopType": "MUNICIPAL_BUS",
    "shortStopName": null,
    "Position": {
      "stopLongitude": "72.607102",
      "stopLatitude": "23.020658"
    },
    "RouteCodes": null,
    "Sequence": 51,
    "routeFlow": null
  },
  {
    "stopName": "Chartoda Kbrstan Char Rasta",
    "stopCode": 8113,
    "stationCode": 7196,
    "stopType": "MUNICIPAL_BUS",
    "shortStopName": null,
    "Position": {
      "stopLongitude": "72.606532",
      "stopLatitude": "23.024584"
    },
    "RouteCodes": null,
    "Sequence": 52,
    "routeFlow": null
  },
  {
    "stopName": "Sukhramnagar Pani ni Tanki",
    "stopCode": 8466,
    "stationCode": 6017,
    "stopType": "MUNICIPAL_BUS",
    "shortStopName": null,
    "Position": {
      "stopLongitude": "72.618432",
      "stopLatitude": "23.013126"
    },
    "RouteCodes": null,
    "Sequence": 43,
    "routeFlow": null
  },
  {
    "stopName": "New Cotton Mill",
    "stopCode": 8498,
    "stationCode": 6029,
    "stopType": "MUNICIPAL_BUS",
    "shortStopName": null,
    "Position": {
      "stopLongitude": "72.616946",
      "stopLatitude": "23.010728"
    },
    "RouteCodes": null,
    "Sequence": 42,
    "routeFlow": null
  },
  {
    "stopName": "Bunglow",
    "stopCode": 8500,
    "stationCode": 6030,
    "stopType": "MUNICIPAL_BUS",
    "shortStopName": null,
    "Position": {
      "stopLongitude": "72.621974",
      "stopLatitude": "23.009779"
    },
    "RouteCodes": null,
    "Sequence": 40,
    "routeFlow": null
  },
  {
    "stopName": "Indiranagar (Naranmitha ni chali)",
    "stopCode": 8502,
    "stationCode": 6031,
    "stopType": "MUNICIPAL_BUS",
    "shortStopName": null,
    "Position": {
      "stopLongitude": "72.623976",
      "stopLatitude": "23.009004"
    },
    "RouteCodes": null,
    "Sequence": 39,
    "routeFlow": null
  },
  {
    "stopName": "Amraiwadi",
    "stopCode": 8504,
    "stationCode": 6032,
    "stopType": "MUNICIPAL_BUS",
    "shortStopName": null,
    "Position": {
      "stopLongitude": "72.624275",
      "stopLatitude": "23.006791"
    },
    "RouteCodes": null,
    "Sequence": 38,
    "routeFlow": null
  },
  {
    "stopName": "Society ni chali",
    "stopCode": 8506,
    "stationCode": 6033,
    "stopType": "MUNICIPAL_BUS",
    "shortStopName": null,
    "Position": {
      "stopLongitude": "72.620142",
      "stopLatitude": "23.010437"
    },
    "RouteCodes": null,
    "Sequence": 41,
    "routeFlow": null
  },
  {
    "stopName": "Bhagyoday Society (Sukhramnagar)",
    "stopCode": 8725,
    "stationCode": 6110,
    "stopType": "MUNICIPAL_BUS",
    "shortStopName": null,
    "Position": {
      "stopLongitude": "72.618765",
      "stopLatitude": "23.014294"
    },
    "RouteCodes": null,
    "Sequence": 44,
    "routeFlow": null
  },
  {
    "stopName": "Neminath Derasar(Gomtipur)",
    "stopCode": 8777,
    "stationCode": 6136,
    "stopType": "MUNICIPAL_BUS",
    "shortStopName": null,
    "Position": {
      "stopLongitude": "72.616486",
      "stopLatitude": "23.016413"
    },
    "RouteCodes": null,
    "Sequence": 45,
    "routeFlow": null
  },
  {
    "stopName": "Madhav Farm",
    "stopCode": 9164,
    "stationCode": 6319,
    "stopType": "MUNICIPAL_BUS",
    "shortStopName": null,
    "Position": {
      "stopLongitude": "72.671634",
      "stopLatitude": "23.007787"
    },
    "RouteCodes": null,
    "Sequence": 6,
    "routeFlow": null
  },
  {
    "stopName": "Shridhar Paradise",
    "stopCode": 9165,
    "stationCode": 6320,
    "stopType": "MUNICIPAL_BUS",
    "shortStopName": null,
    "Position": {
      "stopLongitude": "72.672255",
      "stopLatitude": "23.009961"
    },
    "RouteCodes": null,
    "Sequence": 5,
    "routeFlow": null
  },
  {
    "stopName": "Amarnath Residency",
    "stopCode": 9168,
    "stationCode": 6321,
    "stopType": "MUNICIPAL_BUS",
    "shortStopName": null,
    "Position": {
      "stopLongitude": "72.672673",
      "stopLatitude": "23.011314"
    },
    "RouteCodes": null,
    "Sequence": 4,
    "routeFlow": null
  },
  {
    "stopName": "Dharti Parisar",
    "stopCode": 9170,
    "stationCode": 6322,
    "stopType": "MUNICIPAL_BUS",
    "shortStopName": null,
    "Position": {
      "stopLongitude": "72.675549",
      "stopLatitude": "23.010741"
    },
    "RouteCodes": null,
    "Sequence": 3,
    "routeFlow": null
  },
  {
    "stopName": "Devasya School",
    "stopCode": 9172,
    "stationCode": 6323,
    "stopType": "MUNICIPAL_BUS",
    "shortStopName": null,
    "Position": {
      "stopLongitude": "72.67851",
      "stopLatitude": "23.009981"
    },
    "RouteCodes": null,
    "Sequence": 2,
    "routeFlow": null
  },
  {
    "stopName": "Swami Vivekanand Chowk(Vastral)",
    "stopCode": 9173,
    "stationCode": 6324,
    "stopType": "MUNICIPAL_BUS",
    "shortStopName": null,
    "Position": {
      "stopLongitude": "72.6794",
      "stopLatitude": "23.012568"
    },
    "RouteCodes": null,
    "Sequence": 1,
    "routeFlow": null
  }
]