[
  {
    "stopName": "Singarwa Patiya",
    "stopCode": 1241,
    "stationCode": 2804,
    "stopType": "MUNICIPAL_BUS",
    "shortStopName": null,
    "Position": {
      "stopLongitude": "72.692395",
      "stopLatitude": "23.025621"
    },
    "RouteCodes": null,
    "Sequence": 18,
    "routeFlow": "LINESTRING (72.73965 22.98268, 72.73952 22.98269, 72.73943 22.98271, 72.73937 22.98276, 72.73931 22.98288, 72.73933 22.98305, 72.73928 22.9831, 72.73918 22.98318, 72.73902 22.98326, 72.7384 22.98325, 72.73822 22.98327, 72.73801 22.98342, 72.73794 22.98346, 72.73784 22.98346, 72.73747 22.9834, 72.73744 22.98333, 72.73744 22.98312, 72.73735 22.98274, 72.7373 22.98247, 72.73718 22.98211, 72.73668 22.98205, 72.73646 22.982, 72.73624 22.98191, 72.73506 22.9819, 72.73503 22.9819, 72.73503 22.9819, 72.73491 22.9819, 72.73487 22.98221, 72.73482 22.98244, 72.73464 22.98289, 72.73459 22.9831, 72.73454 22.98402, 72.73458 22.98414, 72.73475 22.98453, 72.73487 22.98532, 72.73515 22.98654, 72.7352 22.98671, 72.73572 22.98767, 72.73583 22.98795, 72.73583 22.98795, 72.736 22.98844, 72.73611 22.98912, 72.7362 22.98993, 72.73623 22.99039, 72.73623 22.99113, 72.73625 22.99169, 72.73629 22.99219, 72.73629 22.99219, 72.73633 22.99254, 72.73637 22.9927, 72.73658 22.99343, 72.73663 22.99365, 72.73673 22.99391, 72.73685 22.99426, 72.73691 22.99458, 72.73693 22.99495, 72.73688 22.99531, 72.73686 22.9954, 72.73686 22.9954, 72.73642 22.99701, 72.73607 22.998, 72.73583 22.99857, 72.73565 22.99919, 72.73554 22.99942, 72.73524 22.99989, 72.73513 23.00014, 72.73508 23.00038, 72.73499 23.00064, 72.73481 23.00089, 72.73478 23.00093, 72.73478 23.00093, 72.73473 23.00106, 72.73474 23.00119, 72.7347 23.00214, 72.73453 23.00305, 72.73444 23.00355, 72.73441 23.00387, 72.73457 23.00506, 72.73427 23.00509, 72.73427 23.00509, 72.73288 23.00522, 72.73288 23.00522, 72.73151 23.00537, 72.73115 23.00545, 72.73092 23.00552, 72.73066 23.00564, 72.73027 23.00586, 72.72989 23.00612, 72.7297 23.00628, 72.72837 23.00799, 72.72715 23.00944, 72.72693 23.00967, 72.7267 23.00983, 72.72633 23.01002, 72.7258 23.0102, 72.72578 23.0102, 72.72225 23.01088, 72.72222 23.01089, 72.72152 23.011, 72.72143 23.011, 72.72121 23.01092, 72.72104 23.01077, 72.72064 23.01097, 72.72064 23.01097, 72.71858 23.012, 72.71858 23.012, 72.71849 23.01205, 72.71839 23.01204, 72.71834 23.01205, 72.71801 23.01216, 72.71614 23.01306, 72.71454 23.01384, 72.71431 23.01396, 72.71431 23.01396, 72.71282 23.01471, 72.71162 23.01529, 72.71146 23.01536, 72.71146 23.01536, 72.71043 23.01584, 72.70957 23.01627, 72.70807 23.01703, 72.70748 23.01736, 72.70687 23.01769, 72.70645 23.01795, 72.70629 23.01811, 72.70522 23.01869, 72.70233 23.0202, 72.70178 23.0205, 72.70169 23.0205, 72.7014 23.02062, 72.7014 23.02062, 72.70169 23.0205, 72.70178 23.0205, 72.69869 23.02207, 72.69869 23.02207, 72.69801 23.02241, 72.69737 23.02273, 72.69647 23.0232, 72.69539 23.02374, 72.69495 23.02395, 72.69495 23.02395, 72.69551 23.02367, 72.69628 23.02329, 72.69634 23.02348, 72.69555 23.02388, 72.69377 23.02477, 72.69287 23.02522, 72.6926 23.0253, 72.69256 23.02567, 72.69239 23.02563, 72.69239 23.02563, 72.69203 23.02556, 72.69192 23.02551, 72.69158 23.02541, 72.69083 23.02551, 72.68943 23.02565, 72.68913 23.02568, 72.68913 23.02568, 72.68687 23.02594, 72.68687 23.02594, 72.68564 23.02607, 72.68502 23.02612, 72.68502 23.02612, 72.6826 23.02633, 72.68264 23.02633, 72.68264 23.02627, 72.68261 23.02628, 72.68207 23.02633, 72.6812 23.02639, 72.68105 23.02639, 72.68106 23.02648, 72.6808 23.02646, 72.67993 23.0264, 72.6797 23.02634, 72.67973 23.02626, 72.67976 23.02634, 72.67923 23.02623, 72.67894 23.02616, 72.67854 23.02603, 72.67722 23.02558, 72.67714 23.02556, 72.6773 23.02555, 72.67727 23.02562, 72.67723 23.02561, 72.67628 23.02535, 72.67485 23.02503, 72.67387 23.02489, 72.67346 23.02485, 72.6727 23.02483, 72.67238 23.02484, 72.67238 23.02478, 72.67236 23.02484, 72.66984 23.02479, 72.66984 23.02479, 72.66866 23.02475, 72.66807 23.02476, 72.66766 23.02471, 72.66767 23.0247, 72.66666 23.02458, 72.66501 23.02435, 72.66374 23.02417, 72.66358 23.02414, 72.66358 23.02415, 72.66243 23.02396, 72.66179 23.02389, 72.66009 23.02367, 72.65921 23.02353, 72.65912 23.02352, 72.65912 23.02352, 72.65713 23.0232, 72.65531 23.02296, 72.65521 23.02295, 72.65522 23.02293, 72.65301 23.02261, 72.65301 23.02261, 72.65186 23.02245, 72.65023 23.0222, 72.64901 23.02201, 72.64901 23.02201, 72.64882 23.02198, 72.64838 23.02193, 72.64808 23.02193, 72.64792 23.02184, 72.64777 23.02181, 72.64703 23.02172, 72.64598 23.02157, 72.64592 23.02156, 72.64592 23.02156, 72.6416 23.02094, 72.6416 23.02094, 72.64125 23.02093, 72.63934 23.02062, 72.63876 23.02056, 72.63847 23.02052, 72.63836 23.0205, 72.63836 23.0205, 72.63723 23.02035, 72.63592 23.02014, 72.63503 23.02, 72.63418 23.02, 72.63318 23.02002, 72.63318 23.02002, 72.63276 23.02002, 72.63275 23.02, 72.63271 23.01995, 72.63265 23.01993, 72.63259 23.01993, 72.63253 23.01996, 72.6325 23.02, 72.63226 23.02002, 72.63118 23.02003, 72.62938 23.02007, 72.62938 23.02007, 72.6288 23.02008, 72.62843 23.02011, 72.62797 23.02016, 72.62742 23.02025, 72.62704 23.02034, 72.62643 23.02053, 72.62628 23.02058, 72.62628 23.02058, 72.62435 23.02112, 72.62378 23.02132, 72.62246 23.02172, 72.62083 23.02214, 72.62052 23.02218, 72.62019 23.02218, 72.61987 23.02217, 72.61986 23.0221, 72.61986 23.0221, 72.61985 23.02192, 72.61987 23.02174, 72.61994 23.0212, 72.62018 23.02004, 72.62018 23.02004, 72.62006 23.01933, 72.62003 23.01904, 72.62 23.01876, 72.62001 23.01844, 72.62008 23.01782, 72.62008 23.01761, 72.62005 23.01746, 72.62007 23.01746, 72.61994 23.0169, 72.61984 23.01657, 72.61972 23.01618, 72.61958 23.01563, 72.61955 23.0155, 72.61939 23.01512, 72.61932 23.01492, 72.61901 23.01425, 72.6185 23.01314, 72.6185 23.01314, 72.61827 23.0126, 72.6181 23.01226, 72.61804 23.01218, 72.6179 23.01192, 72.61771 23.01154, 72.61757 23.01133, 72.61741 23.01114, 72.61718 23.01095, 72.61699 23.0108, 72.61692 23.01076, 72.61692 23.01076, 72.61671 23.01065, 72.61663 23.01057, 72.61657 23.01045, 72.61623 23.00944, 72.61623 23.00944, 72.61602 23.00904, 72.61588 23.00884, 72.61527 23.00828, 72.6148 23.00793, 72.61457 23.00774, 72.61457 23.00774, 72.61439 23.00756, 72.61416 23.00723, 72.61374 23.00657, 72.61351 23.0062, 72.61337 23.00613, 72.61324 23.00608, 72.61312 23.00606, 72.61301 23.00605, 72.61293 23.00607, 72.61272 23.00614, 72.61271 23.00611, 72.61158 23.00646, 72.6105 23.00676, 72.61016 23.00686, 72.61016 23.00686, 72.6095 23.00705, 72.60934 23.00712, 72.60816 23.00745, 72.60534 23.00823, 72.60521 23.00826, 72.60519 23.00829, 72.60511 23.00841, 72.6045 23.00919, 72.604332 23.009345, 72.604339 23.009341, 72.60411 23.00947, 72.60156 23.01049, 72.60145 23.01052, 72.60145 23.01056, 72.60094 23.01061, 72.60093 23.0106, 72.60092 23.01059, 72.60088 23.01058, 72.60081 23.0106, 72.60079 23.01067, 72.6008 23.01069, 72.6008 23.01078, 72.60073 23.01159, 72.60073 23.01159, 72.60068 23.01231, 72.60066 23.01232, 72.60064 23.01234, 72.60062 23.0124, 72.60065 23.01246, 72.60068 23.01248, 72.60066 23.01298, 72.60064 23.01383, 72.60062 23.01396, 72.60035 23.01499, 72.60033 23.01508, 72.60033 23.01508, 72.60022 23.01563, 72.60014 23.0159, 72.60008 23.0161, 72.5999 23.01637, 72.59977 23.01651, 72.59963 23.0166, 72.59951 23.01666, 72.59931 23.01674, 72.5991 23.01687, 72.59899 23.01703, 72.5989 23.01742, 72.5988 23.01768, 72.59868 23.01786, 72.59854 23.01803, 72.5982 23.01837, 72.59816 23.01841, 72.59826 23.01848, 72.59852 23.01869, 72.59881 23.01901, 72.59906 23.01931, 72.59912 23.01941, 72.59913 23.01942, 72.59913 23.01942, 72.59923 23.01963, 72.59929 23.01993, 72.59929 23.02022, 72.59884 23.02221)"
  },
  {
    "stopName": "Ramanand Kot",
    "stopCode": 1333,
    "stationCode": 2460,
    "stopType": "MUNICIPAL_BUS",
    "shortStopName": null,
    "Position": {
      "stopLongitude": "72.604334",
      "stopLatitude": "23.009322"
    },
    "RouteCodes": null,
    "Sequence": 48,
    "routeFlow": null
  },
  {
    "stopName": "Zoo Kankariya",
    "stopCode": 1334,
    "stationCode": 2351,
    "stopType": "MUNICIPAL_BUS",
    "shortStopName": null,
    "Position": {
      "stopLongitude": "72.601436",
      "stopLatitude": "23.010493"
    },
    "RouteCodes": null,
    "Sequence": 49,
    "routeFlow": null
  },
  {
    "stopName": "School",
    "stopCode": 1462,
    "stationCode": 2667,
    "stopType": "MUNICIPAL_BUS",
    "shortStopName": null,
    "Position": {
      "stopLongitude": "72.689131",
      "stopLatitude": "23.025701"
    },
    "RouteCodes": null,
    "Sequence": 19,
    "routeFlow": null
  },
  {
    "stopName": "Kathwada Patiya",
    "stopCode": 1463,
    "stationCode": 1870,
    "stopType": "MUNICIPAL_BUS",
    "shortStopName": null,
    "Position": {
      "stopLongitude": "72.686871",
      "stopLatitude": "23.025916"
    },
    "RouteCodes": null,
    "Sequence": 20,
    "routeFlow": null
  },
  {
    "stopName": "Dwarikanath Hindi Higher Secondary School",
    "stopCode": 1464,
    "stationCode": 1480,
    "stopType": "MUNICIPAL_BUS",
    "shortStopName": null,
    "Position": {
      "stopLongitude": "72.68502",
      "stopLatitude": "23.02612"
    },
    "RouteCodes": null,
    "Sequence": 21,
    "routeFlow": null
  },
  {
    "stopName": "Bhagwatinagar",
    "stopCode": 1465,
    "stationCode": 5017,
    "stopType": "MUNICIPAL_BUS",
    "shortStopName": null,
    "Position": {
      "stopLongitude": "72.682601",
      "stopLatitude": "23.026335"
    },
    "RouteCodes": null,
    "Sequence": 22,
    "routeFlow": null
  },
  {
    "stopName": "Nityanand Ashram",
    "stopCode": 1466,
    "stationCode": 2246,
    "stopType": "MUNICIPAL_BUS",
    "shortStopName": null,
    "Position": {
      "stopLongitude": "72.679758",
      "stopLatitude": "23.026328"
    },
    "RouteCodes": null,
    "Sequence": 23,
    "routeFlow": null
  },
  {
    "stopName": "Gujarat Vepari Mahamandal",
    "stopCode": 1467,
    "stationCode": 1626,
    "stopType": "MUNICIPAL_BUS",
    "shortStopName": null,
    "Position": {
      "stopLongitude": "72.677141",
      "stopLatitude": "23.025573"
    },
    "RouteCodes": null,
    "Sequence": 24,
    "routeFlow": null
  },
  {
    "stopName": "Odhav Terminus",
    "stopCode": 1469,
    "stationCode": 2264,
    "stopType": "MUNICIPAL_BUS",
    "shortStopName": null,
    "Position": {
      "stopLongitude": "72.667665",
      "stopLatitude": "23.024705"
    },
    "RouteCodes": null,
    "Sequence": 27,
    "routeFlow": null
  },
  {
    "stopName": "Odhav Gam Approach",
    "stopCode": 1470,
    "stationCode": 2260,
    "stopType": "MUNICIPAL_BUS",
    "shortStopName": null,
    "Position": {
      "stopLongitude": "72.66358",
      "stopLatitude": "23.024146"
    },
    "RouteCodes": null,
    "Sequence": 28,
    "routeFlow": null
  },
  {
    "stopName": "Bhram Rushi Kheteshwar Chowk",
    "stopCode": 1471,
    "stationCode": 1382,
    "stopType": "MUNICIPAL_BUS",
    "shortStopName": null,
    "Position": {
      "stopLongitude": "72.659125",
      "stopLatitude": "23.023515"
    },
    "RouteCodes": null,
    "Sequence": 29,
    "routeFlow": null
  },
  {
    "stopName": "Vallabh Nagar",
    "stopCode": 1472,
    "stationCode": 3003,
    "stopType": "MUNICIPAL_BUS",
    "shortStopName": null,
    "Position": {
      "stopLongitude": "72.655215",
      "stopLatitude": "23.022931"
    },
    "RouteCodes": null,
    "Sequence": 30,
    "routeFlow": null
  },
  {
    "stopName": "Bhikshuk Gruh",
    "stopCode": 1473,
    "stationCode": 1297,
    "stopType": "MUNICIPAL_BUS",
    "shortStopName": null,
    "Position": {
      "stopLongitude": "72.653008",
      "stopLatitude": "23.022628"
    },
    "RouteCodes": null,
    "Sequence": 31,
    "routeFlow": null
  },
  {
    "stopName": "Rabari Vasahat",
    "stopCode": 1474,
    "stationCode": 2413,
    "stopType": "MUNICIPAL_BUS",
    "shortStopName": null,
    "Position": {
      "stopLongitude": "72.64901",
      "stopLatitude": "23.022008"
    },
    "RouteCodes": null,
    "Sequence": 32,
    "routeFlow": null
  },
  {
    "stopName": "Quick Metal Industries",
    "stopCode": 1475,
    "stationCode": 2403,
    "stopType": "MUNICIPAL_BUS",
    "shortStopName": null,
    "Position": {
      "stopLongitude": "72.645923",
      "stopLatitude": "23.021568"
    },
    "RouteCodes": null,
    "Sequence": 33,
    "routeFlow": null
  },
  {
    "stopName": "Grid Station (C.M.C.)",
    "stopCode": 1476,
    "stationCode": 1609,
    "stopType": "MUNICIPAL_BUS",
    "shortStopName": null,
    "Position": {
      "stopLongitude": "72.641601",
      "stopLatitude": "23.020933"
    },
    "RouteCodes": null,
    "Sequence": 34,
    "routeFlow": null
  },
  {
    "stopName": "Ajit Mills",
    "stopCode": 1478,
    "stationCode": 1084,
    "stopType": "MUNICIPAL_BUS",
    "shortStopName": null,
    "Position": {
      "stopLongitude": "72.633175",
      "stopLatitude": "23.019976"
    },
    "RouteCodes": null,
    "Sequence": 36,
    "routeFlow": null
  },
  {
    "stopName": "Soma Textile (National Mills)",
    "stopCode": 1479,
    "stationCode": 2822,
    "stopType": "MUNICIPAL_BUS",
    "shortStopName": null,
    "Position": {
      "stopLongitude": "72.629376",
      "stopLatitude": "23.020053"
    },
    "RouteCodes": null,
    "Sequence": 37,
    "routeFlow": null
  },
  {
    "stopName": "Anant Mills",
    "stopCode": 1480,
    "stationCode": 1132,
    "stopType": "MUNICIPAL_BUS",
    "shortStopName": null,
    "Position": {
      "stopLongitude": "72.626268",
      "stopLatitude": "23.020535"
    },
    "RouteCodes": null,
    "Sequence": 38,
    "routeFlow": null
  },
  {
    "stopName": "Sarangpur",
    "stopCode": 1489,
    "stationCode": 2593,
    "stopType": "MUNICIPAL_BUS",
    "shortStopName": null,
    "Position": {
      "stopLongitude": "72.598729",
      "stopLatitude": "23.022186"
    },
    "RouteCodes": null,
    "Sequence": 53,
    "routeFlow": null
  },
  {
    "stopName": "New Cloth Market",
    "stopCode": 1947,
    "stationCode": 2208,
    "stopType": "MUNICIPAL_BUS",
    "shortStopName": null,
    "Position": {
      "stopLongitude": "72.59909",
      "stopLatitude": "23.019433"
    },
    "RouteCodes": null,
    "Sequence": 52,
    "routeFlow": null
  },
  {
    "stopName": "Bhalakiya Mills",
    "stopCode": 2262,
    "stationCode": 1273,
    "stopType": "MUNICIPAL_BUS",
    "shortStopName": null,
    "Position": {
      "stopLongitude": "72.612706",
      "stopLatitude": "23.006095"
    },
    "RouteCodes": null,
    "Sequence": 46,
    "routeFlow": null
  },
  {
    "stopName": "Apparel Park (Ambika Mills)",
    "stopCode": 2263,
    "stationCode": 1151,
    "stopType": "MUNICIPAL_BUS",
    "shortStopName": null,
    "Position": {
      "stopLongitude": "72.610156",
      "stopLatitude": "23.006833"
    },
    "RouteCodes": null,
    "Sequence": 47,
    "routeFlow": null
  },
  {
    "stopName": "S.P.Ring Road (Odhav)",
    "stopCode": 2568,
    "stationCode": 5065,
    "stopType": "MUNICIPAL_BUS",
    "shortStopName": null,
    "Position": {
      "stopLongitude": "72.672365",
      "stopLatitude": "23.024815"
    },
    "RouteCodes": null,
    "Sequence": 25,
    "routeFlow": null
  },
  {
    "stopName": "Sonini Chali",
    "stopCode": 3376,
    "stationCode": 2833,
    "stopType": "MUNICIPAL_BUS",
    "shortStopName": null,
    "Position": {
      "stopLongitude": "72.638358",
      "stopLatitude": "23.020518"
    },
    "RouteCodes": null,
    "Sequence": 35,
    "routeFlow": null
  },
  {
    "stopName": "Swaminarayan Gurukul",
    "stopCode": 4094,
    "stationCode": 2843,
    "stopType": "MUNICIPAL_BUS",
    "shortStopName": null,
    "Position": {
      "stopLongitude": "72.722218",
      "stopLatitude": "23.01085"
    },
    "RouteCodes": null,
    "Sequence": 10,
    "routeFlow": null
  },
  {
    "stopName": "Kanbha Gam",
    "stopCode": 4096,
    "stationCode": 2844,
    "stopType": "MUNICIPAL_BUS",
    "shortStopName": null,
    "Position": {
      "stopLongitude": "72.725758",
      "stopLatitude": "23.010119"
    },
    "RouteCodes": null,
    "Sequence": 9,
    "routeFlow": null
  },
  {
    "stopName": "Kujad Gam",
    "stopCode": 4098,
    "stationCode": 3111,
    "stopType": "MUNICIPAL_BUS",
    "shortStopName": null,
    "Position": {
      "stopLongitude": "72.732882",
      "stopLatitude": "23.005211"
    },
    "RouteCodes": null,
    "Sequence": 8,
    "routeFlow": null
  },
  {
    "stopName": "Bakrol-Bujrang Gam",
    "stopCode": 4100,
    "stationCode": 3110,
    "stopType": "MUNICIPAL_BUS",
    "shortStopName": null,
    "Position": {
      "stopLongitude": "72.739644",
      "stopLatitude": "22.982672"
    },
    "RouteCodes": null,
    "Sequence": 1,
    "routeFlow": null
  },
  {
    "stopName": "Vanijya Bhavan",
    "stopCode": 8339,
    "stationCode": 7275,
    "stopType": "MUNICIPAL_BUS",
    "shortStopName": null,
    "Position": {
      "stopLongitude": "72.600683",
      "stopLatitude": "23.01159"
    },
    "RouteCodes": null,
    "Sequence": 50,
    "routeFlow": null
  },
  {
    "stopName": "Hirabhai Market",
    "stopCode": 8341,
    "stationCode": 7276,
    "stopType": "MUNICIPAL_BUS",
    "shortStopName": null,
    "Position": {
      "stopLongitude": "72.60028",
      "stopLatitude": "23.015069"
    },
    "RouteCodes": null,
    "Sequence": 51,
    "routeFlow": null
  },
  {
    "stopName": "Saujanya Apartment",
    "stopCode": 8344,
    "stationCode": 7277,
    "stopType": "MUNICIPAL_BUS",
    "shortStopName": null,
    "Position": {
      "stopLongitude": "72.616276",
      "stopLatitude": "23.009429"
    },
    "RouteCodes": null,
    "Sequence": 44,
    "routeFlow": null
  },
  {
    "stopName": "Vadwali Chali",
    "stopCode": 8436,
    "stationCode": 6002,
    "stopType": "MUNICIPAL_BUS",
    "shortStopName": null,
    "Position": {
      "stopLongitude": "72.69868",
      "stopLatitude": "23.022059"
    },
    "RouteCodes": null,
    "Sequence": 16,
    "routeFlow": null
  },
  {
    "stopName": "V.K. No Bhaththo",
    "stopCode": 8438,
    "stationCode": 6003,
    "stopType": "MUNICIPAL_BUS",
    "shortStopName": null,
    "Position": {
      "stopLongitude": "72.701402",
      "stopLatitude": "23.020627"
    },
    "RouteCodes": null,
    "Sequence": 15,
    "routeFlow": null
  },
  {
    "stopName": "Gangeshwar Vidyalay",
    "stopCode": 8440,
    "stationCode": 6004,
    "stopType": "MUNICIPAL_BUS",
    "shortStopName": null,
    "Position": {
      "stopLongitude": "72.711483",
      "stopLatitude": "23.015396"
    },
    "RouteCodes": null,
    "Sequence": 14,
    "routeFlow": null
  },
  {
    "stopName": "Gokul Moters (Kanbha Police Station)",
    "stopCode": 8442,
    "stationCode": 6005,
    "stopType": "MUNICIPAL_BUS",
    "shortStopName": null,
    "Position": {
      "stopLongitude": "72.714323",
      "stopLatitude": "23.013975"
    },
    "RouteCodes": null,
    "Sequence": 13,
    "routeFlow": null
  },
  {
    "stopName": "Kanbha-Kunjad G.E.Board Office",
    "stopCode": 8444,
    "stationCode": 6006,
    "stopType": "MUNICIPAL_BUS",
    "shortStopName": null,
    "Position": {
      "stopLongitude": "72.718554",
      "stopLatitude": "23.011956"
    },
    "RouteCodes": null,
    "Sequence": 12,
    "routeFlow": null
  },
  {
    "stopName": "Kanbha Cross Road",
    "stopCode": 8446,
    "stationCode": 6007,
    "stopType": "MUNICIPAL_BUS",
    "shortStopName": null,
    "Position": {
      "stopLongitude": "72.720634",
      "stopLatitude": "23.010965"
    },
    "RouteCodes": null,
    "Sequence": 11,
    "routeFlow": null
  },
  {
    "stopName": "Kunjad-Bakrol Bypass",
    "stopCode": 8448,
    "stationCode": 6008,
    "stopType": "MUNICIPAL_BUS",
    "shortStopName": null,
    "Position": {
      "stopLongitude": "72.734264",
      "stopLatitude": "23.005032"
    },
    "RouteCodes": null,
    "Sequence": 7,
    "routeFlow": null
  },
  {
    "stopName": "Bakrol Highway Cross Road",
    "stopCode": 8450,
    "stationCode": 6009,
    "stopType": "MUNICIPAL_BUS",
    "shortStopName": null,
    "Position": {
      "stopLongitude": "72.734803",
      "stopLatitude": "23.000944"
    },
    "RouteCodes": null,
    "Sequence": 6,
    "routeFlow": null
  },
  {
    "stopName": "K.P. Weigh Bridge",
    "stopCode": 8452,
    "stationCode": 6010,
    "stopType": "MUNICIPAL_BUS",
    "shortStopName": null,
    "Position": {
      "stopLongitude": "72.736844",
      "stopLatitude": "22.995395"
    },
    "RouteCodes": null,
    "Sequence": 5,
    "routeFlow": null
  },
  {
    "stopName": "Gopal Charan Industrial Estate",
    "stopCode": 8454,
    "stationCode": 6011,
    "stopType": "MUNICIPAL_BUS",
    "shortStopName": null,
    "Position": {
      "stopLongitude": "72.73624",
      "stopLatitude": "22.992193"
    },
    "RouteCodes": null,
    "Sequence": 4,
    "routeFlow": null
  },
  {
    "stopName": "Swagat Industrial Park",
    "stopCode": 8456,
    "stationCode": 6012,
    "stopType": "MUNICIPAL_BUS",
    "shortStopName": null,
    "Position": {
      "stopLongitude": "72.735808",
      "stopLatitude": "22.987963"
    },
    "RouteCodes": null,
    "Sequence": 3,
    "routeFlow": null
  },
  {
    "stopName": "Bakrol-Bujrang Patiya",
    "stopCode": 8458,
    "stationCode": 6013,
    "stopType": "MUNICIPAL_BUS",
    "shortStopName": null,
    "Position": {
      "stopLongitude": "72.735026",
      "stopLatitude": "22.981915"
    },
    "RouteCodes": null,
    "Sequence": 2,
    "routeFlow": null
  },
  {
    "stopName": "Sukhramnagar Pani ni Tanki",
    "stopCode": 8465,
    "stationCode": 6017,
    "stopType": "MUNICIPAL_BUS",
    "shortStopName": null,
    "Position": {
      "stopLongitude": "72.618507",
      "stopLatitude": "23.013133"
    },
    "RouteCodes": null,
    "Sequence": 42,
    "routeFlow": null
  },
  {
    "stopName": "Ramji Mandir",
    "stopCode": 8489,
    "stationCode": 5099,
    "stopType": "MUNICIPAL_BUS",
    "shortStopName": null,
    "Position": {
      "stopLongitude": "72.694942",
      "stopLatitude": "23.023937"
    },
    "RouteCodes": null,
    "Sequence": 17,
    "routeFlow": null
  },
  {
    "stopName": "Ashima Group",
    "stopCode": 8496,
    "stationCode": 6028,
    "stopType": "MUNICIPAL_BUS",
    "shortStopName": null,
    "Position": {
      "stopLongitude": "72.614577",
      "stopLatitude": "23.007734"
    },
    "RouteCodes": null,
    "Sequence": 45,
    "routeFlow": null
  },
  {
    "stopName": "New Cotton Mill",
    "stopCode": 8498,
    "stationCode": 6029,
    "stopType": "MUNICIPAL_BUS",
    "shortStopName": null,
    "Position": {
      "stopLongitude": "72.616946",
      "stopLatitude": "23.010728"
    },
    "RouteCodes": null,
    "Sequence": 43,
    "routeFlow": null
  },
  {
    "stopName": "Girnar Scooter ",
    "stopCode": 8913,
    "stationCode": 6203,
    "stopType": "MUNICIPAL_BUS",
    "shortStopName": null,
    "Position": {
      "stopLongitude": "72.669837",
      "stopLatitude": "23.024761"
    },
    "RouteCodes": null,
    "Sequence": 26,
    "routeFlow": null
  },
  {
    "stopName": "Rakhiyal",
    "stopCode": 8958,
    "stationCode": 6223,
    "stopType": "MUNICIPAL_BUS",
    "shortStopName": null,
    "Position": {
      "stopLongitude": "72.619907",
      "stopLatitude": "23.022096"
    },
    "RouteCodes": null,
    "Sequence": 39,
    "routeFlow": null
  },
  {
    "stopName": "Government Quarters (Gomtipur)",
    "stopCode": 9195,
    "stationCode": 1596,
    "stopType": "MUNICIPAL_BUS",
    "shortStopName": null,
    "Position": {
      "stopLongitude": "72.620077",
      "stopLatitude": "23.017456"
    },
    "RouteCodes": null,
    "Sequence": 41,
    "routeFlow": null
  },
  {
    "stopName": "Arbuda Mills",
    "stopCode": 9197,
    "stationCode": 6333,
    "stopType": "MUNICIPAL_BUS",
    "shortStopName": null,
    "Position": {
      "stopLongitude": "72.620211",
      "stopLatitude": "23.020014"
    },
    "RouteCodes": null,
    "Sequence": 40,
    "routeFlow": null
  }
]