[
  {
    "stopName": "Sarkhej Gam",
    "stopCode": 1149,
    "stationCode": 2626,
    "stopType": "MUNICIPAL_BUS",
    "shortStopName": null,
    "Position": {
      "stopLongitude": "72.501263",
      "stopLatitude": "22.980868"
    },
    "RouteCodes": null,
    "Sequence": 1,
    "routeFlow": "LINESTRING (72.501261 22.980888, 72.501118 22.980925, 72.500951 22.980948, 72.50063 22.98099, 72.50011 22.981, 72.49969 22.9811, 72.49942 22.98119, 72.49934 22.98126, 72.4992 22.98144, 72.4992 22.98144, 72.49877 22.98203, 72.49818 22.98272, 72.4982 22.98308, 72.4982 22.98308, 72.49822 22.98382, 72.49821 22.98418, 72.49821 22.98429, 72.49821 22.9844, 72.49824 22.98447, 72.49831 22.98454, 72.49876 22.98489, 72.50028 22.98608, 72.5011 22.98666, 72.5011 22.98666, 72.50147 22.98692, 72.50154 22.98695, 72.50179 22.98715, 72.50187 22.98717, 72.5019 22.98717, 72.50287 22.98755, 72.50298 22.98758, 72.50298 22.98758, 72.50338 22.98764, 72.50435 22.98773, 72.50721 22.98806, 72.50799 22.98817, 72.50799 22.98817, 72.5087 22.98828, 72.50932 22.98839, 72.5103 22.98862, 72.51114 22.98881, 72.51244 22.98909, 72.51244 22.98909, 72.51372 22.98939, 72.51421 22.98954, 72.5152 22.98992, 72.51598 22.99023, 72.51598 22.99023, 72.51826 22.99117, 72.51826 22.99117, 72.5204 22.992, 72.52087 22.99219, 72.52087 22.99219, 72.52182 22.99254, 72.52485 22.99336, 72.52578 22.99362, 72.52578 22.99362, 72.52802 22.99422, 72.52802 22.99422, 72.52958 22.994689, 72.529596 22.99469, 72.53115 22.9951, 72.53197 22.99528, 72.53197 22.99528, 72.533 22.99551, 72.5351 22.99587, 72.5351 22.99587, 72.53676 22.99625, 72.53761 22.99641, 72.53786 22.99649, 72.53872 22.99671, 72.53946 22.99694, 72.53946 22.99694, 72.54049 22.99732, 72.54129 22.99765, 72.54197 22.99796, 72.542 22.99797, 72.542 22.99797, 72.54376 22.99873, 72.54434 22.99899, 72.54502 22.99935, 72.54502 22.99935, 72.54581 22.99988, 72.54609 23.00006, 72.54632 23.00024, 72.54666 23.00053, 72.54678 23.0007, 72.54689 23.00088, 72.54705 23.00122, 72.54713 23.00132, 72.547497 23.001747, 72.547517 23.001874, 72.547481 23.00202, 72.547493 23.002143, 72.547512 23.002211, 72.547563 23.002249, 72.547759 23.002266, 72.54792 23.001975, 72.547977 23.001905, 72.548118 23.001923, 72.548479 23.001962, 72.54916 23.00208, 72.54998 23.00225, 72.55046 23.00236, 72.55083 23.00251, 72.55109 23.00266, 72.55145 23.00299, 72.55182 23.0034, 72.55182 23.0034, 72.55236 23.00394, 72.5527 23.00423, 72.55286 23.00439, 72.55286 23.00443, 72.55287 23.00447, 72.55288 23.0045, 72.55293 23.00457, 72.55303 23.00462, 72.5531 23.00463, 72.55315 23.00462, 72.55329 23.00464, 72.55342 23.00468, 72.55361 23.0048, 72.55418 23.00506, 72.55439 23.00516, 72.55496 23.00552, 72.55496 23.00552, 72.55575 23.00581, 72.55637 23.00615, 72.55659 23.00629, 72.55675 23.00641, 72.55675 23.00641, 72.55719 23.00683, 72.55734 23.00697, 72.55766 23.00721, 72.55815 23.0075, 72.55853 23.00765, 72.55886 23.00775, 72.559 23.00779, 72.559 23.00779, 72.55964 23.00799, 72.55995 23.0081, 72.56053 23.00838, 72.56132 23.00882, 72.56132 23.00882, 72.56187 23.00915, 72.56204 23.00927, 72.56214 23.00942, 72.56222 23.00958, 72.56235 23.00986, 72.56301 23.01123, 72.56318 23.01156, 72.56318 23.01156, 72.56353 23.01218, 72.56387 23.01269, 72.56467 23.01383, 72.56467 23.01383, 72.565 23.01427, 72.56598 23.0137, 72.56655 23.01343, 72.56808 23.0128, 72.56867 23.01265, 72.56885 23.01258, 72.5692 23.01248, 72.56921 23.01243, 72.56926 23.01243, 72.56926 23.01243, 72.56959 23.01237, 72.57118 23.0119, 72.57141 23.01184, 72.57215 23.01172, 72.57337 23.01152, 72.57485 23.01128, 72.5766 23.01098, 72.57782 23.01076, 72.57781 23.01071, 72.57842 23.01058, 72.57959 23.01031, 72.58041 23.01015, 72.58065 23.01013, 72.58111 23.01013, 72.58123 23.01016, 72.58368 23.01095, 72.58413 23.0111, 72.58468 23.01128, 72.58468 23.01128, 72.58732 23.01218, 72.58836 23.01251, 72.58836 23.01251, 72.58928 23.01282, 72.58985 23.01307, 72.59039 23.01334, 72.59117 23.01392, 72.59144 23.01405, 72.59168 23.01422, 72.59168 23.01422, 72.59151 23.0141, 72.59144 23.01405, 72.59129 23.01403, 72.59111 23.01393, 72.59109 23.01396, 72.59111 23.01393, 72.59129 23.01403, 72.59144 23.01405, 72.59151 23.0141, 72.59175 23.01426, 72.59212 23.01456, 72.59228 23.01474, 72.59233 23.01479, 72.59264 23.01522, 72.59273 23.01546, 72.59276 23.01573, 72.59278 23.01655, 72.59272 23.0168, 72.59221 23.01678, 72.59107 23.01672, 72.59105 23.01669, 72.59102 23.01668, 72.59092 23.01668, 72.59084 23.01672, 72.5908 23.01678, 72.5908 23.01686, 72.59085 23.01693, 72.59093 23.01697, 72.59101 23.01696, 72.59108 23.01692, 72.5911 23.0169, 72.59139 23.01685, 72.59221 23.01692, 72.59221 23.01685, 72.592171 23.01693, 72.592412 23.016878, 72.592685 23.016876, 72.593295 23.016953, 72.594054 23.017078, 72.594832 23.017231, 72.59549 23.0174, 72.59547 23.01746, 72.59548 23.01742, 72.59564 23.01745, 72.59617 23.01755, 72.59656 23.01765, 72.59731 23.01791, 72.59803 23.01833, 72.59826 23.01848, 72.59852 23.01869, 72.59881 23.01901, 72.59893 23.01915, 72.59885 23.0192, 72.59885 23.0192, 72.59893 23.01915, 72.59897 23.0192, 72.59911 23.01938, 72.59918 23.01952, 72.59926 23.01978, 72.59929 23.01993, 72.59928 23.02022, 72.59902 23.02128, 72.59894 23.02168, 72.59888 23.02167, 72.59894 23.02168, 72.59881 23.02226, 72.59868 23.02235, 72.59862 23.0224, 72.59851 23.02253)"
  },
  {
    "stopName": "Sarangpur",
    "stopCode": 1204,
    "stationCode": 2593,
    "stopType": "MUNICIPAL_BUS",
    "shortStopName": null,
    "Position": {
      "stopLongitude": "72.598497",
      "stopLatitude": "23.022515"
    },
    "RouteCodes": null,
    "Sequence": 36,
    "routeFlow": null
  },
  {
    "stopName": "Primary Health Centre",
    "stopCode": 1223,
    "stationCode": 2386,
    "stopType": "MUNICIPAL_BUS",
    "shortStopName": null,
    "Position": {
      "stopLongitude": "72.499213",
      "stopLatitude": "22.981446"
    },
    "RouteCodes": null,
    "Sequence": 2,
    "routeFlow": null
  },
  {
    "stopName": "Sarkhej Railway Station (St 31 36 150)",
    "stopCode": 1224,
    "stationCode": 2629,
    "stopType": "MUNICIPAL_BUS",
    "shortStopName": null,
    "Position": {
      "stopLongitude": "72.498211",
      "stopLatitude": "22.983081"
    },
    "RouteCodes": null,
    "Sequence": 3,
    "routeFlow": null
  },
  {
    "stopName": "Bhavani Tractors",
    "stopCode": 1225,
    "stationCode": 1292,
    "stopType": "MUNICIPAL_BUS",
    "shortStopName": null,
    "Position": {
      "stopLongitude": "72.50111",
      "stopLatitude": "22.986655"
    },
    "RouteCodes": null,
    "Sequence": 4,
    "routeFlow": null
  },
  {
    "stopName": "Sarkhej Bus Stand",
    "stopCode": 1226,
    "stationCode": 2625,
    "stopType": "MUNICIPAL_BUS",
    "shortStopName": null,
    "Position": {
      "stopLongitude": "72.502978",
      "stopLatitude": "22.987578"
    },
    "RouteCodes": null,
    "Sequence": 5,
    "routeFlow": null
  },
  {
    "stopName": "Factory",
    "stopCode": 1227,
    "stationCode": 1495,
    "stopType": "MUNICIPAL_BUS",
    "shortStopName": null,
    "Position": {
      "stopLongitude": "72.507983",
      "stopLatitude": "22.988186"
    },
    "RouteCodes": null,
    "Sequence": 6,
    "routeFlow": null
  },
  {
    "stopName": "Ambar Tower",
    "stopCode": 1228,
    "stationCode": 1106,
    "stopType": "MUNICIPAL_BUS",
    "shortStopName": null,
    "Position": {
      "stopLongitude": "72.512436",
      "stopLatitude": "22.98911"
    },
    "RouteCodes": null,
    "Sequence": 7,
    "routeFlow": null
  },
  {
    "stopName": "Fatehwadi",
    "stopCode": 1229,
    "stationCode": 1497,
    "stopType": "MUNICIPAL_BUS",
    "shortStopName": null,
    "Position": {
      "stopLongitude": "72.516001",
      "stopLatitude": "22.990256"
    },
    "RouteCodes": null,
    "Sequence": 8,
    "routeFlow": null
  },
  {
    "stopName": "Khurshid Park",
    "stopCode": 1230,
    "stationCode": 1895,
    "stopType": "MUNICIPAL_BUS",
    "shortStopName": null,
    "Position": {
      "stopLongitude": "72.518261",
      "stopLatitude": "22.991173"
    },
    "RouteCodes": null,
    "Sequence": 9,
    "routeFlow": null
  },
  {
    "stopName": "Gandhi Smruti",
    "stopCode": 1231,
    "stationCode": 1520,
    "stopType": "MUNICIPAL_BUS",
    "shortStopName": null,
    "Position": {
      "stopLongitude": "72.525775",
      "stopLatitude": "22.993648"
    },
    "RouteCodes": null,
    "Sequence": 11,
    "routeFlow": null
  },
  {
    "stopName": "Juhapura Road",
    "stopCode": 1232,
    "stationCode": 1801,
    "stopType": "MUNICIPAL_BUS",
    "shortStopName": null,
    "Position": {
      "stopLongitude": "72.529593",
      "stopLatitude": "22.99467"
    },
    "RouteCodes": null,
    "Sequence": 13,
    "routeFlow": null
  },
  {
    "stopName": "Prakash College",
    "stopCode": 1233,
    "stationCode": 2365,
    "stopType": "MUNICIPAL_BUS",
    "shortStopName": null,
    "Position": {
      "stopLongitude": "72.53198",
      "stopLatitude": "22.995243"
    },
    "RouteCodes": null,
    "Sequence": 14,
    "routeFlow": null
  },
  {
    "stopName": "Sarani Kamdar Society",
    "stopCode": 1234,
    "stationCode": 2595,
    "stopType": "MUNICIPAL_BUS",
    "shortStopName": null,
    "Position": {
      "stopLongitude": "72.535078",
      "stopLatitude": "22.995941"
    },
    "RouteCodes": null,
    "Sequence": 15,
    "routeFlow": null
  },
  {
    "stopName": "Guptanagar",
    "stopCode": 1235,
    "stationCode": 1633,
    "stopType": "MUNICIPAL_BUS",
    "shortStopName": null,
    "Position": {
      "stopLongitude": "72.539436",
      "stopLatitude": "22.996998"
    },
    "RouteCodes": null,
    "Sequence": 16,
    "routeFlow": null
  },
  {
    "stopName": "Pravinnagar",
    "stopCode": 1236,
    "stationCode": 2376,
    "stopType": "MUNICIPAL_BUS",
    "shortStopName": null,
    "Position": {
      "stopLongitude": "72.54197",
      "stopLatitude": "22.998026"
    },
    "RouteCodes": null,
    "Sequence": 17,
    "routeFlow": null
  },
  {
    "stopName": "Pratapkunj",
    "stopCode": 1237,
    "stationCode": 2373,
    "stopType": "MUNICIPAL_BUS",
    "shortStopName": null,
    "Position": {
      "stopLongitude": "72.544998",
      "stopLatitude": "22.999391"
    },
    "RouteCodes": null,
    "Sequence": 18,
    "routeFlow": null
  },
  {
    "stopName": "Vasna",
    "stopCode": 1286,
    "stationCode": 3019,
    "stopType": "MUNICIPAL_BUS",
    "shortStopName": null,
    "Position": {
      "stopLongitude": "72.547915",
      "stopLatitude": "23.002231"
    },
    "RouteCodes": null,
    "Sequence": 19,
    "routeFlow": null
  },
  {
    "stopName": "Jawaharnagar",
    "stopCode": 1287,
    "stationCode": 1771,
    "stopType": "MUNICIPAL_BUS",
    "shortStopName": null,
    "Position": {
      "stopLongitude": "72.551798",
      "stopLatitude": "23.003416"
    },
    "RouteCodes": null,
    "Sequence": 20,
    "routeFlow": null
  },
  {
    "stopName": "Bhaththa (Vasna)",
    "stopCode": 1288,
    "stationCode": 1288,
    "stopType": "MUNICIPAL_BUS",
    "shortStopName": null,
    "Position": {
      "stopLongitude": "72.55494",
      "stopLatitude": "23.005515"
    },
    "RouteCodes": null,
    "Sequence": 21,
    "routeFlow": null
  },
  {
    "stopName": "Anandnagar",
    "stopCode": 1289,
    "stationCode": 1129,
    "stopType": "MUNICIPAL_BUS",
    "shortStopName": null,
    "Position": {
      "stopLongitude": "72.556773",
      "stopLatitude": "23.006388"
    },
    "RouteCodes": null,
    "Sequence": 22,
    "routeFlow": null
  },
  {
    "stopName": "Fatehnagar",
    "stopCode": 1290,
    "stationCode": 1496,
    "stopType": "MUNICIPAL_BUS",
    "shortStopName": null,
    "Position": {
      "stopLongitude": "72.558968",
      "stopLatitude": "23.007895"
    },
    "RouteCodes": null,
    "Sequence": 23,
    "routeFlow": null
  },
  {
    "stopName": "Jain Merchant Society",
    "stopCode": 1291,
    "stationCode": 1743,
    "stopType": "MUNICIPAL_BUS",
    "shortStopName": null,
    "Position": {
      "stopLongitude": "72.56128",
      "stopLatitude": "23.008876"
    },
    "RouteCodes": null,
    "Sequence": 24,
    "routeFlow": null
  },
  {
    "stopName": "Mahalakshmi Society",
    "stopCode": 1292,
    "stationCode": 2000,
    "stopType": "MUNICIPAL_BUS",
    "shortStopName": null,
    "Position": {
      "stopLongitude": "72.563213",
      "stopLatitude": "23.011543"
    },
    "RouteCodes": null,
    "Sequence": 25,
    "routeFlow": null
  },
  {
    "stopName": "Paldi",
    "stopCode": 1293,
    "stationCode": 2284,
    "stopType": "MUNICIPAL_BUS",
    "shortStopName": null,
    "Position": {
      "stopLongitude": "72.564703",
      "stopLatitude": "23.013808"
    },
    "RouteCodes": null,
    "Sequence": 26,
    "routeFlow": null
  },
  {
    "stopName": "Museum (Sanskar Kendra)",
    "stopCode": 1294,
    "stationCode": 2132,
    "stopType": "MUNICIPAL_BUS",
    "shortStopName": null,
    "Position": {
      "stopLongitude": "72.569252",
      "stopLatitude": "23.012406"
    },
    "RouteCodes": null,
    "Sequence": 27,
    "routeFlow": null
  },
  {
    "stopName": "Calico Colony",
    "stopCode": 1295,
    "stationCode": 1331,
    "stopType": "MUNICIPAL_BUS",
    "shortStopName": null,
    "Position": {
      "stopLongitude": "72.577823",
      "stopLatitude": "23.010776"
    },
    "RouteCodes": null,
    "Sequence": 28,
    "routeFlow": null
  },
  {
    "stopName": "Municipal Chal (S.T.)",
    "stopCode": 1297,
    "stationCode": 2117,
    "stopType": "MUNICIPAL_BUS",
    "shortStopName": null,
    "Position": {
      "stopLongitude": "72.58834",
      "stopLatitude": "23.01257"
    },
    "RouteCodes": null,
    "Sequence": 30,
    "routeFlow": null
  },
  {
    "stopName": "S.T. Stand",
    "stopCode": 1298,
    "stationCode": 2526,
    "stopType": "MUNICIPAL_BUS",
    "shortStopName": null,
    "Position": {
      "stopLongitude": "72.591714",
      "stopLatitude": "23.014171"
    },
    "RouteCodes": null,
    "Sequence": 31,
    "routeFlow": null
  },
  {
    "stopName": "Astodiya Darwaja (BRT)",
    "stopCode": 1730,
    "stationCode": 99,
    "stopType": "MUNICIPAL_BUS",
    "shortStopName": null,
    "Position": {
      "stopLongitude": "72.592158",
      "stopLatitude": "23.016925"
    },
    "RouteCodes": null,
    "Sequence": 32,
    "routeFlow": null
  },
  {
    "stopName": "Raypur Darwaja (BRT)",
    "stopCode": 1731,
    "stationCode": 100,
    "stopType": "MUNICIPAL_BUS",
    "shortStopName": null,
    "Position": {
      "stopLongitude": "72.59549",
      "stopLatitude": "23.017416"
    },
    "RouteCodes": null,
    "Sequence": 33,
    "routeFlow": null
  },
  {
    "stopName": "Karnamukteshwar Mahadev (BRT)",
    "stopCode": 1732,
    "stationCode": 101,
    "stopType": "MUNICIPAL_BUS",
    "shortStopName": null,
    "Position": {
      "stopLongitude": "72.598901",
      "stopLatitude": "23.01917"
    },
    "RouteCodes": null,
    "Sequence": 34,
    "routeFlow": null
  },
  {
    "stopName": "Sarangpur Darwaja (BRT)",
    "stopCode": 1733,
    "stationCode": 102,
    "stopType": "MUNICIPAL_BUS",
    "shortStopName": null,
    "Position": {
      "stopLongitude": "72.598904",
      "stopLatitude": "23.021679"
    },
    "RouteCodes": null,
    "Sequence": 35,
    "routeFlow": null
  },
  {
    "stopName": "Zarf Dairy",
    "stopCode": 1803,
    "stationCode": 2328,
    "stopType": "MUNICIPAL_BUS",
    "shortStopName": null,
    "Position": {
      "stopLongitude": "72.520836",
      "stopLatitude": "22.992255"
    },
    "RouteCodes": null,
    "Sequence": 10,
    "routeFlow": null
  },
  {
    "stopName": "Sardar Smruti",
    "stopCode": 1804,
    "stationCode": 2610,
    "stopType": "MUNICIPAL_BUS",
    "shortStopName": null,
    "Position": {
      "stopLongitude": "72.528006",
      "stopLatitude": "22.994256"
    },
    "RouteCodes": null,
    "Sequence": 12,
    "routeFlow": null
  },
  {
    "stopName": "Municipal_bus Staff Quarters",
    "stopCode": 1941,
    "stationCode": 1121,
    "stopType": "MUNICIPAL_BUS",
    "shortStopName": null,
    "Position": {
      "stopLongitude": "72.584628",
      "stopLatitude": "23.011398"
    },
    "RouteCodes": null,
    "Sequence": 29,
    "routeFlow": null
  }
]