[
  {
    "stopName": "Apna Bazar",
    "stopCode": 1126,
    "stationCode": 1150,
    "stopType": "MUNICIPAL_BUS",
    "shortStopName": null,
    "Position": {
      "stopLongitude": "72.579073",
      "stopLatitude": "23.025068"
    },
    "RouteCodes": null,
    "Sequence": 51,
    "routeFlow": "LINESTRING (72.66157 22.92921, 72.66275 22.92959, 72.6635 22.92983, 72.66377 22.9299, 72.66377 22.9299, 72.66399 22.93002, 72.66406 22.93014, 72.66414 22.93037, 72.66418 22.93054, 72.6642 22.93071, 72.66421 22.93114, 72.6642 22.93146, 72.66417 22.9322, 72.66418 22.93247, 72.66416 22.93247, 72.66418 22.93329, 72.66427 22.93467, 72.66447 22.93561, 72.66457 22.93601, 72.66457 22.93649, 72.66458 22.93675, 72.66458 22.93675, 72.66469 22.9373, 72.66481 22.93772, 72.66504 22.9384, 72.66519 22.93895, 72.66523 22.93934, 72.66522 22.9395, 72.66525 22.93949, 72.66525 22.93949, 72.66522 22.9395, 72.66515 22.93968, 72.66505 22.93996, 72.66501 22.94016, 72.66502 22.94031, 72.66519 22.94091, 72.66528 22.94111, 72.66538 22.94124, 72.66535 22.94124, 72.66535 22.94124, 72.66538 22.94124, 72.66545 22.94132, 72.66572 22.9416, 72.666 22.94193, 72.66613 22.94212, 72.66626 22.94229, 72.66649 22.94249, 72.66681 22.94275, 72.66705 22.94298, 72.66725 22.94315, 72.66725 22.94315, 72.6677 22.94351, 72.66804 22.94373, 72.66809 22.94378, 72.66857 22.94436, 72.66896 22.94485, 72.66816 22.94565, 72.6681 22.94571, 72.66812 22.94573, 72.66641 22.94742, 72.66641 22.94742, 72.66552 22.94833, 72.66395 22.94994, 72.66396 22.94996, 72.66191 22.95207, 72.66191 22.95207, 72.65994 22.9541, 72.65989 22.95405, 72.65908 22.95491, 72.65809 22.95591, 72.65806 22.95594, 72.65806 22.95594, 72.65725 22.95676, 72.65699 22.95704, 72.65672 22.95727, 72.65663 22.95733, 72.65666 22.95735, 72.65672 22.95739, 72.6568 22.95751, 72.6568 22.9576, 72.65678 22.95766, 72.65668 22.95776, 72.65662 22.9578, 72.65653 22.95781, 72.65648 22.95781, 72.65635 22.95788, 72.65616 22.95799, 72.65603 22.95811, 72.65578 22.95836, 72.65576 22.95834, 72.6555 22.95858, 72.6548 22.9593, 72.65386 22.96018, 72.65365 22.96036, 72.65328 22.96079, 72.65306 22.96102, 72.65278 22.96129, 72.65278 22.96129, 72.65179 22.96227, 72.6518 22.96228, 72.64823 22.96585, 72.64819 22.96586, 72.64675 22.96726, 72.64675 22.96726, 72.64596 22.96804, 72.64543 22.96857, 72.64397 22.97003, 72.64276 22.97124, 72.64236 22.97165, 72.64238 22.97167, 72.63983 22.97424, 72.63983 22.97424, 72.63853 22.97551, 72.6373 22.97677, 72.63708 22.97698, 72.63708 22.97698, 72.63434 22.9797, 72.63315 22.98086, 72.63315 22.98086, 72.63276 22.98123, 72.63257 22.98138, 72.63237 22.98147, 72.63213 22.98152, 72.63149 22.98167, 72.63094 22.98175, 72.62969 22.98196, 72.62924 22.98203, 72.62914 22.98205, 72.62914 22.98205, 72.6274 22.98234, 72.62661 22.98245, 72.62657 22.98245, 72.62637 22.98246, 72.62611 22.98241, 72.62466 22.98253, 72.62359 22.98267, 72.62305 22.9829, 72.62286 22.983, 72.62278 22.98304, 72.62293 22.98312, 72.62298 22.98315, 72.62345 22.98353, 72.6237 22.98375, 72.6237 22.98375, 72.62437 22.98433, 72.62463 22.98454, 72.62535 22.98522, 72.62622 22.98606, 72.62622 22.98606, 72.62682 22.98665, 72.62814 22.98792, 72.62828 22.98804, 72.62829 22.98806, 72.6293 22.98901, 72.6293 22.98901, 72.63109 22.99076, 72.63176 22.99146, 72.63229 22.99213, 72.63229 22.99213, 72.63263 22.9926, 72.63274 22.99275, 72.63266 22.9928, 72.63236 22.993, 72.63192 22.99333, 72.63157 22.9936, 72.63129 22.99379, 72.63089 22.994, 72.63045 22.99424, 72.63039 22.9943, 72.63038 22.99434, 72.62933 22.99502, 72.62925 22.99506, 72.62925 22.99506, 72.6288 22.99532, 72.62841 22.99559, 72.62759 22.99628, 72.62639 22.9973, 72.62622 22.99746, 72.62618 22.99742, 72.62508 22.99841, 72.62457 22.99884, 72.62451 22.99888, 72.62451 22.99888, 72.62434 22.99906, 72.62403 22.9994, 72.6235 23.00015, 72.62332 23.00039, 72.62304 23.00072, 72.62277 23.00104, 72.6227 23.00115, 72.62227 23.00153, 72.62188 23.00167, 72.62183 23.00168, 72.62183 23.00168, 72.62131 23.00181, 72.62099 23.00188, 72.61928 23.00187, 72.61916 23.00186, 72.61916 23.00183, 72.61912 23.00177, 72.619 23.00177, 72.61881 23.00183, 72.61874 23.00188, 72.61872 23.00193, 72.61873 23.00198, 72.61875 23.00202, 72.61856 23.00222, 72.61834 23.00241, 72.61833 23.0024, 72.61761 23.00304, 72.61758 23.00307, 72.61735 23.00325, 72.61732 23.0032, 72.61732 23.0032, 72.61735 23.00325, 72.61695 23.00357, 72.61647 23.00391, 72.61635 23.00398, 72.61635 23.00399, 72.61482 23.00498, 72.61482 23.00498, 72.61442 23.00524, 72.61412 23.0054, 72.61352 23.00571, 72.61283 23.00608, 72.61271 23.00611, 72.61271 23.00611, 72.61158 23.00646, 72.6105 23.00676, 72.61016 23.00686, 72.61016 23.00686, 72.6095 23.00705, 72.60934 23.00712, 72.60816 23.00745, 72.60534 23.00823, 72.60521 23.00826, 72.60519 23.00829, 72.60511 23.00841, 72.6045 23.00919, 72.604332 23.009345, 72.604339 23.009341, 72.60411 23.00947, 72.60156 23.01049, 72.60145 23.01052, 72.60145 23.01053, 72.60094 23.01061, 72.60093 23.0106, 72.60091 23.01059, 72.60089 23.01058, 72.60077 23.01046, 72.60051 23.01026, 72.59997 23.00991, 72.5993 23.00947, 72.59926 23.00944, 72.59922 23.00952, 72.59899 23.0093, 72.599 23.0093, 72.59921 23.0095, 72.59897 23.00978, 72.59841 23.01048, 72.59778 23.01124, 72.5978 23.01126, 72.59747 23.01167, 72.5974 23.01176, 72.59751 23.01183, 72.59787 23.01201, 72.59818 23.01206, 72.5986 23.01206, 72.59909 23.01211, 72.59975 23.01221, 72.60062 23.01242, 72.60063 23.01245, 72.60066 23.01247, 72.60067 23.01248, 72.60067 23.01284, 72.60064 23.01383, 72.60061 23.014, 72.60035 23.01499, 72.60022 23.01563, 72.60008 23.0161, 72.59984 23.01644, 72.59971 23.01655, 72.59931 23.01674, 72.5991 23.01687, 72.599 23.01687, 72.59893 23.01687, 72.59877 23.0169, 72.59864 23.01694, 72.59801 23.0171, 72.59747 23.01725, 72.59736 23.01724, 72.59685 23.01737, 72.59659 23.01745, 72.59633 23.01739, 72.59584 23.01729, 72.59533 23.01722, 72.59533 23.01722, 72.59484 23.01717, 72.59441 23.01708, 72.59335 23.0169, 72.59272 23.0168, 72.59228 23.01678, 72.592181 23.016819, 72.591479 23.016803, 72.591226 23.016791, 72.591143 23.016767, 72.59107 23.01671, 72.59104 23.01669, 72.59096 23.01667, 72.59087 23.0167, 72.59081 23.01675, 72.590589 23.016843, 72.590368 23.016909, 72.590131 23.017065, 72.589977 23.017222, 72.589876 23.017367, 72.589708 23.017639, 72.589555 23.017981, 72.589486 23.018157, 72.589337 23.018293, 72.589074 23.018433, 72.588858 23.018517, 72.58862 23.018582, 72.588624 23.018588, 72.588165 23.018775, 72.587761 23.018906, 72.587329 23.019069, 72.587007 23.019178, 72.586716 23.019284, 72.586514 23.019386, 72.586372 23.019499, 72.586213 23.019557, 72.586217 23.01956, 72.586052 23.019819, 72.58588 23.020013, 72.585746 23.020152, 72.585596 23.020292, 72.585213 23.020666, 72.584854 23.020979, 72.58464 23.021102, 72.584446 23.021203, 72.584206 23.02131, 72.584101 23.02135, 72.583996 23.021378, 72.583456 23.021474, 72.583046 23.021533, 72.582758 23.021512, 72.582747 23.021522, 72.582155 23.021672, 72.581547 23.021793, 72.580838 23.021898, 72.58045 23.0219, 72.58045 23.0219, 72.57995 23.02198, 72.5796 23.02204, 72.5796 23.02212, 72.57959 23.02226, 72.57956 23.02302, 72.57949 23.02352, 72.57923 23.02351, 72.57914 23.02354, 72.57906 23.0237, 72.57904 23.02434, 72.57904 23.02443, 72.57904 23.02461, 72.579037 23.025026, 72.579067 23.02503, 72.57907 23.02503, 72.58002 23.02499, 72.58037 23.02497, 72.58045 23.02499, 72.58058 23.02506, 72.58064 23.02513, 72.58065 23.02554, 72.58059 23.02624, 72.58064 23.02715, 72.58054 23.02724, 72.5804 23.02727, 72.57955 23.02725, 72.57888 23.02719, 72.57888 23.02719, 72.57778 23.02711, 72.57124 23.02658, 72.57128 23.02613, 72.57133 23.0253, 72.57133 23.0253, 72.57139 23.02444, 72.5714 23.02408, 72.5714 23.02408, 72.57143 23.02345, 72.57142 23.02262, 72.57144 23.02239, 72.57129 23.02231, 72.57117 23.02225, 72.57077 23.0222, 72.56982 23.02207, 72.56982 23.02207, 72.5681 23.022, 72.56748 23.02189, 72.56628 23.02148, 72.56611 23.02143, 72.56611 23.02143, 72.56423 23.02087, 72.56358 23.02071, 72.56358 23.02071, 72.5627 23.02052, 72.56178 23.02033, 72.56108 23.02023, 72.56074 23.02018, 72.56066 23.02016, 72.56063 23.02023, 72.56058 23.02037, 72.5604 23.02087, 72.56038 23.02094, 72.56038 23.02094, 72.56007 23.02191, 72.55973 23.02316, 72.55959 23.02384, 72.55908 23.02386, 72.5586 23.02391, 72.55813 23.02368, 72.55797 23.02358, 72.55797 23.02358, 72.55686 23.02288, 72.55686 23.02288, 72.55632 23.02256, 72.55633 23.02254, 72.55633 23.02252, 72.55631 23.02248, 72.55623 23.02243, 72.55617 23.02244, 72.55589 23.02225, 72.5549 23.02152, 72.5543 23.02112, 72.55388 23.02081, 72.55387 23.0208, 72.55387 23.02078, 72.55384 23.02075, 72.55379 23.02074, 72.55372 23.02078, 72.55372 23.02079, 72.55325 23.02089, 72.55316 23.02094, 72.553 23.02102, 72.55228 23.02142, 72.55228 23.02142, 72.55171 23.02177, 72.55095 23.02225, 72.55064 23.02239, 72.55062 23.02239, 72.5506 23.02239, 72.55058 23.0224, 72.55054 23.02242, 72.55037 23.02244, 72.54982 23.02235, 72.54982 23.02235, 72.54921 23.02221, 72.54823 23.02202, 72.54792 23.02198, 72.54727 23.02188, 72.54727 23.02188, 72.54687 23.02184, 72.54585 23.02184, 72.54504 23.02193, 72.54434 23.02199, 72.54434 23.02199, 72.54319 23.02218, 72.54305 23.02218, 72.54302 23.02214, 72.54293 23.02212, 72.54285 23.02212, 72.5427 23.02218, 72.54265 23.02224, 72.54225 23.0224, 72.542 23.02244, 72.54098 23.02244, 72.54063 23.02244, 72.54063 23.02244, 72.53999 23.02245, 72.53881 23.02252, 72.53808 23.02259, 72.53728 23.02272, 72.53643 23.02287, 72.53643 23.02287, 72.53537 23.0231, 72.53477 23.02322, 72.53442 23.02327, 72.53402 23.02338, 72.53376 23.02348, 72.53325 23.02374, 72.53314 23.0238, 72.53314 23.0238, 72.53279 23.02397, 72.53233 23.02416, 72.53217 23.0242, 72.53201 23.02422, 72.53107 23.02422, 72.53107 23.02422, 72.53015 23.02427, 72.52982 23.02431, 72.5293 23.02442, 72.52832 23.0247, 72.52777 23.0249, 72.52777 23.0249, 72.52739 23.02509, 72.52668 23.02553, 72.52659 23.02556, 72.52599 23.02568, 72.52482 23.02589, 72.52399 23.02613, 72.52399 23.02613, 72.52336 23.02632, 72.52308 23.02648, 72.52204 23.02716, 72.52173 23.02732, 72.52173 23.02732, 72.52122 23.02755, 72.5211 23.02759, 72.52077 23.02763, 72.51958 23.02768, 72.51873 23.02782, 72.5186 23.02781, 72.51778 23.02762, 72.51762 23.02759, 72.51762 23.02759, 72.51733 23.02754, 72.51712 23.02753, 72.51623 23.02767, 72.51576 23.02772, 72.51544 23.02771, 72.51479 23.02763, 72.51479 23.02763, 72.51316 23.02743, 72.51316 23.02743, 72.51162 23.02726, 72.51106 23.02724, 72.51033 23.02724, 72.50998 23.02722, 72.50947 23.02714, 72.50892 23.02702, 72.50847 23.02703)"
  },
  {
    "stopName": "Sardarbag",
    "stopCode": 1127,
    "stationCode": 2611,
    "stopType": "MUNICIPAL_BUS",
    "shortStopName": null,
    "Position": {
      "stopLongitude": "72.578883",
      "stopLatitude": "23.027145"
    },
    "RouteCodes": null,
    "Sequence": 52,
    "routeFlow": null
  },
  {
    "stopName": "Gandhigram Railway Station",
    "stopCode": 1128,
    "stationCode": 1522,
    "stopType": "MUNICIPAL_BUS",
    "shortStopName": null,
    "Position": {
      "stopLongitude": "72.571413",
      "stopLatitude": "23.025308"
    },
    "RouteCodes": null,
    "Sequence": 53,
    "routeFlow": null
  },
  {
    "stopName": "Sanyas Ashram",
    "stopCode": 1129,
    "stationCode": 2588,
    "stopType": "MUNICIPAL_BUS",
    "shortStopName": null,
    "Position": {
      "stopLongitude": "72.571466",
      "stopLatitude": "23.02408"
    },
    "RouteCodes": null,
    "Sequence": 54,
    "routeFlow": null
  },
  {
    "stopName": "Ramanand Kot",
    "stopCode": 1333,
    "stationCode": 2460,
    "stopType": "MUNICIPAL_BUS",
    "shortStopName": null,
    "Position": {
      "stopLongitude": "72.604334",
      "stopLatitude": "23.009322"
    },
    "RouteCodes": null,
    "Sequence": 40,
    "routeFlow": null
  },
  {
    "stopName": "Zoo Kankariya",
    "stopCode": 1334,
    "stationCode": 2351,
    "stopType": "MUNICIPAL_BUS",
    "shortStopName": null,
    "Position": {
      "stopLongitude": "72.601436",
      "stopLatitude": "23.010493"
    },
    "RouteCodes": null,
    "Sequence": 41,
    "routeFlow": null
  },
  {
    "stopName": "Parsi Agiyari",
    "stopCode": 1336,
    "stationCode": 2318,
    "stopType": "MUNICIPAL_BUS",
    "shortStopName": null,
    "Position": {
      "stopLongitude": "72.59777",
      "stopLatitude": "23.011235"
    },
    "RouteCodes": null,
    "Sequence": 43,
    "routeFlow": null
  },
  {
    "stopName": "Jodhpur Road",
    "stopCode": 1412,
    "stationCode": 1795,
    "stopType": "MUNICIPAL_BUS",
    "shortStopName": null,
    "Position": {
      "stopLongitude": "72.527766",
      "stopLatitude": "23.024896"
    },
    "RouteCodes": null,
    "Sequence": 69,
    "routeFlow": null
  },
  {
    "stopName": "Harisiddh Society",
    "stopCode": 1413,
    "stationCode": 1665,
    "stopType": "MUNICIPAL_BUS",
    "shortStopName": null,
    "Position": {
      "stopLongitude": "72.523983",
      "stopLatitude": "23.026101"
    },
    "RouteCodes": null,
    "Sequence": 70,
    "routeFlow": null
  },
  {
    "stopName": "Satellite Station",
    "stopCode": 1414,
    "stationCode": 2647,
    "stopType": "MUNICIPAL_BUS",
    "shortStopName": null,
    "Position": {
      "stopLongitude": "72.52175",
      "stopLatitude": "23.027355"
    },
    "RouteCodes": null,
    "Sequence": 71,
    "routeFlow": null
  },
  {
    "stopName": "Bhav Nirzar",
    "stopCode": 1415,
    "stationCode": 1290,
    "stopType": "MUNICIPAL_BUS",
    "shortStopName": null,
    "Position": {
      "stopLongitude": "72.517621",
      "stopLatitude": "23.027573"
    },
    "RouteCodes": null,
    "Sequence": 72,
    "routeFlow": null
  },
  {
    "stopName": "Narayan Vidyalay",
    "stopCode": 1416,
    "stationCode": 2159,
    "stopType": "MUNICIPAL_BUS",
    "shortStopName": null,
    "Position": {
      "stopLongitude": "72.514785",
      "stopLatitude": "23.027643"
    },
    "RouteCodes": null,
    "Sequence": 73,
    "routeFlow": null
  },
  {
    "stopName": "Ramdevnagar",
    "stopCode": 1417,
    "stationCode": 2467,
    "stopType": "MUNICIPAL_BUS",
    "shortStopName": null,
    "Position": {
      "stopLongitude": "72.513158",
      "stopLatitude": "23.027453"
    },
    "RouteCodes": null,
    "Sequence": 74,
    "routeFlow": null
  },
  {
    "stopName": "Astodiya Darwaja (BRT)",
    "stopCode": 1719,
    "stationCode": 99,
    "stopType": "MUNICIPAL_BUS",
    "shortStopName": null,
    "Position": {
      "stopLongitude": "72.592286",
      "stopLatitude": "23.016735"
    },
    "RouteCodes": null,
    "Sequence": 45,
    "routeFlow": null
  },
  {
    "stopName": "Astodiya Chakla (BRT)",
    "stopCode": 1720,
    "stationCode": 98,
    "stopType": "MUNICIPAL_BUS",
    "shortStopName": null,
    "Position": {
      "stopLongitude": "72.58864",
      "stopLatitude": "23.018541"
    },
    "RouteCodes": null,
    "Sequence": 46,
    "routeFlow": null
  },
  {
    "stopName": "Municipal Corporation Office (BRT)",
    "stopCode": 1721,
    "stationCode": 97,
    "stopType": "MUNICIPAL_BUS",
    "shortStopName": null,
    "Position": {
      "stopLongitude": "72.586225",
      "stopLatitude": "23.019555"
    },
    "RouteCodes": null,
    "Sequence": 47,
    "routeFlow": null
  },
  {
    "stopName": "Raikhad Char Rasta (BRT)",
    "stopCode": 1722,
    "stationCode": 96,
    "stopType": "MUNICIPAL_BUS",
    "shortStopName": null,
    "Position": {
      "stopLongitude": "72.58282",
      "stopLatitude": "23.021478"
    },
    "RouteCodes": null,
    "Sequence": 48,
    "routeFlow": null
  },
  {
    "stopName": "Lokamanya Tilak Bag (BRT)",
    "stopCode": 1723,
    "stationCode": 95,
    "stopType": "MUNICIPAL_BUS",
    "shortStopName": null,
    "Position": {
      "stopLongitude": "72.580446",
      "stopLatitude": "23.021858"
    },
    "RouteCodes": null,
    "Sequence": 49,
    "routeFlow": null
  },
  {
    "stopName": "Raipur Darwaja",
    "stopCode": 1847,
    "stationCode": 2497,
    "stopType": "MUNICIPAL_BUS",
    "shortStopName": null,
    "Position": {
      "stopLongitude": "72.595344",
      "stopLatitude": "23.017108"
    },
    "RouteCodes": null,
    "Sequence": 44,
    "routeFlow": null
  },
  {
    "stopName": "Law College",
    "stopCode": 1971,
    "stationCode": 1967,
    "stopType": "MUNICIPAL_BUS",
    "shortStopName": null,
    "Position": {
      "stopLongitude": "72.557993",
      "stopLatitude": "23.023551"
    },
    "RouteCodes": null,
    "Sequence": 59,
    "routeFlow": null
  },
  {
    "stopName": "Panchvati",
    "stopCode": 1972,
    "stationCode": 2294,
    "stopType": "MUNICIPAL_BUS",
    "shortStopName": null,
    "Position": {
      "stopLongitude": "72.556883",
      "stopLatitude": "23.022848"
    },
    "RouteCodes": null,
    "Sequence": 60,
    "routeFlow": null
  },
  {
    "stopName": "C.N. Vidyalay",
    "stopCode": 1973,
    "stationCode": 1324,
    "stopType": "MUNICIPAL_BUS",
    "shortStopName": null,
    "Position": {
      "stopLongitude": "72.552275",
      "stopLatitude": "23.021416"
    },
    "RouteCodes": null,
    "Sequence": 61,
    "routeFlow": null
  },
  {
    "stopName": "Hatkeshwar Mahadev",
    "stopCode": 2257,
    "stationCode": 1673,
    "stopType": "MUNICIPAL_BUS",
    "shortStopName": null,
    "Position": {
      "stopLongitude": "72.624486",
      "stopLatitude": "22.998852"
    },
    "RouteCodes": null,
    "Sequence": 32,
    "routeFlow": null
  },
  {
    "stopName": "Bombay Housing",
    "stopCode": 2258,
    "stationCode": 1317,
    "stopType": "MUNICIPAL_BUS",
    "shortStopName": null,
    "Position": {
      "stopLongitude": "72.621833",
      "stopLatitude": "23.001684"
    },
    "RouteCodes": null,
    "Sequence": 33,
    "routeFlow": null
  },
  {
    "stopName": "Khokhara Circle",
    "stopCode": 2259,
    "stationCode": 1892,
    "stopType": "MUNICIPAL_BUS",
    "shortStopName": null,
    "Position": {
      "stopLongitude": "72.618346",
      "stopLatitude": "23.00242"
    },
    "RouteCodes": null,
    "Sequence": 34,
    "routeFlow": null
  },
  {
    "stopName": "K.K. Shastri College",
    "stopCode": 2260,
    "stationCode": 1808,
    "stopType": "MUNICIPAL_BUS",
    "shortStopName": null,
    "Position": {
      "stopLongitude": "72.616361",
      "stopLatitude": "23.004001"
    },
    "RouteCodes": null,
    "Sequence": 36,
    "routeFlow": null
  },
  {
    "stopName": "New Anaj Bazar",
    "stopCode": 2261,
    "stationCode": 2207,
    "stopType": "MUNICIPAL_BUS",
    "shortStopName": null,
    "Position": {
      "stopLongitude": "72.614808",
      "stopLatitude": "23.00497"
    },
    "RouteCodes": null,
    "Sequence": 37,
    "routeFlow": null
  },
  {
    "stopName": "Bhalakiya Mills",
    "stopCode": 2262,
    "stationCode": 1273,
    "stopType": "MUNICIPAL_BUS",
    "shortStopName": null,
    "Position": {
      "stopLongitude": "72.612706",
      "stopLatitude": "23.006095"
    },
    "RouteCodes": null,
    "Sequence": 38,
    "routeFlow": null
  },
  {
    "stopName": "Apparel Park (Ambika Mills)",
    "stopCode": 2263,
    "stationCode": 1151,
    "stopType": "MUNICIPAL_BUS",
    "shortStopName": null,
    "Position": {
      "stopLongitude": "72.610156",
      "stopLatitude": "23.006833"
    },
    "RouteCodes": null,
    "Sequence": 39,
    "routeFlow": null
  },
  {
    "stopName": "Lal Bangla (Ctm)",
    "stopCode": 2311,
    "stationCode": 1960,
    "stopType": "MUNICIPAL_BUS",
    "shortStopName": null,
    "Position": {
      "stopLongitude": "72.629233",
      "stopLatitude": "22.995045"
    },
    "RouteCodes": null,
    "Sequence": 30,
    "routeFlow": null
  },
  {
    "stopName": "Hatkeshwar Depo",
    "stopCode": 2312,
    "stationCode": 1672,
    "stopType": "MUNICIPAL_BUS",
    "shortStopName": null,
    "Position": {
      "stopLongitude": "72.62607",
      "stopLatitude": "22.99732"
    },
    "RouteCodes": null,
    "Sequence": 31,
    "routeFlow": null
  },
  {
    "stopName": "Madalpur (Town Hall)",
    "stopCode": 2608,
    "stationCode": 1982,
    "stopType": "MUNICIPAL_BUS",
    "shortStopName": null,
    "Position": {
      "stopLongitude": "72.569816",
      "stopLatitude": "23.022096"
    },
    "RouteCodes": null,
    "Sequence": 55,
    "routeFlow": null
  },
  {
    "stopName": "Gujarat College",
    "stopCode": 2609,
    "stationCode": 1614,
    "stopType": "MUNICIPAL_BUS",
    "shortStopName": null,
    "Position": {
      "stopLongitude": "72.566111",
      "stopLatitude": "23.021423"
    },
    "RouteCodes": null,
    "Sequence": 56,
    "routeFlow": null
  },
  {
    "stopName": "Hope Nuro Care Hospital",
    "stopCode": 2610,
    "stationCode": 1691,
    "stopType": "MUNICIPAL_BUS",
    "shortStopName": null,
    "Position": {
      "stopLongitude": "72.563578",
      "stopLatitude": "23.020716"
    },
    "RouteCodes": null,
    "Sequence": 57,
    "routeFlow": null
  },
  {
    "stopName": "University Granth Nirman Board",
    "stopCode": 2611,
    "stationCode": 2973,
    "stopType": "MUNICIPAL_BUS",
    "shortStopName": null,
    "Position": {
      "stopLongitude": "72.560386",
      "stopLatitude": "23.020945"
    },
    "RouteCodes": null,
    "Sequence": 58,
    "routeFlow": null
  },
  {
    "stopName": "Exise Chowki (Cn)",
    "stopCode": 2612,
    "stationCode": 1490,
    "stopType": "MUNICIPAL_BUS",
    "shortStopName": null,
    "Position": {
      "stopLongitude": "72.549823",
      "stopLatitude": "23.022355"
    },
    "RouteCodes": null,
    "Sequence": 62,
    "routeFlow": null
  },
  {
    "stopName": "Snehkunj",
    "stopCode": 2613,
    "stationCode": 2812,
    "stopType": "MUNICIPAL_BUS",
    "shortStopName": null,
    "Position": {
      "stopLongitude": "72.547263",
      "stopLatitude": "23.021925"
    },
    "RouteCodes": null,
    "Sequence": 63,
    "routeFlow": null
  },
  {
    "stopName": "Government Quarters (Nehrunagar)",
    "stopCode": 2614,
    "stationCode": 1597,
    "stopType": "MUNICIPAL_BUS",
    "shortStopName": null,
    "Position": {
      "stopLongitude": "72.54434",
      "stopLatitude": "23.022033"
    },
    "RouteCodes": null,
    "Sequence": 64,
    "routeFlow": null
  },
  {
    "stopName": "Satyakam Society",
    "stopCode": 2615,
    "stationCode": 2654,
    "stopType": "MUNICIPAL_BUS",
    "shortStopName": null,
    "Position": {
      "stopLongitude": "72.540633",
      "stopLatitude": "23.022425"
    },
    "RouteCodes": null,
    "Sequence": 65,
    "routeFlow": null
  },
  {
    "stopName": "Haridas Park",
    "stopCode": 2616,
    "stationCode": 1655,
    "stopType": "MUNICIPAL_BUS",
    "shortStopName": null,
    "Position": {
      "stopLongitude": "72.536438",
      "stopLatitude": "23.022908"
    },
    "RouteCodes": null,
    "Sequence": 66,
    "routeFlow": null
  },
  {
    "stopName": "Umiya Vijay Society",
    "stopCode": 2617,
    "stationCode": 2968,
    "stopType": "MUNICIPAL_BUS",
    "shortStopName": null,
    "Position": {
      "stopLongitude": "72.533141",
      "stopLatitude": "23.02381"
    },
    "RouteCodes": null,
    "Sequence": 67,
    "routeFlow": null
  },
  {
    "stopName": "Bihari Mills",
    "stopCode": 2948,
    "stationCode": 1311,
    "stopType": "MUNICIPAL_BUS",
    "shortStopName": null,
    "Position": {
      "stopLongitude": "72.617342",
      "stopLatitude": "23.003184"
    },
    "RouteCodes": null,
    "Sequence": 35,
    "routeFlow": null
  },
  {
    "stopName": "Vivekanandnagar",
    "stopCode": 3135,
    "stationCode": 3077,
    "stopType": "MUNICIPAL_BUS",
    "shortStopName": null,
    "Position": {
      "stopLongitude": "72.661566",
      "stopLatitude": "22.929231"
    },
    "RouteCodes": null,
    "Sequence": 1,
    "routeFlow": null
  },
  {
    "stopName": "Khodiyar Matanu Mandir",
    "stopCode": 3136,
    "stationCode": 1890,
    "stopType": "MUNICIPAL_BUS",
    "shortStopName": null,
    "Position": {
      "stopLongitude": "72.664141",
      "stopLatitude": "22.932468"
    },
    "RouteCodes": null,
    "Sequence": 3,
    "routeFlow": null
  },
  {
    "stopName": "Amar Dham (Lal Bawa Gebi Ashram)",
    "stopCode": 3137,
    "stationCode": 1097,
    "stopType": "MUNICIPAL_BUS",
    "shortStopName": null,
    "Position": {
      "stopLongitude": "72.665253",
      "stopLatitude": "22.939491"
    },
    "RouteCodes": null,
    "Sequence": 5,
    "routeFlow": null
  },
  {
    "stopName": "Hathijan Vad",
    "stopCode": 3138,
    "stationCode": 5013,
    "stopType": "MUNICIPAL_BUS",
    "shortStopName": null,
    "Position": {
      "stopLongitude": "72.665348",
      "stopLatitude": "22.941243"
    },
    "RouteCodes": null,
    "Sequence": 6,
    "routeFlow": null
  },
  {
    "stopName": "Hathijan Gam Approach",
    "stopCode": 3139,
    "stationCode": 1670,
    "stopType": "MUNICIPAL_BUS",
    "shortStopName": null,
    "Position": {
      "stopLongitude": "72.667228",
      "stopLatitude": "22.943153"
    },
    "RouteCodes": null,
    "Sequence": 7,
    "routeFlow": null
  },
  {
    "stopName": "Shree swaminarayan vidhyadham",
    "stopCode": 3140,
    "stationCode": 5016,
    "stopType": "MUNICIPAL_BUS",
    "shortStopName": null,
    "Position": {
      "stopLongitude": "72.666347",
      "stopLatitude": "22.94737"
    },
    "RouteCodes": null,
    "Sequence": 9,
    "routeFlow": null
  },
  {
    "stopName": "Ramol Patiya",
    "stopCode": 3141,
    "stationCode": 2474,
    "stopType": "MUNICIPAL_BUS",
    "shortStopName": null,
    "Position": {
      "stopLongitude": "72.663941",
      "stopLatitude": "22.94994"
    },
    "RouteCodes": null,
    "Sequence": 10,
    "routeFlow": null
  },
  {
    "stopName": "Geratnagar",
    "stopCode": 3142,
    "stationCode": 1542,
    "stopType": "MUNICIPAL_BUS",
    "shortStopName": null,
    "Position": {
      "stopLongitude": "72.661871",
      "stopLatitude": "22.952036"
    },
    "RouteCodes": null,
    "Sequence": 11,
    "routeFlow": null
  },
  {
    "stopName": "Baleshwar city",
    "stopCode": 3143,
    "stationCode": 5012,
    "stopType": "MUNICIPAL_BUS",
    "shortStopName": null,
    "Position": {
      "stopLongitude": "72.659893",
      "stopLatitude": "22.954056"
    },
    "RouteCodes": null,
    "Sequence": 12,
    "routeFlow": null
  },
  {
    "stopName": "Vinzol Patiya",
    "stopCode": 3144,
    "stationCode": 3057,
    "stopType": "MUNICIPAL_BUS",
    "shortStopName": null,
    "Position": {
      "stopLongitude": "72.655766",
      "stopLatitude": "22.958343"
    },
    "RouteCodes": null,
    "Sequence": 14,
    "routeFlow": null
  },
  {
    "stopName": "Hanumanji Mandir",
    "stopCode": 3145,
    "stationCode": 5049,
    "stopType": "MUNICIPAL_BUS",
    "shortStopName": null,
    "Position": {
      "stopLongitude": "72.651786",
      "stopLatitude": "22.96227"
    },
    "RouteCodes": null,
    "Sequence": 16,
    "routeFlow": null
  },
  {
    "stopName": "Klockner - Windsor",
    "stopCode": 3146,
    "stationCode": 1901,
    "stopType": "MUNICIPAL_BUS",
    "shortStopName": null,
    "Position": {
      "stopLongitude": "72.648185",
      "stopLatitude": "22.96585"
    },
    "RouteCodes": null,
    "Sequence": 17,
    "routeFlow": null
  },
  {
    "stopName": "Vatva Patiya",
    "stopCode": 3147,
    "stationCode": 3027,
    "stopType": "MUNICIPAL_BUS",
    "shortStopName": null,
    "Position": {
      "stopLongitude": "72.64671",
      "stopLatitude": "22.967224"
    },
    "RouteCodes": null,
    "Sequence": 18,
    "routeFlow": null
  },
  {
    "stopName": "P.R. Enterprise",
    "stopCode": 3148,
    "stationCode": 2274,
    "stopType": "MUNICIPAL_BUS",
    "shortStopName": null,
    "Position": {
      "stopLongitude": "72.642366",
      "stopLatitude": "22.971651"
    },
    "RouteCodes": null,
    "Sequence": 19,
    "routeFlow": null
  },
  {
    "stopName": "Nika Tubes",
    "stopCode": 3149,
    "stationCode": 2219,
    "stopType": "MUNICIPAL_BUS",
    "shortStopName": null,
    "Position": {
      "stopLongitude": "72.639806",
      "stopLatitude": "22.97422"
    },
    "RouteCodes": null,
    "Sequence": 20,
    "routeFlow": null
  },
  {
    "stopName": "Nirma",
    "stopCode": 3150,
    "stationCode": 2236,
    "stopType": "MUNICIPAL_BUS",
    "shortStopName": null,
    "Position": {
      "stopLongitude": "72.637055",
      "stopLatitude": "22.976953"
    },
    "RouteCodes": null,
    "Sequence": 21,
    "routeFlow": null
  },
  {
    "stopName": "Trikampura Patiya",
    "stopCode": 3151,
    "stationCode": 2951,
    "stopType": "MUNICIPAL_BUS",
    "shortStopName": null,
    "Position": {
      "stopLongitude": "72.633127",
      "stopLatitude": "22.980841"
    },
    "RouteCodes": null,
    "Sequence": 22,
    "routeFlow": null
  },
  {
    "stopName": "Kamabhaino Kuvo",
    "stopCode": 3152,
    "stationCode": 1842,
    "stopType": "MUNICIPAL_BUS",
    "shortStopName": null,
    "Position": {
      "stopLongitude": "72.629126",
      "stopLatitude": "22.982001"
    },
    "RouteCodes": null,
    "Sequence": 23,
    "routeFlow": null
  },
  {
    "stopName": "Jashodanagar Patiya",
    "stopCode": 3153,
    "stationCode": 1764,
    "stopType": "MUNICIPAL_BUS",
    "shortStopName": null,
    "Position": {
      "stopLongitude": "72.626573",
      "stopLatitude": "22.982425"
    },
    "RouteCodes": null,
    "Sequence": 24,
    "routeFlow": null
  },
  {
    "stopName": "Jashodanagar Cross Road",
    "stopCode": 3154,
    "stationCode": 1763,
    "stopType": "MUNICIPAL_BUS",
    "shortStopName": null,
    "Position": {
      "stopLongitude": "72.623688",
      "stopLatitude": "22.983755"
    },
    "RouteCodes": null,
    "Sequence": 25,
    "routeFlow": null
  },
  {
    "stopName": "Saraswatinagar",
    "stopCode": 3155,
    "stationCode": 2599,
    "stopType": "MUNICIPAL_BUS",
    "shortStopName": null,
    "Position": {
      "stopLongitude": "72.626206",
      "stopLatitude": "22.986075"
    },
    "RouteCodes": null,
    "Sequence": 26,
    "routeFlow": null
  },
  {
    "stopName": "Sardar Patel Seva Sankul",
    "stopCode": 3156,
    "stationCode": 2607,
    "stopType": "MUNICIPAL_BUS",
    "shortStopName": null,
    "Position": {
      "stopLongitude": "72.628303",
      "stopLatitude": "22.988046"
    },
    "RouteCodes": null,
    "Sequence": 27,
    "routeFlow": null
  },
  {
    "stopName": "Swaminarayan Colony",
    "stopCode": 3157,
    "stationCode": 2888,
    "stopType": "MUNICIPAL_BUS",
    "shortStopName": null,
    "Position": {
      "stopLongitude": "72.6293",
      "stopLatitude": "22.98901"
    },
    "RouteCodes": null,
    "Sequence": 28,
    "routeFlow": null
  },
  {
    "stopName": "C.T.M. Cross Road",
    "stopCode": 3158,
    "stationCode": 1326,
    "stopType": "MUNICIPAL_BUS",
    "shortStopName": null,
    "Position": {
      "stopLongitude": "72.632281",
      "stopLatitude": "22.992138"
    },
    "RouteCodes": null,
    "Sequence": 29,
    "routeFlow": null
  },
  {
    "stopName": "Shivranjni Society",
    "stopCode": 3212,
    "stationCode": 2729,
    "stopType": "MUNICIPAL_BUS",
    "shortStopName": null,
    "Position": {
      "stopLongitude": "72.531075",
      "stopLatitude": "23.024245"
    },
    "RouteCodes": null,
    "Sequence": 68,
    "routeFlow": null
  },
  {
    "stopName": "Iskon Mandir",
    "stopCode": 3213,
    "stationCode": 1731,
    "stopType": "MUNICIPAL_BUS",
    "shortStopName": null,
    "Position": {
      "stopLongitude": "72.508475",
      "stopLatitude": "23.02708"
    },
    "RouteCodes": null,
    "Sequence": 75,
    "routeFlow": null
  },
  {
    "stopName": "The Arena (Abad Dairy)",
    "stopCode": 3919,
    "stationCode": 1054,
    "stopType": "MUNICIPAL_BUS",
    "shortStopName": null,
    "Position": {
      "stopLongitude": "72.598997",
      "stopLatitude": "23.009296"
    },
    "RouteCodes": null,
    "Sequence": 42,
    "routeFlow": null
  },
  {
    "stopName": "Bhaththa (Ramol)",
    "stopCode": 4070,
    "stationCode": 1286,
    "stopType": "MUNICIPAL_BUS",
    "shortStopName": null,
    "Position": {
      "stopLongitude": "72.668093",
      "stopLatitude": "22.945701"
    },
    "RouteCodes": null,
    "Sequence": 8,
    "routeFlow": null
  },
  {
    "stopName": "Lal Gebi Nagar",
    "stopCode": 5681,
    "stationCode": 5055,
    "stopType": "MUNICIPAL_BUS",
    "shortStopName": null,
    "Position": {
      "stopLongitude": "72.66454",
      "stopLatitude": "22.936753"
    },
    "RouteCodes": null,
    "Sequence": 4,
    "routeFlow": null
  },
  {
    "stopName": "S.P.Ring Road",
    "stopCode": 6059,
    "stationCode": 6581,
    "stopType": "MUNICIPAL_BUS",
    "shortStopName": null,
    "Position": {
      "stopLongitude": "72.658048",
      "stopLatitude": "22.955924"
    },
    "RouteCodes": null,
    "Sequence": 13,
    "routeFlow": null
  },
  {
    "stopName": "Valiba Shopping Center",
    "stopCode": 6061,
    "stationCode": 6582,
    "stopType": "MUNICIPAL_BUS",
    "shortStopName": null,
    "Position": {
      "stopLongitude": "72.663758",
      "stopLatitude": "22.929937"
    },
    "RouteCodes": null,
    "Sequence": 2,
    "routeFlow": null
  },
  {
    "stopName": "Lal Darwaja",
    "stopCode": 8431,
    "stationCode": 1961,
    "stopType": "MUNICIPAL_BUS",
    "shortStopName": null,
    "Position": {
      "stopLongitude": "72.578948",
      "stopLatitude": "23.02443"
    },
    "RouteCodes": null,
    "Sequence": 50,
    "routeFlow": null
  },
  {
    "stopName": "Kadri no kuvo",
    "stopCode": 8682,
    "stationCode": 6106,
    "stopType": "MUNICIPAL_BUS",
    "shortStopName": null,
    "Position": {
      "stopLongitude": "72.652767",
      "stopLatitude": "22.961283"
    },
    "RouteCodes": null,
    "Sequence": 15,
    "routeFlow": null
  }
]