[
  {
    "stopName": "Raipur Darwaja",
    "stopCode": 1300,
    "stationCode": 2497,
    "stopType": "MUNICIPAL_BUS",
    "shortStopName": null,
    "Position": {
      "stopLongitude": "72.595075",
      "stopLatitude": "23.01621"
    },
    "RouteCodes": null,
    "Sequence": 4,
    "routeFlow": "LINESTRING (72.599269 23.023491, 72.59902 23.02311, 72.59896 23.02298, 72.59891 23.02273, 72.59896 23.0223, 72.59904 23.02197, 72.59919 23.02131, 72.59941 23.02024, 72.59942 23.01999, 72.59938 23.01967, 72.5993 23.01946, 72.59902 23.01901, 72.5989 23.01888, 72.5989 23.01888, 72.59848 23.01847, 72.59825 23.01831, 72.59772 23.01797, 72.59772 23.01797, 72.5972 23.0177, 72.59659 23.01745, 72.59626 23.01738, 72.59572 23.01727, 72.59484 23.01717, 72.59502 23.0162, 72.59502 23.0162, 72.59509 23.0159, 72.59529 23.01542, 72.59578 23.01445, 72.59578 23.01445, 72.59594 23.0141, 72.5961 23.01359, 72.5961 23.01359, 72.59612 23.01352, 72.59644 23.01306, 72.59742 23.01185, 72.59742 23.01185, 72.59893 23.00997, 72.59908 23.0098, 72.59908 23.0098, 72.59928 23.00956, 72.59933 23.0095, 72.59926 23.00945, 72.5987 23.0089, 72.5987 23.0089, 72.59849 23.00866, 72.59818 23.00824, 72.59796 23.00813, 72.5977 23.00801, 72.59754 23.00791, 72.59731 23.00775, 72.59718 23.00763, 72.59694 23.00736, 72.59694 23.00736, 72.59669 23.00708, 72.59632 23.00674, 72.59698 23.00577, 72.59742 23.00498, 72.59766 23.00449, 72.59778 23.0042, 72.59797 23.00363, 72.59814 23.0032, 72.59824 23.00304, 72.59837 23.00296, 72.59877 23.00282, 72.59877 23.00282, 72.59914 23.00269, 72.59918 23.00267, 72.59931 23.00246, 72.59949 23.00203, 72.59955 23.00191, 72.59987 23.00127, 72.60036 23.00044, 72.60051 23.0002, 72.60051 23.0002, 72.60098 22.99953, 72.60131 22.99914, 72.6015 22.99889, 72.60153 22.99886, 72.60153 22.99885, 72.60186 22.99858, 72.60231 22.99828, 72.60317 22.99783, 72.60388 22.99756, 72.60388 22.99756, 72.60457 22.99738, 72.60481 22.99735, 72.60581 22.99728, 72.60677 22.99727, 72.60771 22.99728, 72.60796 22.9973, 72.60796 22.9973, 72.60834 22.99733, 72.60882 22.99745, 72.60937 22.99761, 72.61005 22.99787, 72.61066 22.99814, 72.61127 22.99846, 72.61151 22.99791, 72.61161 22.99772, 72.61161 22.99772, 72.61184 22.99721, 72.61191 22.99716, 72.61224 22.99645, 72.61289 22.99505, 72.61299 22.99484, 72.61299 22.99481, 72.61292 22.99479, 72.61262 22.99478, 72.61198 22.9948, 72.61198 22.9948, 72.61141 22.99483, 72.61088 22.99492, 72.61058 22.99498, 72.61058 22.99498, 72.61018 22.99504, 72.60965 22.99507, 72.60852 22.99507, 72.60777 22.9951, 72.60774 22.99502, 72.60774 22.99502, 72.60767 22.99476, 72.60756 22.99445, 72.60738 22.99407, 72.60738 22.99407, 72.6073 22.99389, 72.60764 22.99368, 72.60773 22.99358, 72.60795 22.99342, 72.60826 22.99322, 72.60838 22.99314, 72.60903 22.99288, 72.6092 22.99278, 72.6092 22.99278, 72.60981 22.99243, 72.61029 22.99217, 72.61163 22.99157, 72.61154 22.99128, 72.61154 22.99128, 72.61125 22.99036, 72.61118 22.99, 72.61116 22.98971, 72.61123 22.98969, 72.61123 22.98969, 72.61116 22.98971, 72.61112 22.98921, 72.61101 22.98883, 72.61095 22.98859, 72.61089 22.9883, 72.61105 22.98819, 72.61116 22.98808, 72.61121 22.98801, 72.61133 22.98783, 72.61135 22.98781, 72.61136 22.9878, 72.61137 22.98776, 72.61135 22.98772, 72.6113 22.98752, 72.6113 22.98752, 72.61126 22.9869, 72.61128 22.98679, 72.61133 22.98668, 72.61141 22.98649, 72.61141 22.98635, 72.6114 22.98619, 72.61132 22.9854, 72.61131 22.98497, 72.61127 22.98446, 72.61118 22.98298, 72.61114 22.98235, 72.61114 22.98235, 72.61107 22.98114, 72.61093 22.97866, 72.61091 22.97817, 72.61091 22.97817, 72.6108 22.97654, 72.61078 22.97558, 72.61079 22.97509, 72.61088 22.97496, 72.61088 22.97496, 72.61111 22.97475, 72.61142 22.97437, 72.61155 22.97418, 72.61183 22.97388, 72.61198 22.97372, 72.61216 22.97355, 72.6125 22.97326, 72.61304 22.97282, 72.61354 22.97237, 72.61367 22.97226, 72.61367 22.97226, 72.61445 22.97169, 72.61461 22.97161, 72.61461 22.97161, 72.615 22.97143, 72.6151 22.97143, 72.61535 22.97139, 72.61613 22.97128, 72.61619 22.97128, 72.61619 22.97125, 72.61765 22.97117, 72.61909 22.97114, 72.61982 22.97113, 72.6198 22.97115, 72.61999 22.97117, 72.62009 22.97114, 72.62017 22.97116, 72.62084 22.97118, 72.62106 22.97118, 72.62198 22.97115, 72.62276 22.9711, 72.62336 22.9711, 72.62336 22.9711, 72.62352 22.9711, 72.62393 22.97024, 72.62416 22.96972, 72.62416 22.96972, 72.62498 22.96803, 72.62505 22.96786, 72.62507 22.96777, 72.62505 22.96766, 72.62473 22.96719, 72.62473 22.96719, 72.6246 22.967, 72.62424 22.96663, 72.62395 22.96638, 72.62375 22.9662, 72.62375 22.9662, 72.62353 22.96602, 72.62322 22.96582, 72.62284 22.96563, 72.62274 22.96423, 72.62274 22.96423, 72.6227 22.96353, 72.62266 22.96255, 72.62266 22.96152, 72.62266 22.96152, 72.62265 22.9606, 72.62256 22.9589, 72.62274 22.95891, 72.62274 22.95891, 72.62315 22.95895, 72.62402 22.95895, 72.62456 22.95894, 72.62456 22.95894, 72.62533 22.95892, 72.62571 22.95773, 72.62575 22.9576, 72.62575 22.9576, 72.62598 22.95682, 72.62608 22.95635, 72.6261 22.95611, 72.6261 22.95587, 72.62605 22.95554, 72.62598 22.95529, 72.62591 22.9551, 72.62591 22.9551, 72.62507 22.9533, 72.62468 22.95239, 72.62468 22.95239, 72.62435 22.95165, 72.6243 22.95148, 72.62427 22.95123, 72.62417 22.95041, 72.62415 22.95024, 72.62433 22.95018, 72.62433 22.95019, 72.62494 22.95002, 72.62539 22.94992, 72.62555 22.9499, 72.62591 22.94991, 72.62679 22.95003, 72.62689 22.95008, 72.62706 22.95011, 72.62713 22.95013, 72.62713 22.95013, 72.6279 22.95027, 72.62838 22.95031, 72.62885 22.95036, 72.62928 22.95037, 72.62989 22.95031, 72.63025 22.9503, 72.63025 22.9503, 72.63062 22.9503, 72.63112 22.95049, 72.63216 22.95086, 72.63218 22.95087, 72.63164 22.95252, 72.63133 22.95355, 72.63135 22.95356, 72.63124 22.95401, 72.6312 22.95405, 72.63115 22.95406, 72.63109 22.95407, 72.63108 22.95413, 72.63106 22.95423, 72.63094 22.95455, 72.63086 22.95478, 72.63057 22.95548, 72.63001 22.95679, 72.6298 22.95726, 72.6298 22.95726, 72.62909 22.95887)"
  },
  {
    "stopName": "Parsi Agiyari",
    "stopCode": 1303,
    "stationCode": 2318,
    "stopType": "MUNICIPAL_BUS",
    "shortStopName": null,
    "Position": {
      "stopLongitude": "72.597448",
      "stopLatitude": "23.011873"
    },
    "RouteCodes": null,
    "Sequence": 7,
    "routeFlow": null
  },
  {
    "stopName": "The Arena (Abad Dairy)",
    "stopCode": 1304,
    "stationCode": 1054,
    "stopType": "MUNICIPAL_BUS",
    "shortStopName": null,
    "Position": {
      "stopLongitude": "72.599133",
      "stopLatitude": "23.009843"
    },
    "RouteCodes": null,
    "Sequence": 8,
    "routeFlow": null
  },
  {
    "stopName": "Aradhana Society",
    "stopCode": 1313,
    "stationCode": 1153,
    "stopType": "MUNICIPAL_BUS",
    "shortStopName": null,
    "Position": {
      "stopLongitude": "72.611558",
      "stopLatitude": "22.991276"
    },
    "RouteCodes": null,
    "Sequence": 22,
    "routeFlow": null
  },
  {
    "stopName": "Kumbhanath Society",
    "stopCode": 1314,
    "stationCode": 1935,
    "stopType": "MUNICIPAL_BUS",
    "shortStopName": null,
    "Position": {
      "stopLongitude": "72.611231",
      "stopLatitude": "22.989675"
    },
    "RouteCodes": null,
    "Sequence": 23,
    "routeFlow": null
  },
  {
    "stopName": "Sarangpur",
    "stopCode": 1844,
    "stationCode": 2593,
    "stopType": "MUNICIPAL_BUS",
    "shortStopName": null,
    "Position": {
      "stopLongitude": "72.5993",
      "stopLatitude": "23.023465"
    },
    "RouteCodes": null,
    "Sequence": 1,
    "routeFlow": null
  },
  {
    "stopName": "New Cloth Market",
    "stopCode": 1845,
    "stationCode": 2208,
    "stopType": "MUNICIPAL_BUS",
    "shortStopName": null,
    "Position": {
      "stopLongitude": "72.598915",
      "stopLatitude": "23.01886"
    },
    "RouteCodes": null,
    "Sequence": 2,
    "routeFlow": null
  },
  {
    "stopName": "Mahipatram Ashram",
    "stopCode": 1846,
    "stationCode": 2012,
    "stopType": "MUNICIPAL_BUS",
    "shortStopName": null,
    "Position": {
      "stopLongitude": "72.597764",
      "stopLatitude": "23.017908"
    },
    "RouteCodes": null,
    "Sequence": 3,
    "routeFlow": null
  },
  {
    "stopName": "Pushpakunj-Shukladada Chowk",
    "stopCode": 2235,
    "stationCode": 2400,
    "stopType": "MUNICIPAL_BUS",
    "shortStopName": null,
    "Position": {
      "stopLongitude": "72.598783",
      "stopLatitude": "23.002841"
    },
    "RouteCodes": null,
    "Sequence": 11,
    "routeFlow": null
  },
  {
    "stopName": "Shelat Bhuvan",
    "stopCode": 2236,
    "stationCode": 2712,
    "stopType": "MUNICIPAL_BUS",
    "shortStopName": null,
    "Position": {
      "stopLongitude": "72.600586",
      "stopLatitude": "23.000241"
    },
    "RouteCodes": null,
    "Sequence": 12,
    "routeFlow": null
  },
  {
    "stopName": "Rambag",
    "stopCode": 2237,
    "stationCode": 2464,
    "stopType": "MUNICIPAL_BUS",
    "shortStopName": null,
    "Position": {
      "stopLongitude": "72.60157",
      "stopLatitude": "22.99889"
    },
    "RouteCodes": null,
    "Sequence": 13,
    "routeFlow": null
  },
  {
    "stopName": "Krushna bag",
    "stopCode": 2238,
    "stationCode": 1924,
    "stopType": "MUNICIPAL_BUS",
    "shortStopName": null,
    "Position": {
      "stopLongitude": "72.603876",
      "stopLatitude": "22.997546"
    },
    "RouteCodes": null,
    "Sequence": 14,
    "routeFlow": null
  },
  {
    "stopName": "Maninagar Railway Crossing",
    "stopCode": 2876,
    "stationCode": 2044,
    "stopType": "MUNICIPAL_BUS",
    "shortStopName": null,
    "Position": {
      "stopLongitude": "72.611976",
      "stopLatitude": "22.994785"
    },
    "RouteCodes": null,
    "Sequence": 17,
    "routeFlow": null
  },
  {
    "stopName": "Swaminarayan Mandir (Maninagar)",
    "stopCode": 2877,
    "stationCode": 2891,
    "stopType": "MUNICIPAL_BUS",
    "shortStopName": null,
    "Position": {
      "stopLongitude": "72.61057",
      "stopLatitude": "22.994919"
    },
    "RouteCodes": null,
    "Sequence": 18,
    "routeFlow": null
  },
  {
    "stopName": "Maninagar Char Rasta",
    "stopCode": 2945,
    "stationCode": 2043,
    "stopType": "MUNICIPAL_BUS",
    "shortStopName": null,
    "Position": {
      "stopLongitude": "72.607961",
      "stopLatitude": "22.997288"
    },
    "RouteCodes": null,
    "Sequence": 15,
    "routeFlow": null
  },
  {
    "stopName": "Football Ground",
    "stopCode": 3214,
    "stationCode": 1499,
    "stopType": "MUNICIPAL_BUS",
    "shortStopName": null,
    "Position": {
      "stopLongitude": "72.596965",
      "stopLatitude": "23.007338"
    },
    "RouteCodes": null,
    "Sequence": 10,
    "routeFlow": null
  },
  {
    "stopName": "Maninagar",
    "stopCode": 3215,
    "stationCode": 2042,
    "stopType": "MUNICIPAL_BUS",
    "shortStopName": null,
    "Position": {
      "stopLongitude": "72.611666",
      "stopLatitude": "22.99774"
    },
    "RouteCodes": null,
    "Sequence": 16,
    "routeFlow": null
  },
  {
    "stopName": "Ashapuri Society (Avkar Hall)",
    "stopCode": 3216,
    "stationCode": 1174,
    "stopType": "MUNICIPAL_BUS",
    "shortStopName": null,
    "Position": {
      "stopLongitude": "72.611373",
      "stopLatitude": "22.98751"
    },
    "RouteCodes": null,
    "Sequence": 24,
    "routeFlow": null
  },
  {
    "stopName": "Royal Tiles",
    "stopCode": 3235,
    "stationCode": 2510,
    "stopType": "MUNICIPAL_BUS",
    "shortStopName": null,
    "Position": {
      "stopLongitude": "72.610936",
      "stopLatitude": "22.978166"
    },
    "RouteCodes": null,
    "Sequence": 26,
    "routeFlow": null
  },
  {
    "stopName": "Smruti Mandir",
    "stopCode": 3236,
    "stationCode": 2809,
    "stopType": "MUNICIPAL_BUS",
    "shortStopName": null,
    "Position": {
      "stopLongitude": "72.610951",
      "stopLatitude": "22.974998"
    },
    "RouteCodes": null,
    "Sequence": 27,
    "routeFlow": null
  },
  {
    "stopName": "Devbhumi Society (Smruti Mandir)",
    "stopCode": 3237,
    "stationCode": 1439,
    "stopType": "MUNICIPAL_BUS",
    "shortStopName": null,
    "Position": {
      "stopLongitude": "72.613706",
      "stopLatitude": "22.9723"
    },
    "RouteCodes": null,
    "Sequence": 28,
    "routeFlow": null
  },
  {
    "stopName": "Vandevi Bunglows",
    "stopCode": 3238,
    "stationCode": 2707,
    "stopType": "MUNICIPAL_BUS",
    "shortStopName": null,
    "Position": {
      "stopLongitude": "72.614615",
      "stopLatitude": "22.971628"
    },
    "RouteCodes": null,
    "Sequence": 29,
    "routeFlow": null
  },
  {
    "stopName": "Keshavnagar (Nigam)",
    "stopCode": 3239,
    "stationCode": 1875,
    "stopType": "MUNICIPAL_BUS",
    "shortStopName": null,
    "Position": {
      "stopLongitude": "72.616188",
      "stopLatitude": "22.97129"
    },
    "RouteCodes": null,
    "Sequence": 30,
    "routeFlow": null
  },
  {
    "stopName": "Nigam Society",
    "stopCode": 3240,
    "stationCode": 2218,
    "stopType": "MUNICIPAL_BUS",
    "shortStopName": null,
    "Position": {
      "stopLongitude": "72.619805",
      "stopLatitude": "22.97113"
    },
    "RouteCodes": null,
    "Sequence": 31,
    "routeFlow": null
  },
  {
    "stopName": "Adam Sahebni Dargah",
    "stopCode": 4022,
    "stationCode": 1066,
    "stopType": "MUNICIPAL_BUS",
    "shortStopName": null,
    "Position": {
      "stopLongitude": "72.596183",
      "stopLatitude": "23.013606"
    },
    "RouteCodes": null,
    "Sequence": 6,
    "routeFlow": null
  },
  {
    "stopName": "Muktjivan Vidya Mandir",
    "stopCode": 4023,
    "stationCode": 2111,
    "stopType": "MUNICIPAL_BUS",
    "shortStopName": null,
    "Position": {
      "stopLongitude": "72.611181",
      "stopLatitude": "22.98235"
    },
    "RouteCodes": null,
    "Sequence": 25,
    "routeFlow": null
  },
  {
    "stopName": "Urmijivan Society",
    "stopCode": 4282,
    "stationCode": 2974,
    "stopType": "MUNICIPAL_BUS",
    "shortStopName": null,
    "Position": {
      "stopLongitude": "72.627125",
      "stopLatitude": "22.950132"
    },
    "RouteCodes": null,
    "Sequence": 44,
    "routeFlow": null
  },
  {
    "stopName": "Shraddhakunj Society",
    "stopCode": 4540,
    "stationCode": 2732,
    "stopType": "MUNICIPAL_BUS",
    "shortStopName": null,
    "Position": {
      "stopLongitude": "72.630248",
      "stopLatitude": "22.950298"
    },
    "RouteCodes": null,
    "Sequence": 45,
    "routeFlow": null
  },
  {
    "stopName": "Vatva Railway Colony",
    "stopCode": 4785,
    "stationCode": 3028,
    "stopType": "MUNICIPAL_BUS",
    "shortStopName": null,
    "Position": {
      "stopLongitude": "72.631313",
      "stopLatitude": "22.953549"
    },
    "RouteCodes": null,
    "Sequence": 46,
    "routeFlow": null
  },
  {
    "stopName": "Kamnath Mahadev",
    "stopCode": 4865,
    "stationCode": 1848,
    "stopType": "MUNICIPAL_BUS",
    "shortStopName": null,
    "Position": {
      "stopLongitude": "72.59579",
      "stopLatitude": "23.01446"
    },
    "RouteCodes": null,
    "Sequence": 5,
    "routeFlow": null
  },
  {
    "stopName": "Vyayam Vidyalay",
    "stopCode": 4869,
    "stationCode": 3085,
    "stopType": "MUNICIPAL_BUS",
    "shortStopName": null,
    "Position": {
      "stopLongitude": "72.59873",
      "stopLatitude": "23.008873"
    },
    "RouteCodes": null,
    "Sequence": 9,
    "routeFlow": null
  },
  {
    "stopName": "Ramdev Nagar",
    "stopCode": 4889,
    "stationCode": 1479,
    "stopType": "MUNICIPAL_BUS",
    "shortStopName": null,
    "Position": {
      "stopLongitude": "72.623805",
      "stopLatitude": "22.96615"
    },
    "RouteCodes": null,
    "Sequence": 35,
    "routeFlow": null
  },
  {
    "stopName": "Shyamaprasad Garib Aawas Yojana",
    "stopCode": 4890,
    "stationCode": 2784,
    "stopType": "MUNICIPAL_BUS",
    "shortStopName": null,
    "Position": {
      "stopLongitude": "72.622804",
      "stopLatitude": "22.964225"
    },
    "RouteCodes": null,
    "Sequence": 36,
    "routeFlow": null
  },
  {
    "stopName": "Durganagar",
    "stopCode": 4898,
    "stationCode": 1478,
    "stopType": "MUNICIPAL_BUS",
    "shortStopName": null,
    "Position": {
      "stopLongitude": "72.624726",
      "stopLatitude": "22.967191"
    },
    "RouteCodes": null,
    "Sequence": 34,
    "routeFlow": null
  },
  {
    "stopName": "Kalgi Apartment",
    "stopCode": 5955,
    "stationCode": 6537,
    "stopType": "MUNICIPAL_BUS",
    "shortStopName": null,
    "Position": {
      "stopLongitude": "72.609225",
      "stopLatitude": "22.992819"
    },
    "RouteCodes": null,
    "Sequence": 21,
    "routeFlow": null
  },
  {
    "stopName": "Doon School",
    "stopCode": 5957,
    "stationCode": 6538,
    "stopType": "MUNICIPAL_BUS",
    "shortStopName": null,
    "Position": {
      "stopLongitude": "72.60739",
      "stopLatitude": "22.994063"
    },
    "RouteCodes": null,
    "Sequence": 20,
    "routeFlow": null
  },
  {
    "stopName": "Radhavallabh Mandir",
    "stopCode": 5959,
    "stationCode": 2420,
    "stopType": "MUNICIPAL_BUS",
    "shortStopName": null,
    "Position": {
      "stopLongitude": "72.60776",
      "stopLatitude": "22.995016"
    },
    "RouteCodes": null,
    "Sequence": 19,
    "routeFlow": null
  },
  {
    "stopName": "Vatva Railway Fatak",
    "stopCode": 8380,
    "stationCode": 7294,
    "stopType": "MUNICIPAL_BUS",
    "shortStopName": null,
    "Position": {
      "stopLongitude": "72.629771",
      "stopLatitude": "22.95725"
    },
    "RouteCodes": null,
    "Sequence": 47,
    "routeFlow": null
  },
  {
    "stopName": "Vatva Railway Station",
    "stopCode": 8729,
    "stationCode": 6112,
    "stopType": "MUNICIPAL_BUS",
    "shortStopName": null,
    "Position": {
      "stopLongitude": "72.62907",
      "stopLatitude": "22.95886"
    },
    "RouteCodes": null,
    "Sequence": 48,
    "routeFlow": null
  },
  {
    "stopName": "Shivshakti Society",
    "stopCode": 9136,
    "stationCode": 6305,
    "stopType": "MUNICIPAL_BUS",
    "shortStopName": null,
    "Position": {
      "stopLongitude": "72.624344",
      "stopLatitude": "22.95023"
    },
    "RouteCodes": null,
    "Sequence": 43,
    "routeFlow": null
  },
  {
    "stopName": "Shri HariKrushan Residency",
    "stopCode": 9138,
    "stationCode": 6307,
    "stopType": "MUNICIPAL_BUS",
    "shortStopName": null,
    "Position": {
      "stopLongitude": "72.624779",
      "stopLatitude": "22.952353"
    },
    "RouteCodes": null,
    "Sequence": 42,
    "routeFlow": null
  },
  {
    "stopName": "Dhanpaleshwar Society",
    "stopCode": 9140,
    "stationCode": 6306,
    "stopType": "MUNICIPAL_BUS",
    "shortStopName": null,
    "Position": {
      "stopLongitude": "72.626003",
      "stopLatitude": "22.95507"
    },
    "RouteCodes": null,
    "Sequence": 41,
    "routeFlow": null
  },
  {
    "stopName": "Saibaba Apartment",
    "stopCode": 9142,
    "stationCode": 6308,
    "stopType": "MUNICIPAL_BUS",
    "shortStopName": null,
    "Position": {
      "stopLongitude": "72.625831",
      "stopLatitude": "22.957619"
    },
    "RouteCodes": null,
    "Sequence": 40,
    "routeFlow": null
  },
  {
    "stopName": "Jaimin Park (Pani ni Tanki)",
    "stopCode": 9144,
    "stationCode": 6309,
    "stopType": "MUNICIPAL_BUS",
    "shortStopName": null,
    "Position": {
      "stopLongitude": "72.624576",
      "stopLatitude": "22.958982"
    },
    "RouteCodes": null,
    "Sequence": 39,
    "routeFlow": null
  },
  {
    "stopName": "Ayppa Mandir",
    "stopCode": 9146,
    "stationCode": 6310,
    "stopType": "MUNICIPAL_BUS",
    "shortStopName": null,
    "Position": {
      "stopLongitude": "72.622719",
      "stopLatitude": "22.959002"
    },
    "RouteCodes": null,
    "Sequence": 38,
    "routeFlow": null
  },
  {
    "stopName": "Shadbhavna Police Choki",
    "stopCode": 9148,
    "stationCode": 6311,
    "stopType": "MUNICIPAL_BUS",
    "shortStopName": null,
    "Position": {
      "stopLongitude": "72.622702",
      "stopLatitude": "22.961522"
    },
    "RouteCodes": null,
    "Sequence": 37,
    "routeFlow": null
  },
  {
    "stopName": "Vishvakarma Society",
    "stopCode": 9150,
    "stationCode": 6312,
    "stopType": "MUNICIPAL_BUS",
    "shortStopName": null,
    "Position": {
      "stopLongitude": "72.624211",
      "stopLatitude": "22.96974"
    },
    "RouteCodes": null,
    "Sequence": 33,
    "routeFlow": null
  },
  {
    "stopName": "Trithy Flat",
    "stopCode": 9152,
    "stationCode": 6313,
    "stopType": "MUNICIPAL_BUS",
    "shortStopName": null,
    "Position": {
      "stopLongitude": "72.623357",
      "stopLatitude": "22.971075"
    },
    "RouteCodes": null,
    "Sequence": 32,
    "routeFlow": null
  }
]