[
  {
    "stopName": "M.L.A. Quarters",
    "stopCode": 1105,
    "stationCode": 1978,
    "stopType": "MUNICIPAL_BUS",
    "shortStopName": null,
    "Position": {
      "stopLongitude": "72.608781",
      "stopLatitude": "23.04986"
    },
    "RouteCodes": null,
    "Sequence": 7,
    "routeFlow": "LINESTRING (72.61799 23.05937, 72.6178 23.05842, 72.61776 23.05826, 72.61777 23.05808, 72.61762 23.0571, 72.61762 23.05708, 72.6176 23.05689, 72.61761 23.05657, 72.61772 23.05621, 72.61787 23.0558, 72.61795 23.05546, 72.61801 23.05511, 72.61801 23.05511, 72.6181 23.05444, 72.61811 23.05435, 72.61803 23.05432, 72.61787 23.05428, 72.61734 23.05407, 72.61671 23.05384, 72.616 23.05359, 72.616 23.05359, 72.61518 23.05333, 72.6146 23.05315, 72.61391 23.05272, 72.61367 23.05262, 72.6135 23.05258, 72.6135 23.05258, 72.61291 23.05244, 72.61203 23.0523, 72.61172 23.05228, 72.61102 23.05228, 72.61073 23.05235, 72.61025 23.05257, 72.61 23.05214, 72.61 23.05214, 72.60971 23.05163, 72.60926 23.05097, 72.60898 23.05045, 72.60887 23.05018, 72.60876 23.04986, 72.60876 23.04986, 72.60834 23.04878, 72.60833 23.04871, 72.60752 23.04875, 72.60623 23.04886, 72.60623 23.04886, 72.60574 23.04889, 72.60388 23.04913, 72.60311 23.04922, 72.60311 23.04922, 72.60181 23.04938, 72.60162 23.04942, 72.60154 23.04944, 72.60151 23.04932, 72.60149 23.04922, 72.60144 23.04758, 72.60144 23.04758, 72.60142 23.04694, 72.60139 23.04689, 72.60144 23.04545, 72.60145 23.04526, 72.60147 23.04409, 72.60147 23.04409, 72.60148 23.04386, 72.60145 23.043, 72.60144 23.04268, 72.60141 23.04245, 72.6014 23.04237, 72.6014 23.04237, 72.60135 23.04222, 72.60116 23.04184, 72.60081 23.04114, 72.60073 23.04103, 72.60073 23.04103, 72.60053 23.04075, 72.6002 23.04006, 72.60004 23.03959, 72.60001 23.03942, 72.59998 23.03907, 72.59988 23.03909, 72.59895 23.03926, 72.59805 23.03952, 72.5972 23.03985, 72.59698 23.03989, 72.59678 23.03994, 72.59675 23.03992, 72.59672 23.03991, 72.59669 23.0399, 72.59667 23.03981, 72.59672 23.03909, 72.59676 23.03886, 72.59676 23.03886, 72.59705 23.03733, 72.59735 23.03613, 72.59737 23.03606, 72.59737 23.03606, 72.59751 23.03542, 72.59752 23.03529, 72.5975 23.03509, 72.59756 23.03502, 72.5976 23.03491, 72.59763 23.03477, 72.5976 23.03469, 72.59777 23.03405, 72.59801 23.03317, 72.59826 23.03228, 72.59833 23.03207, 72.59872 23.03126, 72.5988 23.03109, 72.59939 23.03124, 72.60013 23.03139, 72.60024 23.03134, 72.6003 23.03124, 72.60033 23.03077, 72.60032 23.03024, 72.60032 23.03024, 72.60029 23.02853, 72.6003 23.02786, 72.60029 23.02661, 72.60029 23.02623, 72.60026 23.0256, 72.60024 23.02532, 72.60018 23.02505, 72.60013 23.02486, 72.60007 23.02477, 72.59925 23.02349, 72.599269 23.023491, 72.59902 23.02311, 72.59896 23.02298, 72.59891 23.02273, 72.59896 23.0223, 72.59904 23.02197, 72.59919 23.02131, 72.59941 23.02024, 72.59942 23.01999, 72.59938 23.01967, 72.5993 23.01946, 72.59902 23.01901, 72.5989 23.01888, 72.5989 23.01888, 72.59848 23.01847, 72.59825 23.01831, 72.59772 23.01797, 72.59772 23.01797, 72.5972 23.0177, 72.59659 23.01745, 72.59626 23.01738, 72.59572 23.01727, 72.59484 23.01717, 72.59502 23.0162, 72.59502 23.0162, 72.59509 23.0159, 72.59529 23.01542, 72.59578 23.01445, 72.59578 23.01445, 72.59594 23.0141, 72.59609 23.01361, 72.59609 23.01361, 72.59612 23.01352, 72.59644 23.01306, 72.59722 23.0121, 72.59722 23.0121, 72.59893 23.00997, 72.59908 23.0098, 72.59908 23.0098, 72.59928 23.00956, 72.59933 23.0095, 72.59926 23.00945, 72.5987 23.0089, 72.5987 23.0089, 72.59849 23.00866, 72.59818 23.00824, 72.59796 23.00813, 72.5977 23.00801, 72.59754 23.00791, 72.59731 23.00775, 72.59718 23.00763, 72.59693 23.00735, 72.59693 23.00735, 72.59669 23.00708, 72.59632 23.00674, 72.59698 23.00577, 72.59742 23.00498, 72.59766 23.00449, 72.59778 23.0042, 72.59797 23.00363, 72.59814 23.0032, 72.59824 23.00304, 72.59837 23.00296, 72.59875 23.00283, 72.59875 23.00283, 72.59914 23.00269, 72.59918 23.00267, 72.59931 23.00246, 72.59949 23.00203, 72.59955 23.00191, 72.59987 23.00127, 72.60036 23.00044, 72.60045 23.0003, 72.60045 23.0003, 72.60078 22.9998, 72.60098 22.99953, 72.60131 22.99914, 72.6015 22.99889, 72.60162 22.99877, 72.60162 22.99877, 72.60186 22.99858, 72.60231 22.99828, 72.60317 22.99783, 72.60369 22.99763, 72.60369 22.99763, 72.604 22.99752, 72.60457 22.99738, 72.60481 22.99735, 72.60581 22.99728, 72.60677 22.99727, 72.60771 22.99728, 72.60796 22.9973, 72.60796 22.9973, 72.60834 22.99733, 72.60882 22.99744, 72.60968 22.99769, 72.61005 22.99784, 72.61066 22.99813, 72.61126 22.99844, 72.6113 22.99836, 72.6116 22.99771, 72.61161 22.99772, 72.61184 22.99721, 72.61191 22.99716, 72.61224 22.99645, 72.61289 22.99505, 72.61299 22.99484, 72.61299 22.99481, 72.61292 22.99479, 72.61262 22.99478, 72.61198 22.9948, 72.61198 22.9948, 72.61141 22.99483, 72.61088 22.99492, 72.61058 22.99498, 72.61058 22.99498, 72.61018 22.99504, 72.60965 22.99507, 72.60852 22.99507, 72.60777 22.9951, 72.60774 22.99502, 72.60774 22.99502, 72.60767 22.99476, 72.60756 22.99445, 72.60738 22.99407, 72.60738 22.99407, 72.6073 22.99389, 72.60764 22.99368, 72.60773 22.99358, 72.60795 22.99342, 72.60826 22.99322, 72.60838 22.99314, 72.60903 22.99288, 72.6092 22.99278, 72.6092 22.99278, 72.60981 22.99243, 72.61029 22.99217, 72.61163 22.99157, 72.61154 22.99128, 72.61154 22.99128, 72.61125 22.99036, 72.61118 22.99, 72.61116 22.98971, 72.61123 22.98969, 72.61123 22.98969, 72.61116 22.98971, 72.61112 22.98921, 72.61101 22.98883, 72.61095 22.98859, 72.61089 22.9883, 72.61105 22.98819, 72.61116 22.98808, 72.61121 22.98801, 72.61133 22.98783, 72.61135 22.98781, 72.61136 22.9878, 72.61137 22.98776, 72.61135 22.98772, 72.6113 22.98752, 72.6113 22.98752, 72.61126 22.9869, 72.61128 22.98679, 72.61133 22.98668, 72.61141 22.98649, 72.61147 22.98645, 72.61153 22.98635, 72.61159 22.9862, 72.61189 22.98534, 72.61197 22.98518, 72.61208 22.98493, 72.61222 22.98472, 72.61231 22.98464, 72.6125 22.98453, 72.6125 22.98453, 72.61275 22.98439, 72.61311 22.98425, 72.61319 22.9842, 72.61383 22.98351, 72.61481 22.98262, 72.61535 22.98216, 72.61535 22.98216, 72.61589 22.98172, 72.61666 22.98116, 72.61743 22.98068, 72.61757 22.98058, 72.61871 22.97987, 72.61871 22.97987, 72.61912 22.97961, 72.61981 22.97906, 72.62002 22.97891, 72.62014 22.9788, 72.62024 22.97868, 72.62037 22.97834, 72.62044 22.97818, 72.62044 22.97818, 72.62072 22.97751, 72.62059 22.97746, 72.62059 22.97746, 72.61993 22.97722, 72.61879 22.9768, 72.61764 22.97639, 72.61764 22.9764, 72.61688 22.97611, 72.61635 22.97588, 72.61621 22.97581, 72.6161 22.97576, 72.6161 22.97576, 72.6155 22.97546, 72.61531 22.97534, 72.61513 22.9752, 72.61495 22.97501, 72.61481 22.97483, 72.61448 22.97432, 72.61436 22.97398, 72.61412 22.97343, 72.6139 22.97296, 72.61393 22.97295, 72.61388 22.97296, 72.6138 22.97273, 72.61362 22.97231, 72.61445 22.97169, 72.61461 22.97161, 72.61461 22.97161, 72.615 22.97143, 72.6151 22.97143, 72.61535 22.97139, 72.61613 22.97128, 72.61619 22.97128, 72.61619 22.97125, 72.61765 22.97117, 72.61909 22.97114, 72.61982 22.97113, 72.61982 22.97113, 72.61986 22.97118, 72.61993 22.97119, 72.61999 22.97117, 72.62002 22.97112, 72.62052 22.97114, 72.62106 22.97116, 72.62152 22.97115, 72.62276 22.97109, 72.62319 22.97107, 72.62319 22.97107, 72.62356 22.97104, 72.62393 22.97024, 72.62419 22.96964, 72.62502 22.96795, 72.62507 22.96778, 72.62507 22.96772, 72.62497 22.96753, 72.62475 22.96723, 72.62475 22.96723, 72.6246 22.967, 72.62424 22.96663, 72.62395 22.96638, 72.62375 22.9662, 72.62375 22.9662, 72.62353 22.96602, 72.62322 22.96582, 72.62284 22.96563, 72.62274 22.96423, 72.62274 22.96423, 72.62266 22.96255, 72.62266 22.96124, 72.6225 22.96121, 72.6225 22.96121, 72.62004 22.96086, 72.62004 22.96086, 72.61978 22.96082, 72.6197 22.96023, 72.61961 22.95973, 72.61957 22.9593, 72.61955 22.9589, 72.61958 22.95839, 72.61963 22.95818, 72.61964 22.95699, 72.61961 22.95688, 72.61953 22.95671, 72.61944 22.95655, 72.61944 22.95655, 72.61922 22.95611, 72.61919 22.95598, 72.61918 22.95567, 72.61924 22.95493, 72.61929 22.95451, 72.61933 22.95365, 72.61933 22.95365, 72.61937 22.95225, 72.61937 22.95164, 72.61932 22.95135, 72.61916 22.95117, 72.619 22.95121, 72.61839 22.95147, 72.61809 22.95163, 72.61767 22.95191, 72.61746 22.95208, 72.61738 22.952, 72.61739 22.952, 72.61745 22.95206, 72.61721 22.95233, 72.61667 22.95271, 72.61646 22.95282, 72.61634 22.95286, 72.61577 22.95297, 72.61557 22.95302, 72.61556 22.953, 72.61514 22.95307, 72.61498 22.95307, 72.61482 22.95305, 72.61405 22.95302, 72.61385 22.95305, 72.61386 22.95308, 72.61316 22.95331, 72.61303 22.95336, 72.61296 22.9533, 72.61306 22.95297, 72.6131 22.9528, 72.61312 22.95265, 72.61317 22.95269, 72.61317 22.95269, 72.61312 22.95264, 72.61315 22.95227, 72.61315 22.95201, 72.61309 22.95166, 72.61304 22.9515, 72.61293 22.95128, 72.61276 22.95108, 72.61263 22.95088, 72.61263 22.95088, 72.61252 22.95062, 72.61249 22.95049, 72.61243 22.95024, 72.61185 22.9503, 72.61119 22.95037, 72.61119 22.95037, 72.61064 22.95041, 72.61052 22.95045, 72.61047 22.95047, 72.61019 22.95048, 72.61009 22.95047, 72.61005 22.95045, 72.60994 22.95039, 72.60977 22.95033, 72.60948 22.95024, 72.60924 22.95019, 72.60917 22.95017, 72.60917 22.95017, 72.60839 22.94992, 72.60797 22.94977, 72.60765 22.94966, 72.60748 22.9496, 72.60702 22.94938, 72.60702 22.94938, 72.60683 22.94928, 72.60677 22.94948, 72.60439 22.94872, 72.60439 22.94872, 72.60396 22.94862, 72.60264 22.94847, 72.60254 22.94846, 72.6025 22.94861, 72.6025 22.94861, 72.60239 22.94898, 72.60202 22.94963, 72.60166 22.94957, 72.60115 22.94945, 72.60092 22.94942, 72.60093 22.94936, 72.60093 22.94936, 72.60092 22.94942, 72.60048 22.94936, 72.59966 22.94924)"
  },
  {
    "stopName": "Prem Darwaja",
    "stopCode": 1116,
    "stationCode": 2378,
    "stopType": "MUNICIPAL_BUS",
    "shortStopName": null,
    "Position": {
      "stopLongitude": "72.5974",
      "stopLatitude": "23.036065"
    },
    "RouteCodes": null,
    "Sequence": 15,
    "routeFlow": null
  },
  {
    "stopName": "Government Colony",
    "stopCode": 1249,
    "stationCode": 1593,
    "stopType": "MUNICIPAL_BUS",
    "shortStopName": null,
    "Position": {
      "stopLongitude": "72.617628",
      "stopLatitude": "23.05708"
    },
    "RouteCodes": null,
    "Sequence": 2,
    "routeFlow": null
  },
  {
    "stopName": "Raipur Darwaja",
    "stopCode": 1300,
    "stationCode": 2497,
    "stopType": "MUNICIPAL_BUS",
    "shortStopName": null,
    "Position": {
      "stopLongitude": "72.595075",
      "stopLatitude": "23.01621"
    },
    "RouteCodes": null,
    "Sequence": 20,
    "routeFlow": null
  },
  {
    "stopName": "The Arena (Abad Dairy)",
    "stopCode": 1304,
    "stationCode": 1054,
    "stopType": "MUNICIPAL_BUS",
    "shortStopName": null,
    "Position": {
      "stopLongitude": "72.599133",
      "stopLatitude": "23.009843"
    },
    "RouteCodes": null,
    "Sequence": 24,
    "routeFlow": null
  },
  {
    "stopName": "Aradhana Society",
    "stopCode": 1313,
    "stationCode": 1153,
    "stopType": "MUNICIPAL_BUS",
    "shortStopName": null,
    "Position": {
      "stopLongitude": "72.611558",
      "stopLatitude": "22.991276"
    },
    "RouteCodes": null,
    "Sequence": 38,
    "routeFlow": null
  },
  {
    "stopName": "Kumbhanath Society",
    "stopCode": 1314,
    "stationCode": 1935,
    "stopType": "MUNICIPAL_BUS",
    "shortStopName": null,
    "Position": {
      "stopLongitude": "72.611231",
      "stopLatitude": "22.989675"
    },
    "RouteCodes": null,
    "Sequence": 39,
    "routeFlow": null
  },
  {
    "stopName": "Kalupur Terminus",
    "stopCode": 1715,
    "stationCode": 1840,
    "stopType": "MUNICIPAL_BUS",
    "shortStopName": null,
    "Position": {
      "stopLongitude": "72.600373",
      "stopLatitude": "23.030241"
    },
    "RouteCodes": null,
    "Sequence": 16,
    "routeFlow": null
  },
  {
    "stopName": "Karnavati Chowk-4 (New Narol)",
    "stopCode": 1802,
    "stationCode": 1554,
    "stopType": "MUNICIPAL_BUS",
    "shortStopName": null,
    "Position": {
      "stopLongitude": "72.59968",
      "stopLatitude": "22.949145"
    },
    "RouteCodes": null,
    "Sequence": 72,
    "routeFlow": null
  },
  {
    "stopName": "Sarangpur",
    "stopCode": 1844,
    "stationCode": 2593,
    "stopType": "MUNICIPAL_BUS",
    "shortStopName": null,
    "Position": {
      "stopLongitude": "72.5993",
      "stopLatitude": "23.023465"
    },
    "RouteCodes": null,
    "Sequence": 17,
    "routeFlow": null
  },
  {
    "stopName": "New Cloth Market",
    "stopCode": 1845,
    "stationCode": 2208,
    "stopType": "MUNICIPAL_BUS",
    "shortStopName": null,
    "Position": {
      "stopLongitude": "72.598915",
      "stopLatitude": "23.01886"
    },
    "RouteCodes": null,
    "Sequence": 18,
    "routeFlow": null
  },
  {
    "stopName": "Mahipatram Ashram",
    "stopCode": 1846,
    "stationCode": 2012,
    "stopType": "MUNICIPAL_BUS",
    "shortStopName": null,
    "Position": {
      "stopLongitude": "72.597764",
      "stopLatitude": "23.017908"
    },
    "RouteCodes": null,
    "Sequence": 19,
    "routeFlow": null
  },
  {
    "stopName": "Maninagar Railway Crossing",
    "stopCode": 2876,
    "stationCode": 2044,
    "stopType": "MUNICIPAL_BUS",
    "shortStopName": null,
    "Position": {
      "stopLongitude": "72.611976",
      "stopLatitude": "22.994785"
    },
    "RouteCodes": null,
    "Sequence": 33,
    "routeFlow": null
  },
  {
    "stopName": "Swaminarayan Mandir (Maninagar)",
    "stopCode": 2877,
    "stationCode": 2891,
    "stopType": "MUNICIPAL_BUS",
    "shortStopName": null,
    "Position": {
      "stopLongitude": "72.61057",
      "stopLatitude": "22.994919"
    },
    "RouteCodes": null,
    "Sequence": 34,
    "routeFlow": null
  },
  {
    "stopName": "Maninagar",
    "stopCode": 3215,
    "stationCode": 2042,
    "stopType": "MUNICIPAL_BUS",
    "shortStopName": null,
    "Position": {
      "stopLongitude": "72.611666",
      "stopLatitude": "22.99774"
    },
    "RouteCodes": null,
    "Sequence": 32,
    "routeFlow": null
  },
  {
    "stopName": "Ashapuri Society (Avkar Hall)",
    "stopCode": 3216,
    "stationCode": 1174,
    "stopType": "MUNICIPAL_BUS",
    "shortStopName": null,
    "Position": {
      "stopLongitude": "72.611373",
      "stopLatitude": "22.98751"
    },
    "RouteCodes": null,
    "Sequence": 40,
    "routeFlow": null
  },
  {
    "stopName": "Ghodasar Gam",
    "stopCode": 3217,
    "stationCode": 1548,
    "stopType": "MUNICIPAL_BUS",
    "shortStopName": null,
    "Position": {
      "stopLongitude": "72.612538",
      "stopLatitude": "22.98459"
    },
    "RouteCodes": null,
    "Sequence": 41,
    "routeFlow": null
  },
  {
    "stopName": "Vandevi Bunglows",
    "stopCode": 3238,
    "stationCode": 2707,
    "stopType": "MUNICIPAL_BUS",
    "shortStopName": null,
    "Position": {
      "stopLongitude": "72.614615",
      "stopLatitude": "22.971628"
    },
    "RouteCodes": null,
    "Sequence": 49,
    "routeFlow": null
  },
  {
    "stopName": "Keshavnagar (Nigam)",
    "stopCode": 3239,
    "stationCode": 1875,
    "stopType": "MUNICIPAL_BUS",
    "shortStopName": null,
    "Position": {
      "stopLongitude": "72.616188",
      "stopLatitude": "22.97129"
    },
    "RouteCodes": null,
    "Sequence": 50,
    "routeFlow": null
  },
  {
    "stopName": "Nigam Society",
    "stopCode": 3240,
    "stationCode": 2218,
    "stopType": "MUNICIPAL_BUS",
    "shortStopName": null,
    "Position": {
      "stopLongitude": "72.619805",
      "stopLatitude": "22.97113"
    },
    "RouteCodes": null,
    "Sequence": 51,
    "routeFlow": null
  },
  {
    "stopName": "Cadila Laboratories",
    "stopCode": 3815,
    "stationCode": 1328,
    "stopType": "MUNICIPAL_BUS",
    "shortStopName": null,
    "Position": {
      "stopLongitude": "72.615363",
      "stopLatitude": "22.982168"
    },
    "RouteCodes": null,
    "Sequence": 42,
    "routeFlow": null
  },
  {
    "stopName": "Jagdish Society",
    "stopCode": 3816,
    "stationCode": 1739,
    "stopType": "MUNICIPAL_BUS",
    "shortStopName": null,
    "Position": {
      "stopLongitude": "72.618726",
      "stopLatitude": "22.979893"
    },
    "RouteCodes": null,
    "Sequence": 43,
    "routeFlow": null
  },
  {
    "stopName": "Hari Krishna Park",
    "stopCode": 3869,
    "stationCode": 1653,
    "stopType": "MUNICIPAL_BUS",
    "shortStopName": null,
    "Position": {
      "stopLongitude": "72.620468",
      "stopLatitude": "22.978186"
    },
    "RouteCodes": null,
    "Sequence": 44,
    "routeFlow": null
  },
  {
    "stopName": "Jogni Matanu Mandir",
    "stopCode": 4064,
    "stationCode": 1798,
    "stopType": "MUNICIPAL_BUS",
    "shortStopName": null,
    "Position": {
      "stopLongitude": "72.612683",
      "stopLatitude": "22.950853"
    },
    "RouteCodes": null,
    "Sequence": 65,
    "routeFlow": null
  },
  {
    "stopName": "Durganagar",
    "stopCode": 4112,
    "stationCode": 1478,
    "stopType": "MUNICIPAL_BUS",
    "shortStopName": null,
    "Position": {
      "stopLongitude": "72.624789",
      "stopLatitude": "22.967209"
    },
    "RouteCodes": null,
    "Sequence": 53,
    "routeFlow": null
  },
  {
    "stopName": "Meghaninagar",
    "stopCode": 4850,
    "stationCode": 2071,
    "stopType": "MUNICIPAL_BUS",
    "shortStopName": null,
    "Position": {
      "stopLongitude": "72.617985",
      "stopLatitude": "23.05937"
    },
    "RouteCodes": null,
    "Sequence": 1,
    "routeFlow": null
  },
  {
    "stopName": "Ratnasagar Society",
    "stopCode": 4852,
    "stationCode": 2491,
    "stopType": "MUNICIPAL_BUS",
    "shortStopName": null,
    "Position": {
      "stopLongitude": "72.618055",
      "stopLatitude": "23.055114"
    },
    "RouteCodes": null,
    "Sequence": 3,
    "routeFlow": null
  },
  {
    "stopName": "Tatanagar",
    "stopCode": 4853,
    "stationCode": 2918,
    "stopType": "MUNICIPAL_BUS",
    "shortStopName": null,
    "Position": {
      "stopLongitude": "72.616015",
      "stopLatitude": "23.053547"
    },
    "RouteCodes": null,
    "Sequence": 4,
    "routeFlow": null
  },
  {
    "stopName": "Mental Corner",
    "stopCode": 4855,
    "stationCode": 2079,
    "stopType": "MUNICIPAL_BUS",
    "shortStopName": null,
    "Position": {
      "stopLongitude": "72.610077",
      "stopLatitude": "23.052104"
    },
    "RouteCodes": null,
    "Sequence": 6,
    "routeFlow": null
  },
  {
    "stopName": "Cancer Hospital",
    "stopCode": 4857,
    "stationCode": 1334,
    "stopType": "MUNICIPAL_BUS",
    "shortStopName": null,
    "Position": {
      "stopLongitude": "72.60623",
      "stopLatitude": "23.048829"
    },
    "RouteCodes": null,
    "Sequence": 8,
    "routeFlow": null
  },
  {
    "stopName": "Civil Hospital",
    "stopCode": 4858,
    "stationCode": 1398,
    "stopType": "MUNICIPAL_BUS",
    "shortStopName": null,
    "Position": {
      "stopLongitude": "72.60311",
      "stopLatitude": "23.04925"
    },
    "RouteCodes": null,
    "Sequence": 9,
    "routeFlow": null
  },
  {
    "stopName": "Baliya Limbdi",
    "stopCode": 4859,
    "stationCode": 1231,
    "stopType": "MUNICIPAL_BUS",
    "shortStopName": null,
    "Position": {
      "stopLongitude": "72.60145",
      "stopLatitude": "23.047579"
    },
    "RouteCodes": null,
    "Sequence": 10,
    "routeFlow": null
  },
  {
    "stopName": "Babupura",
    "stopCode": 4860,
    "stationCode": 1213,
    "stopType": "MUNICIPAL_BUS",
    "shortStopName": null,
    "Position": {
      "stopLongitude": "72.601494",
      "stopLatitude": "23.044089"
    },
    "RouteCodes": null,
    "Sequence": 11,
    "routeFlow": null
  },
  {
    "stopName": "Haripura",
    "stopCode": 4861,
    "stationCode": 1662,
    "stopType": "MUNICIPAL_BUS",
    "shortStopName": null,
    "Position": {
      "stopLongitude": "72.601419",
      "stopLatitude": "23.042367"
    },
    "RouteCodes": null,
    "Sequence": 12,
    "routeFlow": null
  },
  {
    "stopName": "Aryoday Geening (Asarwa)",
    "stopCode": 4862,
    "stationCode": 1169,
    "stopType": "MUNICIPAL_BUS",
    "shortStopName": null,
    "Position": {
      "stopLongitude": "72.600782",
      "stopLatitude": "23.040995"
    },
    "RouteCodes": null,
    "Sequence": 13,
    "routeFlow": null
  },
  {
    "stopName": "Idga Chowki",
    "stopCode": 4863,
    "stationCode": 1703,
    "stopType": "MUNICIPAL_BUS",
    "shortStopName": null,
    "Position": {
      "stopLongitude": "72.59674",
      "stopLatitude": "23.038857"
    },
    "RouteCodes": null,
    "Sequence": 14,
    "routeFlow": null
  },
  {
    "stopName": "Kamnath Mahadev",
    "stopCode": 4865,
    "stationCode": 1848,
    "stopType": "MUNICIPAL_BUS",
    "shortStopName": null,
    "Position": {
      "stopLongitude": "72.59579",
      "stopLatitude": "23.01446"
    },
    "RouteCodes": null,
    "Sequence": 21,
    "routeFlow": null
  },
  {
    "stopName": "Adam Sahebni Dargah",
    "stopCode": 4866,
    "stationCode": 1066,
    "stopType": "MUNICIPAL_BUS",
    "shortStopName": null,
    "Position": {
      "stopLongitude": "72.596147",
      "stopLatitude": "23.013627"
    },
    "RouteCodes": null,
    "Sequence": 22,
    "routeFlow": null
  },
  {
    "stopName": "Parsi Agiyari",
    "stopCode": 4867,
    "stationCode": 2318,
    "stopType": "MUNICIPAL_BUS",
    "shortStopName": null,
    "Position": {
      "stopLongitude": "72.597244",
      "stopLatitude": "23.012114"
    },
    "RouteCodes": null,
    "Sequence": 23,
    "routeFlow": null
  },
  {
    "stopName": "Vyayam Vidyalay",
    "stopCode": 4869,
    "stationCode": 3085,
    "stopType": "MUNICIPAL_BUS",
    "shortStopName": null,
    "Position": {
      "stopLongitude": "72.59873",
      "stopLatitude": "23.008873"
    },
    "RouteCodes": null,
    "Sequence": 25,
    "routeFlow": null
  },
  {
    "stopName": "Football Ground",
    "stopCode": 4870,
    "stationCode": 1499,
    "stopType": "MUNICIPAL_BUS",
    "shortStopName": null,
    "Position": {
      "stopLongitude": "72.596955",
      "stopLatitude": "23.007327"
    },
    "RouteCodes": null,
    "Sequence": 26,
    "routeFlow": null
  },
  {
    "stopName": "Pushpakunj-Shukladada Chowk",
    "stopCode": 4871,
    "stationCode": 2400,
    "stopType": "MUNICIPAL_BUS",
    "shortStopName": null,
    "Position": {
      "stopLongitude": "72.598762",
      "stopLatitude": "23.002854"
    },
    "RouteCodes": null,
    "Sequence": 27,
    "routeFlow": null
  },
  {
    "stopName": "Shelat Bhuvan",
    "stopCode": 4872,
    "stationCode": 2712,
    "stopType": "MUNICIPAL_BUS",
    "shortStopName": null,
    "Position": {
      "stopLongitude": "72.600502",
      "stopLatitude": "23.000322"
    },
    "RouteCodes": null,
    "Sequence": 28,
    "routeFlow": null
  },
  {
    "stopName": "Rambag",
    "stopCode": 4873,
    "stationCode": 2464,
    "stopType": "MUNICIPAL_BUS",
    "shortStopName": null,
    "Position": {
      "stopLongitude": "72.601649",
      "stopLatitude": "22.998795"
    },
    "RouteCodes": null,
    "Sequence": 29,
    "routeFlow": null
  },
  {
    "stopName": "Krushna bag",
    "stopCode": 4874,
    "stationCode": 1924,
    "stopType": "MUNICIPAL_BUS",
    "shortStopName": null,
    "Position": {
      "stopLongitude": "72.603699",
      "stopLatitude": "22.997645"
    },
    "RouteCodes": null,
    "Sequence": 30,
    "routeFlow": null
  },
  {
    "stopName": "Maninagar Char Rasta",
    "stopCode": 4875,
    "stationCode": 2043,
    "stopType": "MUNICIPAL_BUS",
    "shortStopName": null,
    "Position": {
      "stopLongitude": "72.607962",
      "stopLatitude": "22.997289"
    },
    "RouteCodes": null,
    "Sequence": 31,
    "routeFlow": null
  },
  {
    "stopName": "Punitnagar Cross Road",
    "stopCode": 4884,
    "stationCode": 2395,
    "stopType": "MUNICIPAL_BUS",
    "shortStopName": null,
    "Position": {
      "stopLongitude": "72.6206",
      "stopLatitude": "22.977424"
    },
    "RouteCodes": null,
    "Sequence": 45,
    "routeFlow": null
  },
  {
    "stopName": "Yash Bunglows",
    "stopCode": 4885,
    "stationCode": 3093,
    "stopType": "MUNICIPAL_BUS",
    "shortStopName": null,
    "Position": {
      "stopLongitude": "72.617648",
      "stopLatitude": "22.976371"
    },
    "RouteCodes": null,
    "Sequence": 46,
    "routeFlow": null
  },
  {
    "stopName": "Hariomnagar",
    "stopCode": 4886,
    "stationCode": 1661,
    "stopType": "MUNICIPAL_BUS",
    "shortStopName": null,
    "Position": {
      "stopLongitude": "72.616108",
      "stopLatitude": "22.975742"
    },
    "RouteCodes": null,
    "Sequence": 47,
    "routeFlow": null
  },
  {
    "stopName": "Shyam Bunglows",
    "stopCode": 4887,
    "stationCode": 2776,
    "stopType": "MUNICIPAL_BUS",
    "shortStopName": null,
    "Position": {
      "stopLongitude": "72.613922",
      "stopLatitude": "22.972931"
    },
    "RouteCodes": null,
    "Sequence": 48,
    "routeFlow": null
  },
  {
    "stopName": "Yash Tenament",
    "stopCode": 4888,
    "stationCode": 3095,
    "stopType": "MUNICIPAL_BUS",
    "shortStopName": null,
    "Position": {
      "stopLongitude": "72.623194",
      "stopLatitude": "22.971108"
    },
    "RouteCodes": null,
    "Sequence": 52,
    "routeFlow": null
  },
  {
    "stopName": "Ramdev Nagar",
    "stopCode": 4889,
    "stationCode": 1479,
    "stopType": "MUNICIPAL_BUS",
    "shortStopName": null,
    "Position": {
      "stopLongitude": "72.623805",
      "stopLatitude": "22.96615"
    },
    "RouteCodes": null,
    "Sequence": 54,
    "routeFlow": null
  },
  {
    "stopName": "Shyamaprasad Garib Aawas Yojana",
    "stopCode": 4890,
    "stationCode": 2784,
    "stopType": "MUNICIPAL_BUS",
    "shortStopName": null,
    "Position": {
      "stopLongitude": "72.622804",
      "stopLatitude": "22.964225"
    },
    "RouteCodes": null,
    "Sequence": 55,
    "routeFlow": null
  },
  {
    "stopName": "Shri Shantinath Jain Tirthdham",
    "stopCode": 4891,
    "stationCode": 2745,
    "stopType": "MUNICIPAL_BUS",
    "shortStopName": null,
    "Position": {
      "stopLongitude": "72.6225",
      "stopLatitude": "22.961193"
    },
    "RouteCodes": null,
    "Sequence": 56,
    "routeFlow": null
  },
  {
    "stopName": "Gujarat Offset",
    "stopCode": 4892,
    "stationCode": 1622,
    "stopType": "MUNICIPAL_BUS",
    "shortStopName": null,
    "Position": {
      "stopLongitude": "72.620055",
      "stopLatitude": "22.960754"
    },
    "RouteCodes": null,
    "Sequence": 57,
    "routeFlow": null
  },
  {
    "stopName": "Navjivan Flats",
    "stopCode": 4893,
    "stationCode": 2195,
    "stopType": "MUNICIPAL_BUS",
    "shortStopName": null,
    "Position": {
      "stopLongitude": "72.61949",
      "stopLatitude": "22.956529"
    },
    "RouteCodes": null,
    "Sequence": 58,
    "routeFlow": null
  },
  {
    "stopName": "Asopalav Society",
    "stopCode": 4894,
    "stationCode": 1192,
    "stopType": "MUNICIPAL_BUS",
    "shortStopName": null,
    "Position": {
      "stopLongitude": "72.619368",
      "stopLatitude": "22.953639"
    },
    "RouteCodes": null,
    "Sequence": 59,
    "routeFlow": null
  },
  {
    "stopName": "Mahalakshmi Talav (Vatva)",
    "stopCode": 4895,
    "stationCode": 2001,
    "stopType": "MUNICIPAL_BUS",
    "shortStopName": null,
    "Position": {
      "stopLongitude": "72.617332",
      "stopLatitude": "22.952047"
    },
    "RouteCodes": null,
    "Sequence": 60,
    "routeFlow": null
  },
  {
    "stopName": "Kashiba Municipal General Hospital",
    "stopCode": 5325,
    "stationCode": 1863,
    "stopType": "MUNICIPAL_BUS",
    "shortStopName": null,
    "Position": {
      "stopLongitude": "72.615558",
      "stopLatitude": "22.952983"
    },
    "RouteCodes": null,
    "Sequence": 61,
    "routeFlow": null
  },
  {
    "stopName": "Panini Taanki(Vatva)",
    "stopCode": 5326,
    "stationCode": 5098,
    "stopType": "MUNICIPAL_BUS",
    "shortStopName": null,
    "Position": {
      "stopLongitude": "72.613843",
      "stopLatitude": "22.953036"
    },
    "RouteCodes": null,
    "Sequence": 62,
    "routeFlow": null
  },
  {
    "stopName": "Vicket",
    "stopCode": 5382,
    "stationCode": 3038,
    "stopType": "MUNICIPAL_BUS",
    "shortStopName": null,
    "Position": {
      "stopLongitude": "72.613505",
      "stopLatitude": "23.05256"
    },
    "RouteCodes": null,
    "Sequence": 5,
    "routeFlow": null
  },
  {
    "stopName": "Kutir vidhyalay (Vatva)",
    "stopCode": 5663,
    "stationCode": 5058,
    "stopType": "MUNICIPAL_BUS",
    "shortStopName": null,
    "Position": {
      "stopLongitude": "72.613173",
      "stopLatitude": "22.952691"
    },
    "RouteCodes": null,
    "Sequence": 64,
    "routeFlow": null
  },
  {
    "stopName": "Kalgi Apartment",
    "stopCode": 5955,
    "stationCode": 6537,
    "stopType": "MUNICIPAL_BUS",
    "shortStopName": null,
    "Position": {
      "stopLongitude": "72.609225",
      "stopLatitude": "22.992819"
    },
    "RouteCodes": null,
    "Sequence": 37,
    "routeFlow": null
  },
  {
    "stopName": "Doon School",
    "stopCode": 5957,
    "stationCode": 6538,
    "stopType": "MUNICIPAL_BUS",
    "shortStopName": null,
    "Position": {
      "stopLongitude": "72.60739",
      "stopLatitude": "22.994063"
    },
    "RouteCodes": null,
    "Sequence": 36,
    "routeFlow": null
  },
  {
    "stopName": "Radhavallabh Mandir",
    "stopCode": 5959,
    "stationCode": 2420,
    "stopType": "MUNICIPAL_BUS",
    "shortStopName": null,
    "Position": {
      "stopLongitude": "72.60776",
      "stopLatitude": "22.995016"
    },
    "RouteCodes": null,
    "Sequence": 35,
    "routeFlow": null
  },
  {
    "stopName": "Sarkari Chavdi",
    "stopCode": 9395,
    "stationCode": 6427,
    "stopType": "MUNICIPAL_BUS",
    "shortStopName": null,
    "Position": {
      "stopLongitude": "72.611202",
      "stopLatitude": "22.950344"
    },
    "RouteCodes": null,
    "Sequence": 66,
    "routeFlow": null
  },
  {
    "stopName": "Devimata Mandir",
    "stopCode": 9396,
    "stationCode": 6428,
    "stopType": "MUNICIPAL_BUS",
    "shortStopName": null,
    "Position": {
      "stopLongitude": "72.60918",
      "stopLatitude": "22.950146"
    },
    "RouteCodes": null,
    "Sequence": 67,
    "routeFlow": null
  },
  {
    "stopName": "Canal",
    "stopCode": 9398,
    "stationCode": 6429,
    "stopType": "MUNICIPAL_BUS",
    "shortStopName": null,
    "Position": {
      "stopLongitude": "72.607001",
      "stopLatitude": "22.949406"
    },
    "RouteCodes": null,
    "Sequence": 68,
    "routeFlow": null
  },
  {
    "stopName": "Sunrise Homes",
    "stopCode": 9401,
    "stationCode": 6430,
    "stopType": "MUNICIPAL_BUS",
    "shortStopName": null,
    "Position": {
      "stopLongitude": "72.604394",
      "stopLatitude": "22.9487"
    },
    "RouteCodes": null,
    "Sequence": 69,
    "routeFlow": null
  },
  {
    "stopName": "Kalsh -2",
    "stopCode": 9403,
    "stationCode": 6431,
    "stopType": "MUNICIPAL_BUS",
    "shortStopName": null,
    "Position": {
      "stopLongitude": "72.602425",
      "stopLatitude": "22.948591"
    },
    "RouteCodes": null,
    "Sequence": 70,
    "routeFlow": null
  },
  {
    "stopName": "Anushtan Bunglows",
    "stopCode": 9404,
    "stationCode": 6432,
    "stopType": "MUNICIPAL_BUS",
    "shortStopName": null,
    "Position": {
      "stopLongitude": "72.600913",
      "stopLatitude": "22.949361"
    },
    "RouteCodes": null,
    "Sequence": 71,
    "routeFlow": null
  },
  {
    "stopName": "Vatva Gam",
    "stopCode": 9407,
    "stationCode": 3025,
    "stopType": "MUNICIPAL_BUS",
    "shortStopName": null,
    "Position": {
      "stopLongitude": "72.613004",
      "stopLatitude": "22.953311"
    },
    "RouteCodes": null,
    "Sequence": 63,
    "routeFlow": null
  }
]