[
  {
    "stopName": "Lal Darwaja",
    "stopCode": 1125,
    "stationCode": 1961,
    "stopType": "MUNICIPAL_BUS",
    "shortStopName": null,
    "Position": {
      "stopLongitude": "72.578605",
      "stopLatitude": "23.024376"
    },
    "RouteCodes": null,
    "Sequence": 1,
    "routeFlow": "LINESTRING (72.5786 23.02437, 72.5788 23.02436, 72.57904 23.02434, 72.57904 23.02503, 72.5796 23.02504, 72.57976 23.02504, 72.58002 23.02499, 72.5801 23.02491, 72.58033 23.02478, 72.58042 23.02472, 72.58051 23.02462, 72.58059 23.02439, 72.58049 23.02415, 72.58041 23.02401, 72.58031 23.02393, 72.57974 23.02367, 72.57949 23.02352, 72.57956 23.023, 72.57959 23.02218, 72.58023 23.02209, 72.5808 23.02199, 72.5808 23.02199, 72.58302 23.02163, 72.58166 23.02186, 72.58085 23.02198, 72.58086 23.02202, 72.58085 23.02198, 72.58163 23.02187, 72.5833 23.02157, 72.58408 23.02141, 72.5845 23.02126, 72.58491 23.02101, 72.58586 23.02015, 72.5862 23.0198, 72.58622 23.01982, 72.58632 23.01967, 72.586377 23.019548, 72.586397 23.019516, 72.586509 23.019408, 72.586693 23.019306, 72.587386 23.019048, 72.588179 23.018763, 72.58864 23.01868, 72.58864 23.01868, 72.588787 23.018566, 72.589017 23.018488, 72.589368 23.018305, 72.589546 23.018125, 72.58976 23.01768, 72.58998 23.0173, 72.59014 23.01713, 72.59046 23.01694, 72.59064 23.01691, 72.59084 23.01692, 72.59091 23.01696, 72.59099 23.01696, 72.59106 23.01693, 72.59111 23.01686, 72.59111 23.01678, 72.59107 23.01671, 72.59104 23.01669, 72.59103 23.01668, 72.59105 23.01653, 72.591062 23.01617, 72.591 23.01616, 72.59096 23.01583, 72.59098 23.01544, 72.59116 23.01451, 72.59132 23.01392, 72.59133 23.01381, 72.59136 23.01363, 72.59143 23.01349, 72.59144 23.01346, 72.59146 23.01324, 72.59146 23.01324, 72.59159 23.01136, 72.59169 23.01047, 72.59171 23.01009, 72.5917 23.0093, 72.5917 23.0093, 72.59166 23.0083, 72.59162 23.00793, 72.59158 23.00772, 72.59117 23.00662, 72.59112 23.00649, 72.59112 23.00649, 72.59031 23.0045, 72.59003 23.00366, 72.59003 23.00366, 72.58975 23.00293, 72.58967 23.00269, 72.58962 23.00238, 72.58962 23.00238, 72.58955 23.00192, 72.58957 23.00167, 72.58957 23.0016, 72.58945 23.00157, 72.58899 23.00149, 72.58875 23.00149, 72.58827 23.00144, 72.5879 23.00143, 72.58733 23.00134, 72.5869 23.00125, 72.5863 23.00112, 72.5863 23.00111, 72.5857 23.00099, 72.58515 23.00086, 72.58484 23.00074, 72.58419 23.00044, 72.58376 23.0002, 72.58377 23.00019, 72.58352 23.00006, 72.58344 23.00002, 72.58342 22.99963, 72.5834 22.99934, 72.58341 22.99901, 72.58341 22.99892, 72.58347 22.99859, 72.58361 22.9982, 72.58369 22.99793, 72.58376 22.99739, 72.58377 22.99731, 72.58377 22.99698, 72.58377 22.99698, 72.58384 22.9967, 72.58385 22.99643, 72.58384 22.99628, 72.58381 22.99615, 72.58384 22.99595, 72.58388 22.99579, 72.58397 22.99556, 72.58416 22.99518, 72.58433 22.9948, 72.58441 22.99472, 72.5845 22.99446, 72.58465 22.99407, 72.58465 22.99407, 72.58501 22.99334, 72.58523 22.99297, 72.58541 22.99271, 72.58579 22.99216, 72.58591 22.99189, 72.58595 22.99171, 72.58588 22.99168, 72.58552 22.99153, 72.5853 22.9914, 72.58512 22.99128, 72.58512 22.99128, 72.58463 22.99084, 72.5835 22.98996, 72.5832 22.98969, 72.58313 22.98958, 72.58306 22.98951, 72.58291 22.98937, 72.58264 22.98912, 72.58242 22.98858, 72.58239 22.98845, 72.58239 22.98845, 72.58238 22.98835, 72.58248 22.98766, 72.58287 22.98584, 72.58303 22.9854, 72.5834 22.98484, 72.58387 22.98426, 72.58462 22.98363, 72.58465 22.9836, 72.58465 22.9836, 72.58516 22.98317, 72.58542 22.98295, 72.58561 22.98263, 72.58579 22.98218, 72.58589 22.98186, 72.58589 22.98186, 72.58601 22.98144, 72.58607 22.98078, 72.58606 22.98055, 72.58597 22.97958, 72.58597 22.97931, 72.58605 22.97881, 72.58622 22.97836, 72.58626 22.97838, 72.58645 22.97797, 72.5867 22.97741, 72.58678 22.9771, 72.58715 22.97628, 72.58753 22.97535, 72.58797 22.97426, 72.58818 22.9737, 72.58845 22.97325, 72.58849 22.97323, 72.58855 22.97319, 72.58863 22.9731, 72.58867 22.97298, 72.58868 22.97281, 72.58867 22.97274, 72.58862 22.97267, 72.58854 22.97261, 72.5885 22.97258, 72.58851 22.97237, 72.5885 22.97227, 72.58852 22.97183, 72.58853 22.97164, 72.58853 22.97164, 72.5886 22.96919, 72.58862 22.96874, 72.58862 22.96874, 72.58865 22.96773, 72.5887 22.96727, 72.58879 22.96729, 72.58883 22.96712, 72.58911 22.96638, 72.58908 22.96637, 72.58941 22.96558, 72.58982 22.96474, 72.59012 22.96435, 72.59048 22.96394, 72.59106 22.96334, 72.59122 22.96316, 72.59143 22.96285, 72.59159 22.96255, 72.59164 22.96235, 72.59164 22.96235, 72.59167 22.96216, 72.5917 22.96188, 72.59173 22.96104, 72.59179 22.95943, 72.59179 22.95943, 72.59185 22.95706, 72.59189 22.95613, 72.59191 22.95586, 72.59196 22.95552, 72.5921 22.95489, 72.59218 22.95446, 72.59218 22.95446, 72.5923 22.95357, 72.59231 22.95328, 72.59222 22.95247, 72.59208 22.95162, 72.59208 22.95162, 72.59198 22.95104, 72.59189 22.95105, 72.59171 22.94996, 72.59159 22.94904, 72.59158 22.94893, 72.59158 22.94893, 72.59157 22.94881, 72.59159 22.94839, 72.59165 22.94804, 72.59184 22.94737, 72.59184 22.94737, 72.59212 22.94639, 72.59231 22.94515, 72.59242 22.94514, 72.59248 22.94482, 72.59239 22.9448, 72.59233 22.94515, 72.59246 22.94515, 72.59248 22.94502, 72.59261 22.94431, 72.59282 22.94312, 72.59288 22.94313, 72.59288 22.94313, 72.59282 22.94312, 72.59285 22.94292, 72.59312 22.94141, 72.59334 22.94031, 72.59346 22.93974, 72.59346 22.93974, 72.59369 22.93891, 72.594 22.93793, 72.59415 22.93747, 72.59452 22.93648, 72.59467 22.93609, 72.59467 22.93609, 72.59484 22.93564, 72.59495 22.93531, 72.59495 22.93521, 72.5949 22.93508, 72.59499 22.93491, 72.59509 22.93468, 72.59518 22.93456, 72.59523 22.93449, 72.5953 22.93438, 72.59545 22.9339, 72.59551 22.93335, 72.59552 22.93282, 72.59551 22.93282, 72.59546 22.92999, 72.59546 22.92999, 72.59546 22.92976, 72.59547 22.92975, 72.5955 22.92973, 72.59553 22.92968, 72.59558 22.92957, 72.59558 22.92948, 72.59555 22.92939, 72.59548 22.9293, 72.59545 22.92892, 72.59546 22.92865, 72.59546 22.92865, 72.5955 22.92753, 72.59553 22.9242, 72.59555 22.9233, 72.59555 22.9233, 72.595483 22.922171, 72.59533 22.92198, 72.59524 22.92174, 72.59506 22.92123, 72.59475 22.92021, 72.59475 22.92021, 72.59451 22.91945, 72.5944 22.91877, 72.59431 22.9176, 72.59431 22.9176, 72.59429 22.917, 72.59425 22.91669, 72.59414 22.916, 72.59398 22.9149, 72.59396 22.9147, 72.59396 22.9147, 72.59387 22.9138, 72.59378 22.91339, 72.59365 22.913, 72.59355 22.91274, 72.5934 22.91234, 72.59329 22.91202, 72.59328 22.91191, 72.59328 22.91191, 72.59326 22.91154, 72.59325 22.91064, 72.59323 22.91032, 72.59323 22.91032, 72.59324 22.9095, 72.59327 22.90932, 72.5934 22.90886, 72.59358 22.9082, 72.59366 22.90774, 72.59371 22.90722, 72.59371 22.90722, 72.59374 22.90686, 72.593823 22.906847, 72.593746 22.906479, 72.59414 22.90644, 72.59412 22.90515, 72.59412 22.90515, 72.59411 22.90287, 72.59396 22.90286, 72.59394 22.90215, 72.5939 22.9012, 72.59383 22.90055, 72.594 22.90052, 72.59385 22.89954, 72.5938 22.89917, 72.59379 22.89886, 72.59438 22.89576, 72.59438 22.89576, 72.59484 22.89335, 72.59487 22.893, 72.59487 22.893, 72.5949 22.89263, 72.59488 22.89255, 72.5948 22.89246, 72.59481 22.89236, 72.59488 22.89095, 72.5948 22.89013, 72.594744 22.889758, 72.594744 22.889762, 72.59469 22.88952, 72.59431 22.8884, 72.59405 22.88774, 72.594051 22.887725, 72.59381 22.88692, 72.59376 22.88666, 72.59389 22.88663, 72.5938 22.8852, 72.5938 22.8852, 72.59374 22.8843, 72.59361 22.88432, 72.59358 22.88409, 72.5935 22.88219, 72.59344 22.881, 72.59346 22.881, 72.59323 22.87744, 72.59312 22.87516, 72.59306 22.87435, 72.59306 22.87435, 72.59282 22.8701, 72.59278 22.86918, 72.59277 22.86887, 72.59277 22.86887, 72.59263 22.86576, 72.59263 22.86576, 72.59261 22.86539, 72.59237 22.86208, 72.59244 22.86164, 72.59244 22.86164, 72.59261 22.86114, 72.59328 22.85981, 72.59383 22.85861, 72.59392 22.85865, 72.59413 22.85823, 72.59413 22.85823, 72.59508 22.85626, 72.59531 22.85571, 72.59531 22.85571, 72.5961 22.85394, 72.59652 22.85308, 72.59652 22.85308, 72.59737 22.85133, 72.59824 22.84949)"
  },
  {
    "stopName": "Lokamanya Tilak Bag (BRT)",
    "stopCode": 1726,
    "stationCode": 95,
    "stopType": "MUNICIPAL_BUS",
    "shortStopName": null,
    "Position": {
      "stopLongitude": "72.58082",
      "stopLatitude": "23.02207"
    },
    "RouteCodes": null,
    "Sequence": 2,
    "routeFlow": null
  },
  {
    "stopName": "Raikhad Char Rasta (BRT)",
    "stopCode": 1727,
    "stationCode": 96,
    "stopType": "MUNICIPAL_BUS",
    "shortStopName": null,
    "Position": {
      "stopLongitude": "72.58167",
      "stopLatitude": "23.0219"
    },
    "RouteCodes": null,
    "Sequence": 3,
    "routeFlow": null
  },
  {
    "stopName": "Municipal Corporation Office (BRT)",
    "stopCode": 1728,
    "stationCode": 97,
    "stopType": "MUNICIPAL_BUS",
    "shortStopName": null,
    "Position": {
      "stopLongitude": "72.586334",
      "stopLatitude": "23.019683"
    },
    "RouteCodes": null,
    "Sequence": 4,
    "routeFlow": null
  },
  {
    "stopName": "Astodiya Chakla (BRT)",
    "stopCode": 1729,
    "stationCode": 98,
    "stopType": "MUNICIPAL_BUS",
    "shortStopName": null,
    "Position": {
      "stopLongitude": "72.588666",
      "stopLatitude": "23.018745"
    },
    "RouteCodes": null,
    "Sequence": 5,
    "routeFlow": null
  },
  {
    "stopName": "Majur Gam",
    "stopCode": 2228,
    "stationCode": 2016,
    "stopType": "MUNICIPAL_BUS",
    "shortStopName": null,
    "Position": {
      "stopLongitude": "72.591678",
      "stopLatitude": "23.009298"
    },
    "RouteCodes": null,
    "Sequence": 8,
    "routeFlow": null
  },
  {
    "stopName": "Bhulabhai Park",
    "stopCode": 2229,
    "stationCode": 1302,
    "stopType": "MUNICIPAL_BUS",
    "shortStopName": null,
    "Position": {
      "stopLongitude": "72.59113",
      "stopLatitude": "23.006485"
    },
    "RouteCodes": null,
    "Sequence": 9,
    "routeFlow": null
  },
  {
    "stopName": "Mangal Park",
    "stopCode": 2230,
    "stationCode": 2031,
    "stopType": "MUNICIPAL_BUS",
    "shortStopName": null,
    "Position": {
      "stopLongitude": "72.590043",
      "stopLatitude": "23.003641"
    },
    "RouteCodes": null,
    "Sequence": 10,
    "routeFlow": null
  },
  {
    "stopName": "Shahalam Tollnaka",
    "stopCode": 2866,
    "stationCode": 2679,
    "stopType": "MUNICIPAL_BUS",
    "shortStopName": null,
    "Position": {
      "stopLongitude": "72.589681",
      "stopLatitude": "23.002373"
    },
    "RouteCodes": null,
    "Sequence": 11,
    "routeFlow": null
  },
  {
    "stopName": "Pirkamal Masjid",
    "stopCode": 2949,
    "stationCode": 2341,
    "stopType": "MUNICIPAL_BUS",
    "shortStopName": null,
    "Position": {
      "stopLongitude": "72.586291",
      "stopLatitude": "23.001141"
    },
    "RouteCodes": null,
    "Sequence": 12,
    "routeFlow": null
  },
  {
    "stopName": "Virmaya Chowk",
    "stopCode": 2950,
    "stationCode": 3060,
    "stopType": "MUNICIPAL_BUS",
    "shortStopName": null,
    "Position": {
      "stopLongitude": "72.583761",
      "stopLatitude": "23.000201"
    },
    "RouteCodes": null,
    "Sequence": 13,
    "routeFlow": null
  },
  {
    "stopName": "Astodiya Darwaja (BRT)",
    "stopCode": 3086,
    "stationCode": 99,
    "stopType": "MUNICIPAL_BUS",
    "shortStopName": null,
    "Position": {
      "stopLongitude": "72.5911",
      "stopLatitude": "23.01614"
    },
    "RouteCodes": null,
    "Sequence": 6,
    "routeFlow": null
  },
  {
    "stopName": "Chaitanyeshwar Mahadev",
    "stopCode": 3255,
    "stationCode": 1344,
    "stopType": "MUNICIPAL_BUS",
    "shortStopName": null,
    "Position": {
      "stopLongitude": "72.585128",
      "stopLatitude": "22.991248"
    },
    "RouteCodes": null,
    "Sequence": 16,
    "routeFlow": null
  },
  {
    "stopName": "Chandola Talav",
    "stopCode": 3256,
    "stationCode": 1363,
    "stopType": "MUNICIPAL_BUS",
    "shortStopName": null,
    "Position": {
      "stopLongitude": "72.582433",
      "stopLatitude": "22.988451"
    },
    "RouteCodes": null,
    "Sequence": 17,
    "routeFlow": null
  },
  {
    "stopName": "P.W.D. Stand",
    "stopCode": 3257,
    "stationCode": 2278,
    "stopType": "MUNICIPAL_BUS",
    "shortStopName": null,
    "Position": {
      "stopLongitude": "72.584675",
      "stopLatitude": "22.983628"
    },
    "RouteCodes": null,
    "Sequence": 18,
    "routeFlow": null
  },
  {
    "stopName": "Chandola Octroi Naka",
    "stopCode": 3258,
    "stationCode": 1362,
    "stopType": "MUNICIPAL_BUS",
    "shortStopName": null,
    "Position": {
      "stopLongitude": "72.585955",
      "stopLatitude": "22.981878"
    },
    "RouteCodes": null,
    "Sequence": 19,
    "routeFlow": null
  },
  {
    "stopName": "Ranipur Road",
    "stopCode": 3259,
    "stationCode": 2486,
    "stopType": "MUNICIPAL_BUS",
    "shortStopName": null,
    "Position": {
      "stopLongitude": "72.586258",
      "stopLatitude": "22.978376"
    },
    "RouteCodes": null,
    "Sequence": 20,
    "routeFlow": null
  },
  {
    "stopName": "Narol Circle",
    "stopCode": 3260,
    "stationCode": 2176,
    "stopType": "MUNICIPAL_BUS",
    "shortStopName": null,
    "Position": {
      "stopLongitude": "72.58855",
      "stopLatitude": "22.971645"
    },
    "RouteCodes": null,
    "Sequence": 21,
    "routeFlow": null
  },
  {
    "stopName": "Bansidhar",
    "stopCode": 3261,
    "stationCode": 2851,
    "stopType": "MUNICIPAL_BUS",
    "shortStopName": null,
    "Position": {
      "stopLongitude": "72.588651",
      "stopLatitude": "22.968736"
    },
    "RouteCodes": null,
    "Sequence": 22,
    "routeFlow": null
  },
  {
    "stopName": "Shahwadi",
    "stopCode": 3262,
    "stationCode": 2684,
    "stopType": "MUNICIPAL_BUS",
    "shortStopName": null,
    "Position": {
      "stopLongitude": "72.589111",
      "stopLatitude": "22.966378"
    },
    "RouteCodes": null,
    "Sequence": 23,
    "routeFlow": null
  },
  {
    "stopName": "Narol Gam",
    "stopCode": 3263,
    "stationCode": 2178,
    "stopType": "MUNICIPAL_BUS",
    "shortStopName": null,
    "Position": {
      "stopLongitude": "72.591705",
      "stopLatitude": "22.962355"
    },
    "RouteCodes": null,
    "Sequence": 24,
    "routeFlow": null
  },
  {
    "stopName": "Narol Court",
    "stopCode": 3264,
    "stationCode": 2177,
    "stopType": "MUNICIPAL_BUS",
    "shortStopName": null,
    "Position": {
      "stopLongitude": "72.591843",
      "stopLatitude": "22.959435"
    },
    "RouteCodes": null,
    "Sequence": 25,
    "routeFlow": null
  },
  {
    "stopName": "Parmarnu Garnalu",
    "stopCode": 3265,
    "stationCode": 2313,
    "stopType": "MUNICIPAL_BUS",
    "shortStopName": null,
    "Position": {
      "stopLongitude": "72.592143",
      "stopLatitude": "22.954448"
    },
    "RouteCodes": null,
    "Sequence": 26,
    "routeFlow": null
  },
  {
    "stopName": "Electric Sub Station",
    "stopCode": 3266,
    "stationCode": 1485,
    "stopType": "MUNICIPAL_BUS",
    "shortStopName": null,
    "Position": {
      "stopLongitude": "72.592058",
      "stopLatitude": "22.951621"
    },
    "RouteCodes": null,
    "Sequence": 27,
    "routeFlow": null
  },
  {
    "stopName": "Abad Green Party plot",
    "stopCode": 3267,
    "stationCode": 5061,
    "stopType": "MUNICIPAL_BUS",
    "shortStopName": null,
    "Position": {
      "stopLongitude": "72.591636",
      "stopLatitude": "22.948928"
    },
    "RouteCodes": null,
    "Sequence": 28,
    "routeFlow": null
  },
  {
    "stopName": "Central Ware House",
    "stopCode": 3268,
    "stationCode": 1337,
    "stopType": "MUNICIPAL_BUS",
    "shortStopName": null,
    "Position": {
      "stopLongitude": "72.5919",
      "stopLatitude": "22.947386"
    },
    "RouteCodes": null,
    "Sequence": 29,
    "routeFlow": null
  },
  {
    "stopName": "Bhammariya Kuva",
    "stopCode": 3269,
    "stationCode": 1274,
    "stopType": "MUNICIPAL_BUS",
    "shortStopName": null,
    "Position": {
      "stopLongitude": "72.592268",
      "stopLatitude": "22.945225"
    },
    "RouteCodes": null,
    "Sequence": 30,
    "routeFlow": null
  },
  {
    "stopName": "Asha Golden Transport",
    "stopCode": 3270,
    "stationCode": 1173,
    "stopType": "MUNICIPAL_BUS",
    "shortStopName": null,
    "Position": {
      "stopLongitude": "72.593403",
      "stopLatitude": "22.939728"
    },
    "RouteCodes": null,
    "Sequence": 32,
    "routeFlow": null
  },
  {
    "stopName": "Hotel Sahyog",
    "stopCode": 3271,
    "stationCode": 1692,
    "stopType": "MUNICIPAL_BUS",
    "shortStopName": null,
    "Position": {
      "stopLongitude": "72.595558",
      "stopLatitude": "22.932823"
    },
    "RouteCodes": null,
    "Sequence": 34,
    "routeFlow": null
  },
  {
    "stopName": "S.P.Ring Road (Cargo Motors)",
    "stopCode": 3272,
    "stationCode": 2519,
    "stopType": "MUNICIPAL_BUS",
    "shortStopName": null,
    "Position": {
      "stopLongitude": "72.595521",
      "stopLatitude": "22.929993"
    },
    "RouteCodes": null,
    "Sequence": 35,
    "routeFlow": null
  },
  {
    "stopName": "Aslali Fire Station",
    "stopCode": 3273,
    "stationCode": 1189,
    "stopType": "MUNICIPAL_BUS",
    "shortStopName": null,
    "Position": {
      "stopLongitude": "72.595561",
      "stopLatitude": "22.928658"
    },
    "RouteCodes": null,
    "Sequence": 36,
    "routeFlow": null
  },
  {
    "stopName": "Jyoti Ware House",
    "stopCode": 3274,
    "stationCode": 1806,
    "stopType": "MUNICIPAL_BUS",
    "shortStopName": null,
    "Position": {
      "stopLongitude": "72.595505",
      "stopLatitude": "22.923296"
    },
    "RouteCodes": null,
    "Sequence": 37,
    "routeFlow": null
  },
  {
    "stopName": "Aslali Police Station",
    "stopCode": 3275,
    "stationCode": 1191,
    "stopType": "MUNICIPAL_BUS",
    "shortStopName": null,
    "Position": {
      "stopLongitude": "72.594781",
      "stopLatitude": "22.920203"
    },
    "RouteCodes": null,
    "Sequence": 38,
    "routeFlow": null
  },
  {
    "stopName": "Tulsi Vas",
    "stopCode": 3276,
    "stationCode": 2957,
    "stopType": "MUNICIPAL_BUS",
    "shortStopName": null,
    "Position": {
      "stopLongitude": "72.594373",
      "stopLatitude": "22.9176"
    },
    "RouteCodes": null,
    "Sequence": 39,
    "routeFlow": null
  },
  {
    "stopName": "Aslali Gam",
    "stopCode": 3277,
    "stationCode": 1190,
    "stopType": "MUNICIPAL_BUS",
    "shortStopName": null,
    "Position": {
      "stopLongitude": "72.594036",
      "stopLatitude": "22.91469"
    },
    "RouteCodes": null,
    "Sequence": 40,
    "routeFlow": null
  },
  {
    "stopName": "Gurukrupa Estate",
    "stopCode": 3278,
    "stationCode": 1637,
    "stopType": "MUNICIPAL_BUS",
    "shortStopName": null,
    "Position": {
      "stopLongitude": "72.593311",
      "stopLatitude": "22.911906"
    },
    "RouteCodes": null,
    "Sequence": 41,
    "routeFlow": null
  },
  {
    "stopName": "Kankuba Sanskar Kendra",
    "stopCode": 3279,
    "stationCode": 1852,
    "stopType": "MUNICIPAL_BUS",
    "shortStopName": null,
    "Position": {
      "stopLongitude": "72.593275",
      "stopLatitude": "22.910315"
    },
    "RouteCodes": null,
    "Sequence": 42,
    "routeFlow": null
  },
  {
    "stopName": "Radha-Krushna Estate",
    "stopCode": 3280,
    "stationCode": 2416,
    "stopType": "MUNICIPAL_BUS",
    "shortStopName": null,
    "Position": {
      "stopLongitude": "72.593785",
      "stopLatitude": "22.907225"
    },
    "RouteCodes": null,
    "Sequence": 43,
    "routeFlow": null
  },
  {
    "stopName": "Ashok Layland Service Station",
    "stopCode": 3281,
    "stationCode": 1178,
    "stopType": "MUNICIPAL_BUS",
    "shortStopName": null,
    "Position": {
      "stopLongitude": "72.594206",
      "stopLatitude": "22.905151"
    },
    "RouteCodes": null,
    "Sequence": 44,
    "routeFlow": null
  },
  {
    "stopName": "Asian Paints",
    "stopCode": 3282,
    "stationCode": 1188,
    "stopType": "MUNICIPAL_BUS",
    "shortStopName": null,
    "Position": {
      "stopLongitude": "72.593913",
      "stopLatitude": "22.900546"
    },
    "RouteCodes": null,
    "Sequence": 45,
    "routeFlow": null
  },
  {
    "stopName": "Oad Meldi Matanu Mandir",
    "stopCode": 3283,
    "stationCode": 2255,
    "stopType": "MUNICIPAL_BUS",
    "shortStopName": null,
    "Position": {
      "stopLongitude": "72.594323",
      "stopLatitude": "22.895755"
    },
    "RouteCodes": null,
    "Sequence": 46,
    "routeFlow": null
  },
  {
    "stopName": "Shri M.P.Pandya High School",
    "stopCode": 3284,
    "stationCode": 2742,
    "stopType": "MUNICIPAL_BUS",
    "shortStopName": null,
    "Position": {
      "stopLongitude": "72.594826",
      "stopLatitude": "22.892996"
    },
    "RouteCodes": null,
    "Sequence": 47,
    "routeFlow": null
  },
  {
    "stopName": "Swaminarayan Mandir (Jetalpur)",
    "stopCode": 3285,
    "stationCode": 2890,
    "stopType": "MUNICIPAL_BUS",
    "shortStopName": null,
    "Position": {
      "stopLongitude": "72.594855",
      "stopLatitude": "22.889742"
    },
    "RouteCodes": null,
    "Sequence": 48,
    "routeFlow": null
  },
  {
    "stopName": "Jetalpur Dham",
    "stopCode": 3286,
    "stationCode": 1780,
    "stopType": "MUNICIPAL_BUS",
    "shortStopName": null,
    "Position": {
      "stopLongitude": "72.594263",
      "stopLatitude": "22.887671"
    },
    "RouteCodes": null,
    "Sequence": 49,
    "routeFlow": null
  },
  {
    "stopName": "Jadaba Sanskrutik Hall",
    "stopCode": 3287,
    "stationCode": 1737,
    "stopType": "MUNICIPAL_BUS",
    "shortStopName": null,
    "Position": {
      "stopLongitude": "72.593811",
      "stopLatitude": "22.885195"
    },
    "RouteCodes": null,
    "Sequence": 50,
    "routeFlow": null
  },
  {
    "stopName": "Cargo Motors Pvt. Ltd.",
    "stopCode": 3288,
    "stationCode": 1335,
    "stopType": "MUNICIPAL_BUS",
    "shortStopName": null,
    "Position": {
      "stopLongitude": "72.593485",
      "stopLatitude": "22.881"
    },
    "RouteCodes": null,
    "Sequence": 51,
    "routeFlow": null
  },
  {
    "stopName": "Ashok Layland Pvt. Ltd.",
    "stopCode": 3290,
    "stationCode": 1177,
    "stopType": "MUNICIPAL_BUS",
    "shortStopName": null,
    "Position": {
      "stopLongitude": "72.593098",
      "stopLatitude": "22.874348"
    },
    "RouteCodes": null,
    "Sequence": 52,
    "routeFlow": null
  },
  {
    "stopName": "Anaj Market Yard",
    "stopCode": 3291,
    "stationCode": 1123,
    "stopType": "MUNICIPAL_BUS",
    "shortStopName": null,
    "Position": {
      "stopLongitude": "72.592803",
      "stopLatitude": "22.868866"
    },
    "RouteCodes": null,
    "Sequence": 53,
    "routeFlow": null
  },
  {
    "stopName": "Associated Road Carriers",
    "stopCode": 3292,
    "stationCode": 1193,
    "stopType": "MUNICIPAL_BUS",
    "shortStopName": null,
    "Position": {
      "stopLongitude": "72.592686",
      "stopLatitude": "22.86576"
    },
    "RouteCodes": null,
    "Sequence": 54,
    "routeFlow": null
  },
  {
    "stopName": "Panini Taanki",
    "stopCode": 3293,
    "stationCode": 2296,
    "stopType": "MUNICIPAL_BUS",
    "shortStopName": null,
    "Position": {
      "stopLongitude": "72.59248",
      "stopLatitude": "22.861645"
    },
    "RouteCodes": null,
    "Sequence": 55,
    "routeFlow": null
  },
  {
    "stopName": "Shakti Road Lines",
    "stopCode": 3294,
    "stationCode": 2690,
    "stopType": "MUNICIPAL_BUS",
    "shortStopName": null,
    "Position": {
      "stopLongitude": "72.594123",
      "stopLatitude": "22.858228"
    },
    "RouteCodes": null,
    "Sequence": 56,
    "routeFlow": null
  },
  {
    "stopName": "Bareja Approach",
    "stopCode": 3295,
    "stationCode": 1252,
    "stopType": "MUNICIPAL_BUS",
    "shortStopName": null,
    "Position": {
      "stopLongitude": "72.595336",
      "stopLatitude": "22.85572"
    },
    "RouteCodes": null,
    "Sequence": 57,
    "routeFlow": null
  },
  {
    "stopName": "Katariya Automobiles",
    "stopCode": 3296,
    "stationCode": 1867,
    "stopType": "MUNICIPAL_BUS",
    "shortStopName": null,
    "Position": {
      "stopLongitude": "72.5965",
      "stopLatitude": "22.853076"
    },
    "RouteCodes": null,
    "Sequence": 58,
    "routeFlow": null
  },
  {
    "stopName": "Bareja Eye Hospital",
    "stopCode": 3297,
    "stationCode": 1253,
    "stopType": "MUNICIPAL_BUS",
    "shortStopName": null,
    "Position": {
      "stopLongitude": "72.598276",
      "stopLatitude": "22.849501"
    },
    "RouteCodes": null,
    "Sequence": 59,
    "routeFlow": null
  },
  {
    "stopName": "Dani Limda Gam",
    "stopCode": 3480,
    "stationCode": 1418,
    "stopType": "MUNICIPAL_BUS",
    "shortStopName": null,
    "Position": {
      "stopLongitude": "72.583781",
      "stopLatitude": "22.996971"
    },
    "RouteCodes": null,
    "Sequence": 14,
    "routeFlow": null
  },
  {
    "stopName": "S.T. Stand",
    "stopCode": 3812,
    "stationCode": 2526,
    "stopType": "MUNICIPAL_BUS",
    "shortStopName": null,
    "Position": {
      "stopLongitude": "72.591495",
      "stopLatitude": "23.01324"
    },
    "RouteCodes": null,
    "Sequence": 7,
    "routeFlow": null
  },
  {
    "stopName": "Dhruv Nagar Society",
    "stopCode": 6101,
    "stationCode": 7002,
    "stopType": "MUNICIPAL_BUS",
    "shortStopName": null,
    "Position": {
      "stopLongitude": "72.584652",
      "stopLatitude": "22.994079"
    },
    "RouteCodes": null,
    "Sequence": 15,
    "routeFlow": null
  },
  {
    "stopName": "Pragati Society",
    "stopCode": 8677,
    "stationCode": 6104,
    "stopType": "MUNICIPAL_BUS",
    "shortStopName": null,
    "Position": {
      "stopLongitude": "72.592879",
      "stopLatitude": "22.943141"
    },
    "RouteCodes": null,
    "Sequence": 31,
    "routeFlow": null
  },
  {
    "stopName": "Hundai Motors",
    "stopCode": 8679,
    "stationCode": 6105,
    "stopType": "MUNICIPAL_BUS",
    "shortStopName": null,
    "Position": {
      "stopLongitude": "72.594693",
      "stopLatitude": "22.936116"
    },
    "RouteCodes": null,
    "Sequence": 33,
    "routeFlow": null
  }
]