[
  {
    "stopName": "Apna Bazar",
    "stopCode": 1076,
    "stationCode": 1150,
    "stopType": "MUNICIPAL_BUS",
    "shortStopName": null,
    "Position": {
      "stopLongitude": "72.580705",
      "stopLatitude": "23.025321"
    },
    "RouteCodes": null,
    "Sequence": 19,
    "routeFlow": "LINESTRING (72.58287 23.02416, 72.5837 23.02423, 72.58435 23.02432, 72.5844 23.02435, 72.58441 23.02438, 72.58455 23.02439, 72.58455 23.02439, 72.58535 23.02439, 72.58535 23.02439, 72.58624 23.02438, 72.58698 23.02435, 72.58698 23.02435, 72.58801 23.02433, 72.58865 23.02444, 72.58938 23.02456, 72.58976 23.0246, 72.59018 23.02464, 72.59018 23.02464, 72.59081 23.02475, 72.59101 23.02477, 72.591 23.02477, 72.59189 23.02482, 72.59238 23.02493, 72.59266 23.02495, 72.59287 23.02491, 72.59308 23.02489, 72.59376 23.02493, 72.59444 23.02493, 72.59505 23.02492, 72.59539 23.02484, 72.59582 23.02483, 72.59617 23.02488, 72.59618 23.02489, 72.59618 23.02489, 72.59659 23.02499, 72.59699 23.02512, 72.59758 23.02529, 72.59758 23.02529, 72.5977 23.02534, 72.59784 23.02544, 72.59858 23.02598, 72.59889 23.02622, 72.59899 23.0263, 72.59899 23.0263, 72.60022 23.02725, 72.60016 23.02763, 72.60016 23.02792, 72.59982 23.02792, 72.59982 23.02792, 72.5986 23.02791, 72.5986 23.02791, 72.59807 23.02788, 72.59777 23.02784, 72.597 23.02764, 72.59667 23.02766, 72.59609 23.02772, 72.59609 23.02772, 72.59595 23.02772, 72.59515 23.02787, 72.59431 23.02805, 72.59384 23.02817, 72.59366 23.02829, 72.59359 23.02832, 72.59359 23.02832, 72.59319 23.02847, 72.59287 23.02855, 72.59265 23.02856, 72.5924 23.02855, 72.59174 23.02845, 72.59117 23.02837, 72.59117 23.02837, 72.59037 23.02818, 72.59012 23.02812, 72.5897 23.02796, 72.5897 23.02796, 72.58901 23.02788, 72.58862 23.02776, 72.58769 23.02764, 72.58769 23.02764, 72.58713 23.02757, 72.58627 23.02714, 72.58582 23.02686, 72.58536 23.02665, 72.58508 23.02655, 72.58508 23.02655, 72.58481 23.02646, 72.58448 23.02641, 72.58434 23.02639, 72.58313 23.02641, 72.58276 23.0264, 72.58208 23.02644, 72.58208 23.02644, 72.58177 23.02643, 72.58107 23.0264, 72.58082 23.02643, 72.58059 23.02624, 72.58063 23.02551, 72.58064 23.02532, 72.58064 23.02532, 72.58064 23.02493, 72.58062 23.02472, 72.58064 23.02449, 72.58059 23.02437, 72.58047 23.02415, 72.5804 23.024, 72.58031 23.02393, 72.57974 23.02367, 72.57949 23.02352, 72.57954 23.02302, 72.57956 23.023, 72.57959 23.02218, 72.5796 23.02204, 72.57954 23.02198, 72.57937 23.02193, 72.57932 23.02193, 72.57932 23.02194, 72.57948 23.02196, 72.57958 23.02201, 72.5796 23.02204, 72.5796 23.02212, 72.57959 23.02218, 72.57997 23.02214, 72.58023 23.02209, 72.58097 23.02196, 72.58163 23.02187, 72.58198 23.02181, 72.58213 23.02243, 72.58222 23.02287, 72.58253 23.02413, 72.58287 23.02416)"
  },
  {
    "stopName": "Tilakbag",
    "stopCode": 2864,
    "stationCode": 2941,
    "stopType": "MUNICIPAL_BUS",
    "shortStopName": null,
    "Position": {
      "stopLongitude": "72.579318",
      "stopLatitude": "23.021966"
    },
    "RouteCodes": null,
    "Sequence": 20,
    "routeFlow": null
  },
  {
    "stopName": "Revdi Bazar",
    "stopCode": 3049,
    "stationCode": 2502,
    "stopType": "MUNICIPAL_BUS",
    "shortStopName": null,
    "Position": {
      "stopLongitude": "72.5986",
      "stopLatitude": "23.027936"
    },
    "RouteCodes": null,
    "Sequence": 11,
    "routeFlow": null
  },
  {
    "stopName": "Kalupur Terminus",
    "stopCode": 3050,
    "stationCode": 1840,
    "stopType": "MUNICIPAL_BUS",
    "shortStopName": null,
    "Position": {
      "stopLongitude": "72.599818",
      "stopLatitude": "23.027958"
    },
    "RouteCodes": null,
    "Sequence": 10,
    "routeFlow": null
  },
  {
    "stopName": "Bhadrakali Mandir",
    "stopCode": 3400,
    "stationCode": 5066,
    "stopType": "MUNICIPAL_BUS",
    "shortStopName": null,
    "Position": {
      "stopLongitude": "72.582874",
      "stopLatitude": "23.024113"
    },
    "RouteCodes": null,
    "Sequence": 1,
    "routeFlow": null
  },
  {
    "stopName": "Bhadrakali Mandir",
    "stopCode": 3400,
    "stationCode": 5066,
    "stopType": "MUNICIPAL_BUS",
    "shortStopName": null,
    "Position": {
      "stopLongitude": "72.582874",
      "stopLatitude": "23.024113"
    },
    "RouteCodes": null,
    "Sequence": 21,
    "routeFlow": null
  },
  {
    "stopName": "Tin Darwaja",
    "stopCode": 4025,
    "stationCode": 2095,
    "stopType": "MUNICIPAL_BUS",
    "shortStopName": null,
    "Position": {
      "stopLongitude": "72.584551",
      "stopLatitude": "23.024454"
    },
    "RouteCodes": null,
    "Sequence": 2,
    "routeFlow": null
  },
  {
    "stopName": "Pankornaka",
    "stopCode": 4026,
    "stationCode": 2602,
    "stopType": "MUNICIPAL_BUS",
    "shortStopName": null,
    "Position": {
      "stopLongitude": "72.585352",
      "stopLatitude": "23.024497"
    },
    "RouteCodes": null,
    "Sequence": 3,
    "routeFlow": null
  },
  {
    "stopName": "Fuwara",
    "stopCode": 4066,
    "stationCode": 2652,
    "stopType": "MUNICIPAL_BUS",
    "shortStopName": null,
    "Position": {
      "stopLongitude": "72.586989",
      "stopLatitude": "23.024523"
    },
    "RouteCodes": null,
    "Sequence": 4,
    "routeFlow": null
  },
  {
    "stopName": "Fatasa Ni Pol",
    "stopCode": 4088,
    "stationCode": 2660,
    "stopType": "MUNICIPAL_BUS",
    "shortStopName": null,
    "Position": {
      "stopLongitude": "72.590171",
      "stopLatitude": "23.024698"
    },
    "RouteCodes": null,
    "Sequence": 5,
    "routeFlow": null
  },
  {
    "stopName": "Bala Hanuman(Khadiya)",
    "stopCode": 4089,
    "stationCode": 3036,
    "stopType": "MUNICIPAL_BUS",
    "shortStopName": null,
    "Position": {
      "stopLongitude": "72.590992",
      "stopLatitude": "23.024896"
    },
    "RouteCodes": null,
    "Sequence": 6,
    "routeFlow": null
  },
  {
    "stopName": "Khadiya Char Rasta",
    "stopCode": 4090,
    "stationCode": 3066,
    "stopType": "MUNICIPAL_BUS",
    "shortStopName": null,
    "Position": {
      "stopLongitude": "72.596188",
      "stopLatitude": "23.024874"
    },
    "RouteCodes": null,
    "Sequence": 7,
    "routeFlow": null
  },
  {
    "stopName": "Panchkuva",
    "stopCode": 4091,
    "stationCode": 5020,
    "stopType": "MUNICIPAL_BUS",
    "shortStopName": null,
    "Position": {
      "stopLongitude": "72.597568",
      "stopLatitude": "23.025312"
    },
    "RouteCodes": null,
    "Sequence": 8,
    "routeFlow": null
  },
  {
    "stopName": "Shaher Kotda",
    "stopCode": 4092,
    "stationCode": 5021,
    "stopType": "MUNICIPAL_BUS",
    "shortStopName": null,
    "Position": {
      "stopLongitude": "72.598991",
      "stopLatitude": "23.026296"
    },
    "RouteCodes": null,
    "Sequence": 9,
    "routeFlow": null
  },
  {
    "stopName": "Dhana Sutharni Pol",
    "stopCode": 4821,
    "stationCode": 1452,
    "stopType": "MUNICIPAL_BUS",
    "shortStopName": null,
    "Position": {
      "stopLongitude": "72.593595",
      "stopLatitude": "23.028333"
    },
    "RouteCodes": null,
    "Sequence": 13,
    "routeFlow": null
  },
  {
    "stopName": "Zaverivad",
    "stopCode": 4822,
    "stationCode": 2336,
    "stopType": "MUNICIPAL_BUS",
    "shortStopName": null,
    "Position": {
      "stopLongitude": "72.589698",
      "stopLatitude": "23.027911"
    },
    "RouteCodes": null,
    "Sequence": 15,
    "routeFlow": null
  },
  {
    "stopName": "Krushna Cinema",
    "stopCode": 4823,
    "stationCode": 1918,
    "stopType": "MUNICIPAL_BUS",
    "shortStopName": null,
    "Position": {
      "stopLongitude": "72.587695",
      "stopLatitude": "23.027593"
    },
    "RouteCodes": null,
    "Sequence": 16,
    "routeFlow": null
  },
  {
    "stopName": "Paththar Kuva",
    "stopCode": 4824,
    "stationCode": 2327,
    "stopType": "MUNICIPAL_BUS",
    "shortStopName": null,
    "Position": {
      "stopLongitude": "72.585095",
      "stopLatitude": "23.026521"
    },
    "RouteCodes": null,
    "Sequence": 17,
    "routeFlow": null
  },
  {
    "stopName": "Zakariya Masjid",
    "stopCode": 5190,
    "stationCode": 1916,
    "stopType": "MUNICIPAL_BUS",
    "shortStopName": null,
    "Position": {
      "stopLongitude": "72.596091",
      "stopLatitude": "23.027721"
    },
    "RouteCodes": null,
    "Sequence": 12,
    "routeFlow": null
  },
  {
    "stopName": "Haja Patelni Pol",
    "stopCode": 5191,
    "stationCode": 1645,
    "stopType": "MUNICIPAL_BUS",
    "shortStopName": null,
    "Position": {
      "stopLongitude": "72.591173",
      "stopLatitude": "23.028368"
    },
    "RouteCodes": null,
    "Sequence": 14,
    "routeFlow": null
  },
  {
    "stopName": "Vijalighar",
    "stopCode": 5192,
    "stationCode": 3041,
    "stopType": "MUNICIPAL_BUS",
    "shortStopName": null,
    "Position": {
      "stopLongitude": "72.582085",
      "stopLatitude": "23.026438"
    },
    "RouteCodes": null,
    "Sequence": 18,
    "routeFlow": null
  }
]