[
  {
    "stopName": "Cadila Ware House",
    "stopCode": 3609,
    "stationCode": 1330,
    "stopType": "MUNICIPAL_BUS",
    "shortStopName": null,
    "Position": {
      "stopLongitude": "72.596003",
      "stopLatitude": "22.974365"
    },
    "RouteCodes": null,
    "Sequence": 2,
    "routeFlow": "LINESTRING (72.58955 22.97318, 72.58992 22.97317, 72.59138 22.97335, 72.59222 22.97343, 72.59304 22.97357, 72.59318 22.97359, 72.59342 22.97359, 72.59352 22.97358, 72.59381 22.97364, 72.59601 22.97434, 72.59601 22.97434, 72.59925 22.97535, 72.59925 22.97535, 72.60173 22.97611, 72.60181 22.97613, 72.60185 22.97606, 72.60198 22.97587, 72.60214 22.97564, 72.60214 22.97564, 72.6029 22.97452, 72.60295 22.97442, 72.60328 22.97405, 72.60328 22.97405, 72.60403 22.97313, 72.60406 22.97314, 72.60406 22.97314, 72.60403 22.97313, 72.60408 22.97307, 72.60422 22.97291, 72.60511 22.97176, 72.60581 22.97081, 72.60581 22.97081, 72.60623 22.97016, 72.60648 22.96975, 72.60675 22.9693, 72.60711 22.9686, 72.60712 22.96851, 72.60719 22.9684, 72.60752 22.96785, 72.60764 22.96763, 72.60764 22.96763, 72.60781 22.96733, 72.60792 22.96721, 72.60825 22.96663, 72.60874 22.9658, 72.60892 22.96551, 72.60936 22.96473, 72.60936 22.96473, 72.6095 22.96449, 72.61017 22.96328, 72.61035 22.96288, 72.61057 22.96235, 72.61068 22.96197, 72.61068 22.96197, 72.61123 22.96012, 72.61123 22.96012, 72.61133 22.95982, 72.61145 22.95964, 72.61167 22.95913, 72.6118 22.95881, 72.61197 22.95841, 72.61205 22.95813, 72.61204 22.95761, 72.61202 22.95748, 72.61201 22.95743, 72.61201 22.95697, 72.61205 22.95656, 72.61203 22.95591, 72.61206 22.95572, 72.61212 22.9555, 72.61235 22.95499, 72.61254 22.95469, 72.61269 22.9544, 72.61275 22.95422, 72.61277 22.95392, 72.6128 22.95369, 72.6128 22.95369, 72.61283 22.9536, 72.61288 22.95352, 72.61294 22.9534, 72.61316 22.9533, 72.61358 22.95312, 72.61371 22.95308, 72.61388 22.95304, 72.61388 22.95304, 72.61418 22.95302, 72.61507 22.95307, 72.61587 22.95295, 72.61587 22.95295, 72.61636 22.95286, 72.61647 22.95282, 72.61667 22.95271, 72.61716 22.95238, 72.61746 22.95208, 72.61775 22.95186, 72.61774 22.95184, 72.61821 22.95157, 72.61882 22.95131, 72.61919 22.95119, 72.6197 22.95103, 72.62065 22.95072, 72.62155 22.95042, 72.62178 22.95036, 72.62199 22.95034, 72.62226 22.95033, 72.62244 22.95035, 72.62244 22.95036, 72.62283 22.95038, 72.62346 22.95037, 72.62372 22.95035, 72.62384 22.9503, 72.62456 22.95013, 72.62462 22.95011, 72.62532 22.94993, 72.62546 22.94992, 72.62555 22.9499, 72.62578 22.9499, 72.62605 22.94992, 72.62645 22.94997, 72.62679 22.95003, 72.62689 22.95008, 72.62713 22.95013, 72.62713 22.95013, 72.6279 22.95027, 72.62838 22.95031, 72.62885 22.95036, 72.62928 22.95037, 72.62989 22.95031, 72.63025 22.9503, 72.63025 22.9503, 72.63062 22.9503, 72.63112 22.95049, 72.63216 22.95086, 72.63218 22.95087, 72.63164 22.95252, 72.63122 22.9539)"
  },
  {
    "stopName": "Roza",
    "stopCode": 4063,
    "stationCode": 2511,
    "stopType": "MUNICIPAL_BUS",
    "shortStopName": null,
    "Position": {
      "stopLongitude": "72.612081",
      "stopLatitude": "22.957468"
    },
    "RouteCodes": null,
    "Sequence": 12,
    "routeFlow": null
  },
  {
    "stopName": "Jethabhaini Vav",
    "stopCode": 4275,
    "stationCode": 1782,
    "stopType": "MUNICIPAL_BUS",
    "shortStopName": null,
    "Position": {
      "stopLongitude": "72.603283",
      "stopLatitude": "22.974051"
    },
    "RouteCodes": null,
    "Sequence": 5,
    "routeFlow": null
  },
  {
    "stopName": "Paras Nagar",
    "stopCode": 4276,
    "stationCode": 2305,
    "stopType": "MUNICIPAL_BUS",
    "shortStopName": null,
    "Position": {
      "stopLongitude": "72.604053",
      "stopLatitude": "22.973153"
    },
    "RouteCodes": null,
    "Sequence": 6,
    "routeFlow": null
  },
  {
    "stopName": "Manokamna Society",
    "stopCode": 4277,
    "stationCode": 2052,
    "stopType": "MUNICIPAL_BUS",
    "shortStopName": null,
    "Position": {
      "stopLongitude": "72.60586",
      "stopLatitude": "22.970836"
    },
    "RouteCodes": null,
    "Sequence": 7,
    "routeFlow": null
  },
  {
    "stopName": "Gebansha Pir",
    "stopCode": 4278,
    "stationCode": 1540,
    "stopType": "MUNICIPAL_BUS",
    "shortStopName": null,
    "Position": {
      "stopLongitude": "72.60766",
      "stopLatitude": "22.967643"
    },
    "RouteCodes": null,
    "Sequence": 8,
    "routeFlow": null
  },
  {
    "stopName": "Saiyadni Wadi",
    "stopCode": 4279,
    "stationCode": 2555,
    "stopType": "MUNICIPAL_BUS",
    "shortStopName": null,
    "Position": {
      "stopLongitude": "72.609386",
      "stopLatitude": "22.964741"
    },
    "RouteCodes": null,
    "Sequence": 9,
    "routeFlow": null
  },
  {
    "stopName": "Gokul Society",
    "stopCode": 4280,
    "stationCode": 1573,
    "stopType": "MUNICIPAL_BUS",
    "shortStopName": null,
    "Position": {
      "stopLongitude": "72.610733",
      "stopLatitude": "22.961985"
    },
    "RouteCodes": null,
    "Sequence": 10,
    "routeFlow": null
  },
  {
    "stopName": "Ambe mata nu Mandir",
    "stopCode": 4281,
    "stationCode": 2229,
    "stopType": "MUNICIPAL_BUS",
    "shortStopName": null,
    "Position": {
      "stopLongitude": "72.622438",
      "stopLatitude": "22.950343"
    },
    "RouteCodes": null,
    "Sequence": 17,
    "routeFlow": null
  },
  {
    "stopName": "Urmijivan Society",
    "stopCode": 4282,
    "stationCode": 2974,
    "stopType": "MUNICIPAL_BUS",
    "shortStopName": null,
    "Position": {
      "stopLongitude": "72.627125",
      "stopLatitude": "22.950132"
    },
    "RouteCodes": null,
    "Sequence": 18,
    "routeFlow": null
  },
  {
    "stopName": "Bibi Talav",
    "stopCode": 4515,
    "stationCode": 1308,
    "stopType": "MUNICIPAL_BUS",
    "shortStopName": null,
    "Position": {
      "stopLongitude": "72.611285",
      "stopLatitude": "22.960135"
    },
    "RouteCodes": null,
    "Sequence": 11,
    "routeFlow": null
  },
  {
    "stopName": "Panini Taanki(Vatva)",
    "stopCode": 4526,
    "stationCode": 5098,
    "stopType": "MUNICIPAL_BUS",
    "shortStopName": null,
    "Position": {
      "stopLongitude": "72.613883",
      "stopLatitude": "22.953075"
    },
    "RouteCodes": null,
    "Sequence": 14,
    "routeFlow": null
  },
  {
    "stopName": "Narol Circle",
    "stopCode": 4537,
    "stationCode": 2176,
    "stopType": "MUNICIPAL_BUS",
    "shortStopName": null,
    "Position": {
      "stopLongitude": "72.589551",
      "stopLatitude": "22.97317"
    },
    "RouteCodes": null,
    "Sequence": 1,
    "routeFlow": null
  },
  {
    "stopName": "Moni Hotel",
    "stopCode": 4538,
    "stationCode": 2092,
    "stopType": "MUNICIPAL_BUS",
    "shortStopName": null,
    "Position": {
      "stopLongitude": "72.599243",
      "stopLatitude": "22.975358"
    },
    "RouteCodes": null,
    "Sequence": 3,
    "routeFlow": null
  },
  {
    "stopName": "Kashiba Municipal General Hospital",
    "stopCode": 4539,
    "stationCode": 1863,
    "stopType": "MUNICIPAL_BUS",
    "shortStopName": null,
    "Position": {
      "stopLongitude": "72.615875",
      "stopLatitude": "22.952971"
    },
    "RouteCodes": null,
    "Sequence": 15,
    "routeFlow": null
  },
  {
    "stopName": "Shraddhakunj Society",
    "stopCode": 4540,
    "stationCode": 2732,
    "stopType": "MUNICIPAL_BUS",
    "shortStopName": null,
    "Position": {
      "stopLongitude": "72.630248",
      "stopLatitude": "22.950298"
    },
    "RouteCodes": null,
    "Sequence": 19,
    "routeFlow": null
  },
  {
    "stopName": "Vatva Railway Crossing",
    "stopCode": 4541,
    "stationCode": 3029,
    "stopType": "MUNICIPAL_BUS",
    "shortStopName": null,
    "Position": {
      "stopLongitude": "72.631265",
      "stopLatitude": "22.953915"
    },
    "RouteCodes": null,
    "Sequence": 20,
    "routeFlow": null
  },
  {
    "stopName": "Mahalakshmi Corner (Vatva)",
    "stopCode": 4784,
    "stationCode": 1999,
    "stopType": "MUNICIPAL_BUS",
    "shortStopName": null,
    "Position": {
      "stopLongitude": "72.617786",
      "stopLatitude": "22.951901"
    },
    "RouteCodes": null,
    "Sequence": 16,
    "routeFlow": null
  },
  {
    "stopName": "Isanpur-Vatva Cross Road",
    "stopCode": 4802,
    "stationCode": 1726,
    "stopType": "MUNICIPAL_BUS",
    "shortStopName": null,
    "Position": {
      "stopLongitude": "72.602155",
      "stopLatitude": "22.975646"
    },
    "RouteCodes": null,
    "Sequence": 4,
    "routeFlow": null
  },
  {
    "stopName": "Vatva Gam",
    "stopCode": 4804,
    "stationCode": 3025,
    "stopType": "MUNICIPAL_BUS",
    "shortStopName": null,
    "Position": {
      "stopLongitude": "72.612875",
      "stopLatitude": "22.953706"
    },
    "RouteCodes": null,
    "Sequence": 13,
    "routeFlow": null
  }
]