[
  {
    "stopName": "Mahalakshmi Corner (Vatva)",
    "stopCode": 5064,
    "stationCode": 1999,
    "stopType": "MUNICIPAL_BUS",
    "shortStopName": null,
    "Position": {
      "stopLongitude": "72.617335",
      "stopLatitude": "22.952096"
    },
    "RouteCodes": null,
    "Sequence": 5,
    "routeFlow": "LINESTRING (72.63132 22.9536, 72.63184 22.95191, 72.63218 22.95087, 72.63216 22.95086, 72.63112 22.95049, 72.63062 22.9503, 72.63021 22.9503, 72.63018 22.9503, 72.62969 22.95033, 72.62919 22.95037, 72.62873 22.95034, 72.62787 22.95024, 72.62709 22.9501, 72.62699 22.95007, 72.62699 22.95007, 72.62673 22.95001, 72.62642 22.94994, 72.62609 22.9499, 72.62589 22.94988, 72.62549 22.94987, 72.62524 22.94991, 72.62459 22.9501, 72.62415 22.95024, 72.62384 22.9503, 72.62346 22.95033, 72.62315 22.95036, 72.62278 22.95034, 72.62253 22.95035, 72.62241 22.95034, 72.62236 22.95034, 72.62236 22.95034, 72.62199 22.95034, 72.6217 22.95038, 72.62109 22.95057, 72.62006 22.95093, 72.61935 22.95114, 72.61919 22.95119, 72.61882 22.95131, 72.61821 22.95157, 72.61791 22.95174, 72.61766 22.9519, 72.61739 22.95213, 72.61739 22.95213, 72.61716 22.95238, 72.61654 22.95279, 72.61625 22.95288, 72.61556 22.953, 72.61556 22.953, 72.61514 22.95307, 72.61498 22.95307, 72.61482 22.95305, 72.61405 22.95302, 72.61385 22.95305, 72.61385 22.95305, 72.61352 22.95315, 72.61294 22.9534, 72.61284 22.95357, 72.61279 22.95375, 72.61277 22.95397, 72.61277 22.95397, 72.61275 22.95422, 72.6129 22.9545, 72.61325 22.95497, 72.61342 22.95517, 72.61352 22.95533, 72.61354 22.95551, 72.61349 22.95567, 72.61328 22.95592, 72.61319 22.95609, 72.61306 22.95646, 72.61302 22.95654, 72.61302 22.95654, 72.61282 22.95692, 72.61269 22.95721, 72.61256 22.95754, 72.61244 22.95768, 72.61219 22.95799, 72.61205 22.95813, 72.61197 22.95841, 72.6118 22.95881, 72.61167 22.95913, 72.61145 22.95964, 72.61133 22.95982, 72.61121 22.96021, 72.61121 22.96021, 72.61081 22.96151, 72.61062 22.96219, 72.61062 22.96219, 72.61057 22.96235, 72.61035 22.96288, 72.61017 22.96328, 72.6095 22.96449, 72.60918 22.96505, 72.60918 22.96505, 72.60879 22.96573, 72.60792 22.96721, 72.60779 22.96736, 72.60765 22.96762, 72.60765 22.96762, 72.60712 22.96851, 72.60705 22.96858, 72.60666 22.96926, 72.6064 22.96971, 72.60593 22.97043, 72.60558 22.97097, 72.60558 22.97097, 72.60398 22.97305, 72.60398 22.97305, 72.60344 22.97373, 72.60326 22.97394, 72.60326 22.97394, 72.60287 22.9744, 72.60277 22.97449, 72.60259 22.97471, 72.60196 22.9756, 72.60176 22.97589, 72.60067 22.97556)"
  },
  {
    "stopName": "Roza",
    "stopCode": 5065,
    "stationCode": 2511,
    "stopType": "MUNICIPAL_BUS",
    "shortStopName": null,
    "Position": {
      "stopLongitude": "72.613011",
      "stopLatitude": "22.956533"
    },
    "RouteCodes": null,
    "Sequence": 9,
    "routeFlow": null
  },
  {
    "stopName": "Gebansha Pir",
    "stopCode": 5066,
    "stationCode": 1540,
    "stopType": "MUNICIPAL_BUS",
    "shortStopName": null,
    "Position": {
      "stopLongitude": "72.607613",
      "stopLatitude": "22.9676"
    },
    "RouteCodes": null,
    "Sequence": 13,
    "routeFlow": null
  },
  {
    "stopName": "Paras Nagar",
    "stopCode": 5067,
    "stationCode": 2305,
    "stopType": "MUNICIPAL_BUS",
    "shortStopName": null,
    "Position": {
      "stopLongitude": "72.603981",
      "stopLatitude": "22.973055"
    },
    "RouteCodes": null,
    "Sequence": 15,
    "routeFlow": null
  },
  {
    "stopName": "Jethabhaini Vav",
    "stopCode": 5068,
    "stationCode": 1782,
    "stopType": "MUNICIPAL_BUS",
    "shortStopName": null,
    "Position": {
      "stopLongitude": "72.60324",
      "stopLatitude": "22.973925"
    },
    "RouteCodes": null,
    "Sequence": 16,
    "routeFlow": null
  },
  {
    "stopName": "Manokamna Society",
    "stopCode": 5301,
    "stationCode": 2052,
    "stopType": "MUNICIPAL_BUS",
    "shortStopName": null,
    "Position": {
      "stopLongitude": "72.605586",
      "stopLatitude": "22.970971"
    },
    "RouteCodes": null,
    "Sequence": 14,
    "routeFlow": null
  },
  {
    "stopName": "Vatva Railway Crossing",
    "stopCode": 5321,
    "stationCode": 3029,
    "stopType": "MUNICIPAL_BUS",
    "shortStopName": null,
    "Position": {
      "stopLongitude": "72.631311",
      "stopLatitude": "22.953598"
    },
    "RouteCodes": null,
    "Sequence": 1,
    "routeFlow": null
  },
  {
    "stopName": "Shraddhakunj Society",
    "stopCode": 5322,
    "stationCode": 2732,
    "stopType": "MUNICIPAL_BUS",
    "shortStopName": null,
    "Position": {
      "stopLongitude": "72.630205",
      "stopLatitude": "22.95028"
    },
    "RouteCodes": null,
    "Sequence": 2,
    "routeFlow": null
  },
  {
    "stopName": "Urmijivan Society",
    "stopCode": 5323,
    "stationCode": 2974,
    "stopType": "MUNICIPAL_BUS",
    "shortStopName": null,
    "Position": {
      "stopLongitude": "72.626985",
      "stopLatitude": "22.95007"
    },
    "RouteCodes": null,
    "Sequence": 3,
    "routeFlow": null
  },
  {
    "stopName": "Ambe mata nu Mandir",
    "stopCode": 5324,
    "stationCode": 2229,
    "stopType": "MUNICIPAL_BUS",
    "shortStopName": null,
    "Position": {
      "stopLongitude": "72.622365",
      "stopLatitude": "22.950316"
    },
    "RouteCodes": null,
    "Sequence": 4,
    "routeFlow": null
  },
  {
    "stopName": "Kashiba Municipal General Hospital",
    "stopCode": 5325,
    "stationCode": 1863,
    "stopType": "MUNICIPAL_BUS",
    "shortStopName": null,
    "Position": {
      "stopLongitude": "72.615558",
      "stopLatitude": "22.952983"
    },
    "RouteCodes": null,
    "Sequence": 6,
    "routeFlow": null
  },
  {
    "stopName": "Panini Taanki(Vatva)",
    "stopCode": 5326,
    "stationCode": 5098,
    "stopType": "MUNICIPAL_BUS",
    "shortStopName": null,
    "Position": {
      "stopLongitude": "72.613843",
      "stopLatitude": "22.953036"
    },
    "RouteCodes": null,
    "Sequence": 7,
    "routeFlow": null
  },
  {
    "stopName": "Bibi Talav",
    "stopCode": 5327,
    "stationCode": 1308,
    "stopType": "MUNICIPAL_BUS",
    "shortStopName": null,
    "Position": {
      "stopLongitude": "72.611226",
      "stopLatitude": "22.960215"
    },
    "RouteCodes": null,
    "Sequence": 10,
    "routeFlow": null
  },
  {
    "stopName": "Gokul Society",
    "stopCode": 5328,
    "stationCode": 1573,
    "stopType": "MUNICIPAL_BUS",
    "shortStopName": null,
    "Position": {
      "stopLongitude": "72.610616",
      "stopLatitude": "22.962188"
    },
    "RouteCodes": null,
    "Sequence": 11,
    "routeFlow": null
  },
  {
    "stopName": "Isanpur-Vatva Cross Road",
    "stopCode": 5329,
    "stationCode": 1726,
    "stopType": "MUNICIPAL_BUS",
    "shortStopName": null,
    "Position": {
      "stopLongitude": "72.600675",
      "stopLatitude": "22.975548"
    },
    "RouteCodes": null,
    "Sequence": 17,
    "routeFlow": null
  },
  {
    "stopName": "Saiyadni Wadi",
    "stopCode": 5603,
    "stationCode": 2555,
    "stopType": "MUNICIPAL_BUS",
    "shortStopName": null,
    "Position": {
      "stopLongitude": "72.60914",
      "stopLatitude": "22.965035"
    },
    "RouteCodes": null,
    "Sequence": 12,
    "routeFlow": null
  },
  {
    "stopName": "Vatva Gam",
    "stopCode": 5636,
    "stationCode": 3025,
    "stopType": "MUNICIPAL_BUS",
    "shortStopName": null,
    "Position": {
      "stopLongitude": "72.612758",
      "stopLatitude": "22.953971"
    },
    "RouteCodes": null,
    "Sequence": 8,
    "routeFlow": null
  }
]