[
  {
    "stopName": "Lal Darwaja",
    "stopCode": 1125,
    "stationCode": 1961,
    "stopType": "MUNICIPAL_BUS",
    "shortStopName": null,
    "Position": {
      "stopLongitude": "72.578605",
      "stopLatitude": "23.024376"
    },
    "RouteCodes": null,
    "Sequence": 1,
    "routeFlow": "LINESTRING (72.5786 23.02437, 72.57864 23.02437, 72.57865 23.02503, 72.57904 23.02503, 72.57907 23.02503, 72.58002 23.02499, 72.58037 23.02497, 72.58045 23.02499, 72.58058 23.02506, 72.58064 23.02513, 72.58065 23.02554, 72.58059 23.02624, 72.58064 23.02715, 72.58054 23.02724, 72.5804 23.02727, 72.57955 23.02725, 72.57888 23.02719, 72.57888 23.02719, 72.57778 23.02711, 72.57124 23.02658, 72.57128 23.02613, 72.57133 23.0253, 72.57133 23.0253, 72.57139 23.02444, 72.5714 23.02408, 72.5714 23.02408, 72.57143 23.02345, 72.57142 23.02262, 72.57143 23.02212, 72.57136 23.02179, 72.571324 23.021689, 72.57133 23.0217, 72.57129 23.02161, 72.57116 23.02143, 72.57076 23.02102, 72.57052 23.02083, 72.56962 23.01968, 72.56892 23.01886, 72.56824 23.01808, 72.56798 23.01776, 72.56798 23.01776, 72.56786 23.01762, 72.56775 23.01742, 72.56716 23.0167, 72.56716 23.0167, 72.56693 23.01642, 72.56618 23.01557, 72.5656 23.01486, 72.56503 23.01412, 72.56452 23.0134, 72.56452 23.0134, 72.56373 23.01227, 72.56337 23.01164, 72.56337 23.01164, 72.56243 23.00972, 72.56228 23.00939, 72.56218 23.00924, 72.56203 23.00913, 72.56169 23.00892, 72.56169 23.00892, 72.5604 23.00819, 72.56012 23.00803, 72.55981 23.00791, 72.55942 23.00779, 72.55942 23.00779, 72.55857 23.00753, 72.55823 23.00741, 72.55799 23.00728, 72.55776 23.00714, 72.55741 23.00686, 72.55741 23.00686, 72.55685 23.00632, 72.55663 23.00611, 72.55648 23.006, 72.55636 23.00594, 72.5553 23.00551, 72.55476 23.00525, 72.55494 23.00523, 72.55492 23.00526, 72.55443 23.00504, 72.55414 23.00489, 72.55378 23.00469, 72.55313 23.00427, 72.55264 23.00394, 72.55238 23.00373, 72.55216 23.00355, 72.55202 23.00338, 72.55182 23.00314, 72.55185 23.00312, 72.55181 23.00314, 72.5517 23.00301, 72.55145 23.00277, 72.55115 23.00254, 72.55101 23.00246, 72.55053 23.00229, 72.55018 23.00222, 72.54993 23.0022, 72.54966 23.00215, 72.54888 23.00199, 72.54807 23.00186, 72.54778 23.00178, 72.54762 23.00169, 72.54738 23.00146, 72.54738 23.00146, 72.54722 23.00125, 72.54708 23.00102, 72.54693 23.00069, 72.5468 23.0005, 72.54664 23.00034, 72.54624 23.00002, 72.54588 22.99976, 72.54522 22.99937, 72.5452 22.99936, 72.54467 22.99907, 72.54413 22.99882, 72.544 22.99875, 72.54291 22.99828, 72.54225 22.99798, 72.54225 22.99798, 72.54133 22.99759, 72.54052 22.99725, 72.53974 22.99696, 72.53974 22.99696, 72.53905 22.99671, 72.53812 22.99648, 72.53788 22.99643, 72.53763 22.99635, 72.53496 22.99574, 72.53496 22.99574, 72.53364 22.99545, 72.53306 22.99532, 72.5318 22.99503, 72.5318 22.99503, 72.53013 22.99464, 72.53013 22.99464, 72.52781 22.99406, 72.52781 22.99406, 72.52525 22.99335, 72.52488 22.99326, 72.52488 22.99326, 72.5223 22.99257, 72.52179 22.99242, 72.521 22.99214, 72.51863 22.99119, 72.51863 22.99119, 72.51635 22.99026, 72.51635 22.99026, 72.51533 22.98984, 72.51423 22.98943, 72.51383 22.98931, 72.51299 22.98909, 72.51253 22.989, 72.51253 22.989, 72.51185 22.98886, 72.51189 22.98876, 72.51194 22.98796, 72.51203 22.98677, 72.51203 22.98677, 72.51206 22.98628, 72.51209 22.98549, 72.51207 22.98496, 72.51207 22.98465, 72.51207 22.98465, 72.51201 22.98233, 72.51205 22.98152, 72.51205 22.98152, 72.51198 22.97991, 72.512 22.97929, 72.512 22.97929, 72.512 22.97854, 72.51194 22.97779)"
  },
  {
    "stopName": "Apna Bazar",
    "stopCode": 1126,
    "stationCode": 1150,
    "stopType": "MUNICIPAL_BUS",
    "shortStopName": null,
    "Position": {
      "stopLongitude": "72.579073",
      "stopLatitude": "23.025068"
    },
    "RouteCodes": null,
    "Sequence": 2,
    "routeFlow": null
  },
  {
    "stopName": "Sardarbag",
    "stopCode": 1127,
    "stationCode": 2611,
    "stopType": "MUNICIPAL_BUS",
    "shortStopName": null,
    "Position": {
      "stopLongitude": "72.578883",
      "stopLatitude": "23.027145"
    },
    "RouteCodes": null,
    "Sequence": 3,
    "routeFlow": null
  },
  {
    "stopName": "Gandhigram Railway Station",
    "stopCode": 1128,
    "stationCode": 1522,
    "stopType": "MUNICIPAL_BUS",
    "shortStopName": null,
    "Position": {
      "stopLongitude": "72.571413",
      "stopLatitude": "23.025308"
    },
    "RouteCodes": null,
    "Sequence": 4,
    "routeFlow": null
  },
  {
    "stopName": "Sanyas Ashram",
    "stopCode": 1129,
    "stationCode": 2588,
    "stopType": "MUNICIPAL_BUS",
    "shortStopName": null,
    "Position": {
      "stopLongitude": "72.571466",
      "stopLatitude": "23.02408"
    },
    "RouteCodes": null,
    "Sequence": 5,
    "routeFlow": null
  },
  {
    "stopName": "V.S. Hospital",
    "stopCode": 1130,
    "stationCode": 2977,
    "stopType": "MUNICIPAL_BUS",
    "shortStopName": null,
    "Position": {
      "stopLongitude": "72.571373",
      "stopLatitude": "23.021679"
    },
    "RouteCodes": null,
    "Sequence": 6,
    "routeFlow": null
  },
  {
    "stopName": "Arvind Sales Emporium",
    "stopCode": 1131,
    "stationCode": 1167,
    "stopType": "MUNICIPAL_BUS",
    "shortStopName": null,
    "Position": {
      "stopLongitude": "72.568068",
      "stopLatitude": "23.017701"
    },
    "RouteCodes": null,
    "Sequence": 7,
    "routeFlow": null
  },
  {
    "stopName": "Pritamnagar",
    "stopCode": 1132,
    "stationCode": 2389,
    "stopType": "MUNICIPAL_BUS",
    "shortStopName": null,
    "Position": {
      "stopLongitude": "72.567213",
      "stopLatitude": "23.016665"
    },
    "RouteCodes": null,
    "Sequence": 8,
    "routeFlow": null
  },
  {
    "stopName": "Vasna",
    "stopCode": 1257,
    "stationCode": 3019,
    "stopType": "MUNICIPAL_BUS",
    "shortStopName": null,
    "Position": {
      "stopLongitude": "72.547411",
      "stopLatitude": "23.001436"
    },
    "RouteCodes": null,
    "Sequence": 16,
    "routeFlow": null
  },
  {
    "stopName": "Pratapkunj",
    "stopCode": 1258,
    "stationCode": 2373,
    "stopType": "MUNICIPAL_BUS",
    "shortStopName": null,
    "Position": {
      "stopLongitude": "72.545215",
      "stopLatitude": "22.999338"
    },
    "RouteCodes": null,
    "Sequence": 17,
    "routeFlow": null
  },
  {
    "stopName": "Pravinnagar",
    "stopCode": 1259,
    "stationCode": 2376,
    "stopType": "MUNICIPAL_BUS",
    "shortStopName": null,
    "Position": {
      "stopLongitude": "72.542263",
      "stopLatitude": "22.997966"
    },
    "RouteCodes": null,
    "Sequence": 18,
    "routeFlow": null
  },
  {
    "stopName": "Guptanagar",
    "stopCode": 1260,
    "stationCode": 1633,
    "stopType": "MUNICIPAL_BUS",
    "shortStopName": null,
    "Position": {
      "stopLongitude": "72.539748",
      "stopLatitude": "22.996951"
    },
    "RouteCodes": null,
    "Sequence": 19,
    "routeFlow": null
  },
  {
    "stopName": "Sarani Kamdar Society",
    "stopCode": 1261,
    "stationCode": 2595,
    "stopType": "MUNICIPAL_BUS",
    "shortStopName": null,
    "Position": {
      "stopLongitude": "72.53495",
      "stopLatitude": "22.995758"
    },
    "RouteCodes": null,
    "Sequence": 20,
    "routeFlow": null
  },
  {
    "stopName": "Prakash College",
    "stopCode": 1262,
    "stationCode": 2365,
    "stopType": "MUNICIPAL_BUS",
    "shortStopName": null,
    "Position": {
      "stopLongitude": "72.531805",
      "stopLatitude": "22.995013"
    },
    "RouteCodes": null,
    "Sequence": 21,
    "routeFlow": null
  },
  {
    "stopName": "Juhapura Road",
    "stopCode": 1263,
    "stationCode": 1801,
    "stopType": "MUNICIPAL_BUS",
    "shortStopName": null,
    "Position": {
      "stopLongitude": "72.530135",
      "stopLatitude": "22.994611"
    },
    "RouteCodes": null,
    "Sequence": 22,
    "routeFlow": null
  },
  {
    "stopName": "Gandhi Smruti",
    "stopCode": 1264,
    "stationCode": 1520,
    "stopType": "MUNICIPAL_BUS",
    "shortStopName": null,
    "Position": {
      "stopLongitude": "72.524875",
      "stopLatitude": "22.993246"
    },
    "RouteCodes": null,
    "Sequence": 24,
    "routeFlow": null
  },
  {
    "stopName": "Khurshid Park",
    "stopCode": 1265,
    "stationCode": 1895,
    "stopType": "MUNICIPAL_BUS",
    "shortStopName": null,
    "Position": {
      "stopLongitude": "72.518653",
      "stopLatitude": "22.991148"
    },
    "RouteCodes": null,
    "Sequence": 25,
    "routeFlow": null
  },
  {
    "stopName": "Fatehwadi",
    "stopCode": 1266,
    "stationCode": 1497,
    "stopType": "MUNICIPAL_BUS",
    "shortStopName": null,
    "Position": {
      "stopLongitude": "72.51637",
      "stopLatitude": "22.990226"
    },
    "RouteCodes": null,
    "Sequence": 26,
    "routeFlow": null
  },
  {
    "stopName": "Ambar Tower",
    "stopCode": 1267,
    "stationCode": 1106,
    "stopType": "MUNICIPAL_BUS",
    "shortStopName": null,
    "Position": {
      "stopLongitude": "72.512541",
      "stopLatitude": "22.988961"
    },
    "RouteCodes": null,
    "Sequence": 27,
    "routeFlow": null
  },
  {
    "stopName": "Paldi",
    "stopCode": 1346,
    "stationCode": 2284,
    "stopType": "MUNICIPAL_BUS",
    "shortStopName": null,
    "Position": {
      "stopLongitude": "72.564498",
      "stopLatitude": "23.01341"
    },
    "RouteCodes": null,
    "Sequence": 9,
    "routeFlow": null
  },
  {
    "stopName": "Mahalakshmi Society",
    "stopCode": 1347,
    "stationCode": 2000,
    "stopType": "MUNICIPAL_BUS",
    "shortStopName": null,
    "Position": {
      "stopLongitude": "72.563405",
      "stopLatitude": "23.011623"
    },
    "RouteCodes": null,
    "Sequence": 10,
    "routeFlow": null
  },
  {
    "stopName": "Jain Merchant Society",
    "stopCode": 1348,
    "stationCode": 1743,
    "stopType": "MUNICIPAL_BUS",
    "shortStopName": null,
    "Position": {
      "stopLongitude": "72.5617",
      "stopLatitude": "23.008901"
    },
    "RouteCodes": null,
    "Sequence": 11,
    "routeFlow": null
  },
  {
    "stopName": "Fatehnagar",
    "stopCode": 1349,
    "stationCode": 1496,
    "stopType": "MUNICIPAL_BUS",
    "shortStopName": null,
    "Position": {
      "stopLongitude": "72.559421",
      "stopLatitude": "23.007781"
    },
    "RouteCodes": null,
    "Sequence": 12,
    "routeFlow": null
  },
  {
    "stopName": "Anandnagar",
    "stopCode": 1350,
    "stationCode": 1129,
    "stopType": "MUNICIPAL_BUS",
    "shortStopName": null,
    "Position": {
      "stopLongitude": "72.55749",
      "stopLatitude": "23.006791"
    },
    "RouteCodes": null,
    "Sequence": 13,
    "routeFlow": null
  },
  {
    "stopName": "Bhaththa (Vasna)",
    "stopCode": 1351,
    "stationCode": 1288,
    "stopType": "MUNICIPAL_BUS",
    "shortStopName": null,
    "Position": {
      "stopLongitude": "72.554771",
      "stopLatitude": "23.005235"
    },
    "RouteCodes": null,
    "Sequence": 14,
    "routeFlow": null
  },
  {
    "stopName": "Jawaharnagar",
    "stopCode": 1352,
    "stationCode": 1771,
    "stopType": "MUNICIPAL_BUS",
    "shortStopName": null,
    "Position": {
      "stopLongitude": "72.551836",
      "stopLatitude": "23.003118"
    },
    "RouteCodes": null,
    "Sequence": 15,
    "routeFlow": null
  },
  {
    "stopName": "Sardar Smruti",
    "stopCode": 1799,
    "stationCode": 2610,
    "stopType": "MUNICIPAL_BUS",
    "shortStopName": null,
    "Position": {
      "stopLongitude": "72.527806",
      "stopLatitude": "22.994065"
    },
    "RouteCodes": null,
    "Sequence": 23,
    "routeFlow": null
  },
  {
    "stopName": "Arshad Residency",
    "stopCode": 8479,
    "stationCode": 6022,
    "stopType": "MUNICIPAL_BUS",
    "shortStopName": null,
    "Position": {
      "stopLongitude": "72.512113",
      "stopLatitude": "22.986774"
    },
    "RouteCodes": null,
    "Sequence": 28,
    "routeFlow": null
  },
  {
    "stopName": "Kadri Party Plot ",
    "stopCode": 8481,
    "stationCode": 6023,
    "stopType": "MUNICIPAL_BUS",
    "shortStopName": null,
    "Position": {
      "stopLongitude": "72.5121",
      "stopLatitude": "22.984654"
    },
    "RouteCodes": null,
    "Sequence": 29,
    "routeFlow": null
  },
  {
    "stopName": "Bage Masiha Vibhag-1",
    "stopCode": 8483,
    "stationCode": 6024,
    "stopType": "MUNICIPAL_BUS",
    "shortStopName": null,
    "Position": {
      "stopLongitude": "72.512115",
      "stopLatitude": "22.981516"
    },
    "RouteCodes": null,
    "Sequence": 30,
    "routeFlow": null
  },
  {
    "stopName": "Jetun Residency",
    "stopCode": 8485,
    "stationCode": 6025,
    "stopType": "MUNICIPAL_BUS",
    "shortStopName": null,
    "Position": {
      "stopLongitude": "72.512029",
      "stopLatitude": "22.979288"
    },
    "RouteCodes": null,
    "Sequence": 31,
    "routeFlow": null
  },
  {
    "stopName": "Aradhana Residency (Fateh wadi Kenal)",
    "stopCode": 8492,
    "stationCode": 6026,
    "stopType": "MUNICIPAL_BUS",
    "shortStopName": null,
    "Position": {
      "stopLongitude": "72.511969",
      "stopLatitude": "22.977795"
    },
    "RouteCodes": null,
    "Sequence": 32,
    "routeFlow": null
  }
]