[
  {
    "stopName": "Sarkhej Railway Station (St 31 36 150)",
    "stopCode": 1224,
    "stationCode": 2629,
    "stopType": "MUNICIPAL_BUS",
    "shortStopName": null,
    "Position": {
      "stopLongitude": "72.498211",
      "stopLatitude": "22.983081"
    },
    "RouteCodes": null,
    "Sequence": 18,
    "routeFlow": "LINESTRING (72.50986 22.9253, 72.50917 22.92635, 72.50877 22.92696, 72.50861 22.92714, 72.50838 22.92728, 72.50792 22.92746, 72.50703 22.92794, 72.50607 22.92842, 72.50607 22.92842, 72.50594 22.9285, 72.50587 22.92857, 72.50574 22.92876, 72.50568 22.92887, 72.50563 22.92909, 72.50562 22.92934, 72.50565 22.92993, 72.50574 22.93073, 72.50576 22.93102, 72.50575 22.93112, 72.50571 22.93132, 72.50542 22.9322, 72.50534 22.93243, 72.50514 22.93322, 72.50505 22.93337, 72.5049 22.93344, 72.50403 22.93359, 72.50388 22.93364, 72.50378 22.93371, 72.50361 22.93395, 72.50347 22.93425, 72.50338 22.93456, 72.50334 22.93473, 72.50329 22.93486, 72.50317 22.93498, 72.50302 22.93501, 72.50252 22.93506, 72.50252 22.93506, 72.49983 22.93531, 72.49883 22.93555, 72.49821 22.93573, 72.49749 22.93605, 72.49752 22.93612, 72.49752 22.93612, 72.49756 22.93636, 72.49765 22.93668, 72.4977 22.93686, 72.49768 22.93694, 72.4977 22.93701, 72.49774 22.93707, 72.49783 22.93712, 72.49787 22.93713, 72.4982 22.93773, 72.49825 22.9378, 72.49856 22.9385, 72.49856 22.9385, 72.5006 22.94322, 72.50099 22.94419, 72.50099 22.94419, 72.50209 22.94696, 72.50307 22.94951, 72.50307 22.94951, 72.50338 22.95031, 72.50345 22.95053, 72.5035 22.95078, 72.50353 22.95104, 72.50353 22.95132, 72.5035 22.95172, 72.50347 22.95184, 72.50338 22.95212, 72.50322 22.95246, 72.50305 22.95271, 72.5028 22.95301, 72.50252 22.9533, 72.50233 22.95346, 72.50233 22.95346, 72.49904 22.95603, 72.49904 22.95603, 72.49834 22.95659, 72.49811 22.95682, 72.49775 22.95728, 72.49762 22.95746, 72.49762 22.95746, 72.49742 22.95782, 72.4973 22.95806, 72.4972 22.9584, 72.49714 22.95864, 72.49711 22.95883, 72.49707 22.95941, 72.49708 22.95967, 72.49708 22.95967, 72.49725 22.96367, 72.49725 22.96367, 72.49742 22.96764, 72.49742 22.96764, 72.49745 22.96824, 72.49747 22.96932, 72.49749 22.97, 72.49749 22.97, 72.49758 22.97179, 72.49767 22.97286, 72.49773 22.97403, 72.49783 22.97576, 72.49789 22.97666, 72.49789 22.97666, 72.49794 22.97792, 72.49794 22.97792, 72.49805 22.98028, 72.49805 22.98028, 72.4982 22.98308, 72.4982 22.98308, 72.49822 22.98382, 72.49821 22.98418, 72.49821 22.98429, 72.49821 22.9844, 72.49824 22.98447, 72.49831 22.98454, 72.49876 22.98489, 72.50028 22.98608, 72.5011 22.98666, 72.5011 22.98666, 72.50147 22.98692, 72.50154 22.98695, 72.50179 22.98715, 72.50187 22.98717, 72.5019 22.98717, 72.50287 22.98755, 72.50298 22.98758, 72.50298 22.98758, 72.50338 22.98764, 72.50435 22.98773, 72.50721 22.98806, 72.50799 22.98817, 72.50799 22.98817, 72.5087 22.98828, 72.50932 22.98839, 72.5103 22.98862, 72.51114 22.98881, 72.51244 22.98909, 72.51244 22.98909, 72.51372 22.98939, 72.51421 22.98954, 72.5152 22.98992, 72.51598 22.99023, 72.51598 22.99023, 72.51826 22.99117, 72.51826 22.99117, 72.5204 22.992, 72.52133 22.99237, 72.52212 22.99262, 72.52405 22.99315, 72.52578 22.99362, 72.52578 22.99362, 72.52802 22.99422, 72.52802 22.99422, 72.52958 22.994689, 72.529596 22.99469, 72.53115 22.9951, 72.53197 22.99528, 72.53197 22.99528, 72.533 22.99551, 72.5351 22.99587, 72.5351 22.99587, 72.53676 22.99625, 72.53761 22.99641, 72.53786 22.99649, 72.53872 22.99671, 72.53946 22.99694, 72.53946 22.99694, 72.54049 22.99732, 72.54129 22.99765, 72.54197 22.99796, 72.542 22.99797, 72.542 22.99797, 72.54376 22.99873, 72.54434 22.99899, 72.54502 22.99935, 72.54502 22.99935, 72.54581 22.99988, 72.54609 23.00006, 72.54632 23.00024, 72.54666 23.00053, 72.54678 23.0007, 72.54689 23.00088, 72.54705 23.00122, 72.54713 23.00132, 72.547497 23.001747, 72.547517 23.001874, 72.547481 23.00202, 72.547493 23.002143, 72.547512 23.002211, 72.547563 23.002249, 72.547759 23.002266, 72.54792 23.001975, 72.547977 23.001905, 72.548118 23.001923, 72.548479 23.001962, 72.54916 23.00208, 72.54998 23.00225, 72.55046 23.00236, 72.55083 23.00251, 72.55109 23.00266, 72.55145 23.00299, 72.55182 23.0034, 72.55182 23.0034, 72.55236 23.00394, 72.5527 23.00423, 72.55286 23.00439, 72.55286 23.00443, 72.55287 23.00447, 72.55288 23.0045, 72.55293 23.00457, 72.55303 23.00462, 72.5531 23.00463, 72.55315 23.00462, 72.55329 23.00464, 72.55342 23.00468, 72.55361 23.0048, 72.55418 23.00506, 72.55439 23.00516, 72.55496 23.00552, 72.55496 23.00552, 72.55575 23.00581, 72.55637 23.00615, 72.55659 23.00629, 72.55675 23.00641, 72.55675 23.00641, 72.55719 23.00683, 72.55734 23.00697, 72.55766 23.00721, 72.55815 23.0075, 72.55853 23.00765, 72.55886 23.00775, 72.559 23.00779, 72.559 23.00779, 72.55964 23.00799, 72.55995 23.0081, 72.56053 23.00838, 72.56132 23.00882, 72.56132 23.00882, 72.56187 23.00915, 72.56204 23.00927, 72.56214 23.00942, 72.56222 23.00958, 72.56235 23.00986, 72.56301 23.01123, 72.56318 23.01156, 72.56318 23.01156, 72.56353 23.01218, 72.56387 23.01269, 72.56467 23.01383)"
  },
  {
    "stopName": "Bhavani Tractors",
    "stopCode": 1225,
    "stationCode": 1292,
    "stopType": "MUNICIPAL_BUS",
    "shortStopName": null,
    "Position": {
      "stopLongitude": "72.50111",
      "stopLatitude": "22.986655"
    },
    "RouteCodes": null,
    "Sequence": 19,
    "routeFlow": null
  },
  {
    "stopName": "Sarkhej Bus Stand",
    "stopCode": 1226,
    "stationCode": 2625,
    "stopType": "MUNICIPAL_BUS",
    "shortStopName": null,
    "Position": {
      "stopLongitude": "72.502978",
      "stopLatitude": "22.987578"
    },
    "RouteCodes": null,
    "Sequence": 20,
    "routeFlow": null
  },
  {
    "stopName": "Factory",
    "stopCode": 1227,
    "stationCode": 1495,
    "stopType": "MUNICIPAL_BUS",
    "shortStopName": null,
    "Position": {
      "stopLongitude": "72.507983",
      "stopLatitude": "22.988186"
    },
    "RouteCodes": null,
    "Sequence": 21,
    "routeFlow": null
  },
  {
    "stopName": "Ambar Tower",
    "stopCode": 1228,
    "stationCode": 1106,
    "stopType": "MUNICIPAL_BUS",
    "shortStopName": null,
    "Position": {
      "stopLongitude": "72.512436",
      "stopLatitude": "22.98911"
    },
    "RouteCodes": null,
    "Sequence": 22,
    "routeFlow": null
  },
  {
    "stopName": "Fatehwadi",
    "stopCode": 1229,
    "stationCode": 1497,
    "stopType": "MUNICIPAL_BUS",
    "shortStopName": null,
    "Position": {
      "stopLongitude": "72.516001",
      "stopLatitude": "22.990256"
    },
    "RouteCodes": null,
    "Sequence": 23,
    "routeFlow": null
  },
  {
    "stopName": "Khurshid Park",
    "stopCode": 1230,
    "stationCode": 1895,
    "stopType": "MUNICIPAL_BUS",
    "shortStopName": null,
    "Position": {
      "stopLongitude": "72.518261",
      "stopLatitude": "22.991173"
    },
    "RouteCodes": null,
    "Sequence": 24,
    "routeFlow": null
  },
  {
    "stopName": "Gandhi Smruti",
    "stopCode": 1231,
    "stationCode": 1520,
    "stopType": "MUNICIPAL_BUS",
    "shortStopName": null,
    "Position": {
      "stopLongitude": "72.525775",
      "stopLatitude": "22.993648"
    },
    "RouteCodes": null,
    "Sequence": 25,
    "routeFlow": null
  },
  {
    "stopName": "Juhapura Road",
    "stopCode": 1232,
    "stationCode": 1801,
    "stopType": "MUNICIPAL_BUS",
    "shortStopName": null,
    "Position": {
      "stopLongitude": "72.529593",
      "stopLatitude": "22.99467"
    },
    "RouteCodes": null,
    "Sequence": 27,
    "routeFlow": null
  },
  {
    "stopName": "Prakash College",
    "stopCode": 1233,
    "stationCode": 2365,
    "stopType": "MUNICIPAL_BUS",
    "shortStopName": null,
    "Position": {
      "stopLongitude": "72.53198",
      "stopLatitude": "22.995243"
    },
    "RouteCodes": null,
    "Sequence": 28,
    "routeFlow": null
  },
  {
    "stopName": "Sarani Kamdar Society",
    "stopCode": 1234,
    "stationCode": 2595,
    "stopType": "MUNICIPAL_BUS",
    "shortStopName": null,
    "Position": {
      "stopLongitude": "72.535078",
      "stopLatitude": "22.995941"
    },
    "RouteCodes": null,
    "Sequence": 29,
    "routeFlow": null
  },
  {
    "stopName": "Guptanagar",
    "stopCode": 1235,
    "stationCode": 1633,
    "stopType": "MUNICIPAL_BUS",
    "shortStopName": null,
    "Position": {
      "stopLongitude": "72.539436",
      "stopLatitude": "22.996998"
    },
    "RouteCodes": null,
    "Sequence": 30,
    "routeFlow": null
  },
  {
    "stopName": "Pravinnagar",
    "stopCode": 1236,
    "stationCode": 2376,
    "stopType": "MUNICIPAL_BUS",
    "shortStopName": null,
    "Position": {
      "stopLongitude": "72.54197",
      "stopLatitude": "22.998026"
    },
    "RouteCodes": null,
    "Sequence": 31,
    "routeFlow": null
  },
  {
    "stopName": "Pratapkunj",
    "stopCode": 1237,
    "stationCode": 2373,
    "stopType": "MUNICIPAL_BUS",
    "shortStopName": null,
    "Position": {
      "stopLongitude": "72.544998",
      "stopLatitude": "22.999391"
    },
    "RouteCodes": null,
    "Sequence": 32,
    "routeFlow": null
  },
  {
    "stopName": "Vasna",
    "stopCode": 1286,
    "stationCode": 3019,
    "stopType": "MUNICIPAL_BUS",
    "shortStopName": null,
    "Position": {
      "stopLongitude": "72.547915",
      "stopLatitude": "23.002231"
    },
    "RouteCodes": null,
    "Sequence": 33,
    "routeFlow": null
  },
  {
    "stopName": "Jawaharnagar",
    "stopCode": 1287,
    "stationCode": 1771,
    "stopType": "MUNICIPAL_BUS",
    "shortStopName": null,
    "Position": {
      "stopLongitude": "72.551798",
      "stopLatitude": "23.003416"
    },
    "RouteCodes": null,
    "Sequence": 34,
    "routeFlow": null
  },
  {
    "stopName": "Bhaththa (Vasna)",
    "stopCode": 1288,
    "stationCode": 1288,
    "stopType": "MUNICIPAL_BUS",
    "shortStopName": null,
    "Position": {
      "stopLongitude": "72.55494",
      "stopLatitude": "23.005515"
    },
    "RouteCodes": null,
    "Sequence": 35,
    "routeFlow": null
  },
  {
    "stopName": "Anandnagar",
    "stopCode": 1289,
    "stationCode": 1129,
    "stopType": "MUNICIPAL_BUS",
    "shortStopName": null,
    "Position": {
      "stopLongitude": "72.556773",
      "stopLatitude": "23.006388"
    },
    "RouteCodes": null,
    "Sequence": 36,
    "routeFlow": null
  },
  {
    "stopName": "Fatehnagar",
    "stopCode": 1290,
    "stationCode": 1496,
    "stopType": "MUNICIPAL_BUS",
    "shortStopName": null,
    "Position": {
      "stopLongitude": "72.558968",
      "stopLatitude": "23.007895"
    },
    "RouteCodes": null,
    "Sequence": 37,
    "routeFlow": null
  },
  {
    "stopName": "Jain Merchant Society",
    "stopCode": 1291,
    "stationCode": 1743,
    "stopType": "MUNICIPAL_BUS",
    "shortStopName": null,
    "Position": {
      "stopLongitude": "72.56128",
      "stopLatitude": "23.008876"
    },
    "RouteCodes": null,
    "Sequence": 38,
    "routeFlow": null
  },
  {
    "stopName": "Mahalakshmi Society",
    "stopCode": 1292,
    "stationCode": 2000,
    "stopType": "MUNICIPAL_BUS",
    "shortStopName": null,
    "Position": {
      "stopLongitude": "72.563213",
      "stopLatitude": "23.011543"
    },
    "RouteCodes": null,
    "Sequence": 39,
    "routeFlow": null
  },
  {
    "stopName": "Paldi",
    "stopCode": 1293,
    "stationCode": 2284,
    "stopType": "MUNICIPAL_BUS",
    "shortStopName": null,
    "Position": {
      "stopLongitude": "72.564703",
      "stopLatitude": "23.013808"
    },
    "RouteCodes": null,
    "Sequence": 40,
    "routeFlow": null
  },
  {
    "stopName": "Sardar Smruti",
    "stopCode": 1804,
    "stationCode": 2610,
    "stopType": "MUNICIPAL_BUS",
    "shortStopName": null,
    "Position": {
      "stopLongitude": "72.528006",
      "stopLatitude": "22.994256"
    },
    "RouteCodes": null,
    "Sequence": 26,
    "routeFlow": null
  },
  {
    "stopName": "Municipal Octroinaka (Dholka)",
    "stopCode": 5349,
    "stationCode": 2123,
    "stopType": "MUNICIPAL_BUS",
    "shortStopName": null,
    "Position": {
      "stopLongitude": "72.498543",
      "stopLatitude": "22.93851"
    },
    "RouteCodes": null,
    "Sequence": 5,
    "routeFlow": null
  },
  {
    "stopName": "Bakrol Panjarapol",
    "stopCode": 5350,
    "stationCode": 1222,
    "stopType": "MUNICIPAL_BUS",
    "shortStopName": null,
    "Position": {
      "stopLongitude": "72.500958",
      "stopLatitude": "22.944205"
    },
    "RouteCodes": null,
    "Sequence": 6,
    "routeFlow": null
  },
  {
    "stopName": "Vanzar Patiya",
    "stopCode": 5351,
    "stationCode": 3010,
    "stopType": "MUNICIPAL_BUS",
    "shortStopName": null,
    "Position": {
      "stopLongitude": "72.50304",
      "stopLatitude": "22.949518"
    },
    "RouteCodes": null,
    "Sequence": 7,
    "routeFlow": null
  },
  {
    "stopName": "Zanab Farm",
    "stopCode": 5352,
    "stationCode": 1759,
    "stopType": "MUNICIPAL_BUS",
    "shortStopName": null,
    "Position": {
      "stopLongitude": "72.502292",
      "stopLatitude": "22.953416"
    },
    "RouteCodes": null,
    "Sequence": 8,
    "routeFlow": null
  },
  {
    "stopName": "Porbandar Road Lines",
    "stopCode": 5353,
    "stationCode": 2352,
    "stopType": "MUNICIPAL_BUS",
    "shortStopName": null,
    "Position": {
      "stopLongitude": "72.499002",
      "stopLatitude": "22.95599"
    },
    "RouteCodes": null,
    "Sequence": 9,
    "routeFlow": null
  },
  {
    "stopName": "Narimanpura",
    "stopCode": 5354,
    "stationCode": 2165,
    "stopType": "MUNICIPAL_BUS",
    "shortStopName": null,
    "Position": {
      "stopLongitude": "72.497587",
      "stopLatitude": "22.957443"
    },
    "RouteCodes": null,
    "Sequence": 10,
    "routeFlow": null
  },
  {
    "stopName": "Paras Hotel",
    "stopCode": 5355,
    "stationCode": 2303,
    "stopType": "MUNICIPAL_BUS",
    "shortStopName": null,
    "Position": {
      "stopLongitude": "72.497039",
      "stopLatitude": "22.959675"
    },
    "RouteCodes": null,
    "Sequence": 11,
    "routeFlow": null
  },
  {
    "stopName": "Jain Mandir",
    "stopCode": 5356,
    "stationCode": 1742,
    "stopType": "MUNICIPAL_BUS",
    "shortStopName": null,
    "Position": {
      "stopLongitude": "72.497248",
      "stopLatitude": "22.963666"
    },
    "RouteCodes": null,
    "Sequence": 12,
    "routeFlow": null
  },
  {
    "stopName": "Azadnagar",
    "stopCode": 5357,
    "stationCode": 1209,
    "stopType": "MUNICIPAL_BUS",
    "shortStopName": null,
    "Position": {
      "stopLongitude": "72.497405",
      "stopLatitude": "22.967645"
    },
    "RouteCodes": null,
    "Sequence": 13,
    "routeFlow": null
  },
  {
    "stopName": "Anand Ashram",
    "stopCode": 5358,
    "stationCode": 1124,
    "stopType": "MUNICIPAL_BUS",
    "shortStopName": null,
    "Position": {
      "stopLongitude": "72.497435",
      "stopLatitude": "22.97"
    },
    "RouteCodes": null,
    "Sequence": 14,
    "routeFlow": null
  },
  {
    "stopName": "Fatehwadi Gam",
    "stopCode": 5359,
    "stationCode": 1498,
    "stopType": "MUNICIPAL_BUS",
    "shortStopName": null,
    "Position": {
      "stopLongitude": "72.497873",
      "stopLatitude": "22.97666"
    },
    "RouteCodes": null,
    "Sequence": 15,
    "routeFlow": null
  },
  {
    "stopName": "Sarkhej Railway Crossing",
    "stopCode": 5360,
    "stationCode": 2627,
    "stopType": "MUNICIPAL_BUS",
    "shortStopName": null,
    "Position": {
      "stopLongitude": "72.49793",
      "stopLatitude": "22.97792"
    },
    "RouteCodes": null,
    "Sequence": 16,
    "routeFlow": null
  },
  {
    "stopName": "Bhartibapu Ashram",
    "stopCode": 5361,
    "stationCode": 1278,
    "stopType": "MUNICIPAL_BUS",
    "shortStopName": null,
    "Position": {
      "stopLongitude": "72.498038",
      "stopLatitude": "22.980283"
    },
    "RouteCodes": null,
    "Sequence": 17,
    "routeFlow": null
  },
  {
    "stopName": "Bakrol Patiya",
    "stopCode": 7057,
    "stationCode": 5023,
    "stopType": "MUNICIPAL_BUS",
    "shortStopName": null,
    "Position": {
      "stopLongitude": "72.497462",
      "stopLatitude": "22.936141"
    },
    "RouteCodes": null,
    "Sequence": 4,
    "routeFlow": null
  },
  {
    "stopName": "Bhaththa (Bakrol)",
    "stopCode": 7059,
    "stationCode": 5024,
    "stopType": "MUNICIPAL_BUS",
    "shortStopName": null,
    "Position": {
      "stopLongitude": "72.502512",
      "stopLatitude": "22.935027"
    },
    "RouteCodes": null,
    "Sequence": 3,
    "routeFlow": null
  },
  {
    "stopName": "Khodiyar Mandir Approach",
    "stopCode": 7061,
    "stationCode": 5033,
    "stopType": "MUNICIPAL_BUS",
    "shortStopName": null,
    "Position": {
      "stopLongitude": "72.506048",
      "stopLatitude": "22.928387"
    },
    "RouteCodes": null,
    "Sequence": 2,
    "routeFlow": null
  },
  {
    "stopName": "Bakrol Gam",
    "stopCode": 7063,
    "stationCode": 5034,
    "stopType": "MUNICIPAL_BUS",
    "shortStopName": null,
    "Position": {
      "stopLongitude": "72.509832",
      "stopLatitude": "22.925284"
    },
    "RouteCodes": null,
    "Sequence": 1,
    "routeFlow": null
  }
]