[
  {
    "stopName": "Vasna",
    "stopCode": 1257,
    "stationCode": 3019,
    "stopType": "MUNICIPAL_BUS",
    "shortStopName": null,
    "Position": {
      "stopLongitude": "72.547411",
      "stopLatitude": "23.001436"
    },
    "RouteCodes": null,
    "Sequence": 8,
    "routeFlow": "LINESTRING (72.56452 23.0134, 72.56373 23.01227, 72.56337 23.01164, 72.56337 23.01164, 72.56243 23.00972, 72.56228 23.00939, 72.56218 23.00924, 72.56203 23.00913, 72.56169 23.00892, 72.56169 23.00892, 72.5604 23.00819, 72.56012 23.00803, 72.55981 23.00791, 72.55942 23.00779, 72.55942 23.00779, 72.55857 23.00753, 72.55823 23.00741, 72.55799 23.00728, 72.55776 23.00714, 72.55741 23.00686, 72.55741 23.00686, 72.55685 23.00632, 72.55663 23.00611, 72.55648 23.006, 72.55636 23.00594, 72.5553 23.00551, 72.55476 23.00525, 72.55494 23.00523, 72.55492 23.00526, 72.55443 23.00504, 72.55414 23.00489, 72.55378 23.00469, 72.55313 23.00427, 72.55264 23.00394, 72.55238 23.00373, 72.55216 23.00355, 72.55202 23.00338, 72.55182 23.00314, 72.55185 23.00312, 72.55181 23.00314, 72.5517 23.00301, 72.55145 23.00277, 72.55115 23.00254, 72.55101 23.00246, 72.55053 23.00229, 72.55018 23.00222, 72.54993 23.0022, 72.54966 23.00215, 72.54888 23.00199, 72.54807 23.00186, 72.54778 23.00178, 72.54762 23.00169, 72.54738 23.00146, 72.54738 23.00146, 72.54722 23.00125, 72.54708 23.00102, 72.54693 23.00069, 72.5468 23.0005, 72.54664 23.00034, 72.54624 23.00002, 72.54588 22.99976, 72.54522 22.99937, 72.5452 22.99936, 72.54467 22.99907, 72.54413 22.99882, 72.544 22.99875, 72.54291 22.99828, 72.54225 22.99798, 72.54225 22.99798, 72.54133 22.99759, 72.54052 22.99725, 72.53974 22.99696, 72.53974 22.99696, 72.53905 22.99671, 72.53812 22.99648, 72.53788 22.99643, 72.53763 22.99635, 72.53496 22.99574, 72.53496 22.99574, 72.53364 22.99545, 72.53306 22.99532, 72.53178 22.99503, 72.53178 22.99503, 72.53013 22.99464, 72.53013 22.99464, 72.5289 22.99434, 72.52734 22.99394, 72.52525 22.99335, 72.52488 22.99326, 72.52488 22.99326, 72.52266 22.99267, 72.52229 22.99257, 72.52231 22.99248, 72.52218 22.99244, 72.52184 22.99233, 72.52114 22.99208, 72.52093 22.992, 72.52093 22.992, 72.51868 22.9911, 72.51863 22.99119, 72.51635 22.99026, 72.51635 22.99026, 72.51533 22.98984, 72.51423 22.98943, 72.51383 22.98931, 72.51299 22.98909, 72.51253 22.989, 72.51253 22.989, 72.51185 22.98886, 72.51034 22.98851, 72.50999 22.98843, 72.50926 22.98829, 72.50823 22.98812, 72.5071 22.98797, 72.5071 22.98797, 72.50528 22.98777, 72.50349 22.98756, 72.50349 22.98756, 72.503 22.98748, 72.50279 22.98742, 72.50251 22.9873, 72.50198 22.98705, 72.50197 22.98703, 72.50195 22.987, 72.50192 22.98698, 72.50188 22.98697, 72.50185 22.98696, 72.50174 22.98689, 72.50171 22.98679, 72.50165 22.98673, 72.50131 22.98647, 72.50131 22.98647, 72.4997 22.98527, 72.49937 22.985, 72.49846 22.98425, 72.49831 22.98409, 72.49827 22.98399, 72.49822 22.98382, 72.49822 22.98338, 72.49821 22.98326, 72.49821 22.98326, 72.49811 22.98158, 72.49811 22.98158, 72.49804 22.9801, 72.49804 22.9801, 72.49796 22.97812, 72.49794 22.97794, 72.49794 22.97794, 72.49785 22.97614, 72.49785 22.97614, 72.49769 22.97341, 72.49767 22.97286, 72.49758 22.97179, 72.49749 22.96999, 72.49749 22.96999, 72.49747 22.96932, 72.49745 22.96824, 72.49742 22.96766, 72.49742 22.96766, 72.49723 22.96317, 72.49723 22.96317, 72.49709 22.95968, 72.49709 22.95968, 72.49709 22.9591, 72.49713 22.95872, 72.49725 22.9582, 72.49737 22.95792, 72.49756 22.95756, 72.49767 22.95739, 72.49767 22.95739, 72.49797 22.95698, 72.49827 22.95665, 72.4986 22.95637, 72.49911 22.95598, 72.49911 22.95598, 72.50244 22.95337, 72.50244 22.95337, 72.5027 22.95313, 72.50292 22.95288, 72.50317 22.95254, 72.50327 22.95236, 72.50343 22.95198, 72.50348 22.9518, 72.50352 22.95148, 72.50354 22.95119, 72.50352 22.95089, 72.50348 22.95067, 72.50341 22.9504, 72.50333 22.95015, 72.50305 22.94946, 72.50305 22.94946, 72.50209 22.94696, 72.50093 22.94403, 72.50093 22.94403, 72.50021 22.94233, 72.49947 22.94061, 72.49852 22.93842, 72.49852 22.93842, 72.49825 22.9378, 72.49824 22.93771, 72.49802 22.93706, 72.49804 22.93703, 72.49806 22.93693, 72.49801 22.93683, 72.49793 22.93678, 72.4979 22.93677, 72.49766 22.93632, 72.49754 22.93618, 72.49753 22.93615, 72.49584 22.93231, 72.49584 22.93231, 72.49576 22.93213, 72.4958 22.93211, 72.4958 22.93211, 72.49576 22.93213, 72.49559 22.93173, 72.49539 22.93135, 72.49466 22.93027, 72.49344 22.9286, 72.49329 22.92839, 72.49329 22.92839, 72.492 22.92663, 72.49071 22.92483, 72.4881 22.92129, 72.48661 22.91924, 72.48628 22.91872, 72.48614 22.91843, 72.48608 22.91822, 72.48602 22.91793, 72.48602 22.91793, 72.48585 22.91682, 72.48569 22.91545, 72.48565 22.91517, 72.48565 22.91517, 72.4853 22.91246, 72.4853 22.91246, 72.48471 22.90819, 72.48471 22.90819, 72.48469 22.90805, 72.48441 22.90584, 72.48423 22.90425, 72.48423 22.90425, 72.48403 22.90249, 72.48403 22.90248, 72.48335 22.89672, 72.48335 22.89672, 72.4832 22.89568, 72.48309 22.89468, 72.48292 22.89321, 72.48292 22.89321, 72.48289 22.89294, 72.48313 22.89292, 72.48353 22.89292, 72.48395 22.89286, 72.48537 22.89273, 72.48569 22.8927, 72.48623 22.89271, 72.48667 22.89274, 72.48694 22.8927, 72.48725 22.89268, 72.4876 22.89273, 72.48781 22.8928, 72.48781 22.8928, 72.48838 22.89298, 72.48852 22.89302, 72.4888 22.89321, 72.48917 22.89358, 72.48981 22.89362)"
  },
  {
    "stopName": "Pratapkunj",
    "stopCode": 1258,
    "stationCode": 2373,
    "stopType": "MUNICIPAL_BUS",
    "shortStopName": null,
    "Position": {
      "stopLongitude": "72.545215",
      "stopLatitude": "22.999338"
    },
    "RouteCodes": null,
    "Sequence": 9,
    "routeFlow": null
  },
  {
    "stopName": "Pravinnagar",
    "stopCode": 1259,
    "stationCode": 2376,
    "stopType": "MUNICIPAL_BUS",
    "shortStopName": null,
    "Position": {
      "stopLongitude": "72.542263",
      "stopLatitude": "22.997966"
    },
    "RouteCodes": null,
    "Sequence": 10,
    "routeFlow": null
  },
  {
    "stopName": "Guptanagar",
    "stopCode": 1260,
    "stationCode": 1633,
    "stopType": "MUNICIPAL_BUS",
    "shortStopName": null,
    "Position": {
      "stopLongitude": "72.539748",
      "stopLatitude": "22.996951"
    },
    "RouteCodes": null,
    "Sequence": 11,
    "routeFlow": null
  },
  {
    "stopName": "Sarani Kamdar Society",
    "stopCode": 1261,
    "stationCode": 2595,
    "stopType": "MUNICIPAL_BUS",
    "shortStopName": null,
    "Position": {
      "stopLongitude": "72.53495",
      "stopLatitude": "22.995758"
    },
    "RouteCodes": null,
    "Sequence": 12,
    "routeFlow": null
  },
  {
    "stopName": "Juhapura Road",
    "stopCode": 1263,
    "stationCode": 1801,
    "stopType": "MUNICIPAL_BUS",
    "shortStopName": null,
    "Position": {
      "stopLongitude": "72.530135",
      "stopLatitude": "22.994611"
    },
    "RouteCodes": null,
    "Sequence": 14,
    "routeFlow": null
  },
  {
    "stopName": "Gandhi Smruti",
    "stopCode": 1264,
    "stationCode": 1520,
    "stopType": "MUNICIPAL_BUS",
    "shortStopName": null,
    "Position": {
      "stopLongitude": "72.524875",
      "stopLatitude": "22.993246"
    },
    "RouteCodes": null,
    "Sequence": 15,
    "routeFlow": null
  },
  {
    "stopName": "Khurshid Park",
    "stopCode": 1265,
    "stationCode": 1895,
    "stopType": "MUNICIPAL_BUS",
    "shortStopName": null,
    "Position": {
      "stopLongitude": "72.518653",
      "stopLatitude": "22.991148"
    },
    "RouteCodes": null,
    "Sequence": 17,
    "routeFlow": null
  },
  {
    "stopName": "Fatehwadi",
    "stopCode": 1266,
    "stationCode": 1497,
    "stopType": "MUNICIPAL_BUS",
    "shortStopName": null,
    "Position": {
      "stopLongitude": "72.51637",
      "stopLatitude": "22.990226"
    },
    "RouteCodes": null,
    "Sequence": 18,
    "routeFlow": null
  },
  {
    "stopName": "Ambar Tower",
    "stopCode": 1267,
    "stationCode": 1106,
    "stopType": "MUNICIPAL_BUS",
    "shortStopName": null,
    "Position": {
      "stopLongitude": "72.512541",
      "stopLatitude": "22.988961"
    },
    "RouteCodes": null,
    "Sequence": 19,
    "routeFlow": null
  },
  {
    "stopName": "Factory",
    "stopCode": 1268,
    "stationCode": 1495,
    "stopType": "MUNICIPAL_BUS",
    "shortStopName": null,
    "Position": {
      "stopLongitude": "72.507105",
      "stopLatitude": "22.987928"
    },
    "RouteCodes": null,
    "Sequence": 20,
    "routeFlow": null
  },
  {
    "stopName": "Sarkhej Bus Stand",
    "stopCode": 1269,
    "stationCode": 2625,
    "stopType": "MUNICIPAL_BUS",
    "shortStopName": null,
    "Position": {
      "stopLongitude": "72.503503",
      "stopLatitude": "22.987503"
    },
    "RouteCodes": null,
    "Sequence": 21,
    "routeFlow": null
  },
  {
    "stopName": "Bhavani Tractors",
    "stopCode": 1270,
    "stationCode": 1292,
    "stopType": "MUNICIPAL_BUS",
    "shortStopName": null,
    "Position": {
      "stopLongitude": "72.501351",
      "stopLatitude": "22.986425"
    },
    "RouteCodes": null,
    "Sequence": 22,
    "routeFlow": null
  },
  {
    "stopName": "Sarkhej Railway Station (St 31 36 150)",
    "stopCode": 1271,
    "stationCode": 2629,
    "stopType": "MUNICIPAL_BUS",
    "shortStopName": null,
    "Position": {
      "stopLongitude": "72.49828",
      "stopLatitude": "22.983259"
    },
    "RouteCodes": null,
    "Sequence": 23,
    "routeFlow": null
  },
  {
    "stopName": "Paldi",
    "stopCode": 1346,
    "stationCode": 2284,
    "stopType": "MUNICIPAL_BUS",
    "shortStopName": null,
    "Position": {
      "stopLongitude": "72.564498",
      "stopLatitude": "23.01341"
    },
    "RouteCodes": null,
    "Sequence": 1,
    "routeFlow": null
  },
  {
    "stopName": "Mahalakshmi Society",
    "stopCode": 1347,
    "stationCode": 2000,
    "stopType": "MUNICIPAL_BUS",
    "shortStopName": null,
    "Position": {
      "stopLongitude": "72.563405",
      "stopLatitude": "23.011623"
    },
    "RouteCodes": null,
    "Sequence": 2,
    "routeFlow": null
  },
  {
    "stopName": "Jain Merchant Society",
    "stopCode": 1348,
    "stationCode": 1743,
    "stopType": "MUNICIPAL_BUS",
    "shortStopName": null,
    "Position": {
      "stopLongitude": "72.5617",
      "stopLatitude": "23.008901"
    },
    "RouteCodes": null,
    "Sequence": 3,
    "routeFlow": null
  },
  {
    "stopName": "Fatehnagar",
    "stopCode": 1349,
    "stationCode": 1496,
    "stopType": "MUNICIPAL_BUS",
    "shortStopName": null,
    "Position": {
      "stopLongitude": "72.559421",
      "stopLatitude": "23.007781"
    },
    "RouteCodes": null,
    "Sequence": 4,
    "routeFlow": null
  },
  {
    "stopName": "Anandnagar",
    "stopCode": 1350,
    "stationCode": 1129,
    "stopType": "MUNICIPAL_BUS",
    "shortStopName": null,
    "Position": {
      "stopLongitude": "72.55749",
      "stopLatitude": "23.006791"
    },
    "RouteCodes": null,
    "Sequence": 5,
    "routeFlow": null
  },
  {
    "stopName": "Bhaththa (Vasna)",
    "stopCode": 1351,
    "stationCode": 1288,
    "stopType": "MUNICIPAL_BUS",
    "shortStopName": null,
    "Position": {
      "stopLongitude": "72.554771",
      "stopLatitude": "23.005235"
    },
    "RouteCodes": null,
    "Sequence": 6,
    "routeFlow": null
  },
  {
    "stopName": "Jawaharnagar",
    "stopCode": 1352,
    "stationCode": 1771,
    "stopType": "MUNICIPAL_BUS",
    "shortStopName": null,
    "Position": {
      "stopLongitude": "72.551836",
      "stopLatitude": "23.003118"
    },
    "RouteCodes": null,
    "Sequence": 7,
    "routeFlow": null
  },
  {
    "stopName": "F.D.High School",
    "stopCode": 3408,
    "stationCode": 1494,
    "stopType": "MUNICIPAL_BUS",
    "shortStopName": null,
    "Position": {
      "stopLongitude": "72.531776",
      "stopLatitude": "22.995038"
    },
    "RouteCodes": null,
    "Sequence": 13,
    "routeFlow": null
  },
  {
    "stopName": "Vejalpur Road",
    "stopCode": 3409,
    "stationCode": 3035,
    "stopType": "MUNICIPAL_BUS",
    "shortStopName": null,
    "Position": {
      "stopLongitude": "72.520921",
      "stopLatitude": "22.992024"
    },
    "RouteCodes": null,
    "Sequence": 16,
    "routeFlow": null
  },
  {
    "stopName": "Bhartibapu Ashram",
    "stopCode": 4543,
    "stationCode": 1278,
    "stopType": "MUNICIPAL_BUS",
    "shortStopName": null,
    "Position": {
      "stopLongitude": "72.498075",
      "stopLatitude": "22.980095"
    },
    "RouteCodes": null,
    "Sequence": 25,
    "routeFlow": null
  },
  {
    "stopName": "Sarkhej Railway Crossing",
    "stopCode": 4544,
    "stationCode": 2627,
    "stopType": "MUNICIPAL_BUS",
    "shortStopName": null,
    "Position": {
      "stopLongitude": "72.498005",
      "stopLatitude": "22.977933"
    },
    "RouteCodes": null,
    "Sequence": 26,
    "routeFlow": null
  },
  {
    "stopName": "Fatehwadi Gam",
    "stopCode": 4545,
    "stationCode": 1498,
    "stopType": "MUNICIPAL_BUS",
    "shortStopName": null,
    "Position": {
      "stopLongitude": "72.497926",
      "stopLatitude": "22.976131"
    },
    "RouteCodes": null,
    "Sequence": 27,
    "routeFlow": null
  },
  {
    "stopName": "Anand Ashram",
    "stopCode": 4546,
    "stationCode": 1124,
    "stopType": "MUNICIPAL_BUS",
    "shortStopName": null,
    "Position": {
      "stopLongitude": "72.497571",
      "stopLatitude": "22.969983"
    },
    "RouteCodes": null,
    "Sequence": 28,
    "routeFlow": null
  },
  {
    "stopName": "Azadnagar",
    "stopCode": 4547,
    "stationCode": 1209,
    "stopType": "MUNICIPAL_BUS",
    "shortStopName": null,
    "Position": {
      "stopLongitude": "72.497475",
      "stopLatitude": "22.967658"
    },
    "RouteCodes": null,
    "Sequence": 29,
    "routeFlow": null
  },
  {
    "stopName": "Jain Mandir",
    "stopCode": 4548,
    "stationCode": 1742,
    "stopType": "MUNICIPAL_BUS",
    "shortStopName": null,
    "Position": {
      "stopLongitude": "72.497275",
      "stopLatitude": "22.963171"
    },
    "RouteCodes": null,
    "Sequence": 30,
    "routeFlow": null
  },
  {
    "stopName": "Narimanpura",
    "stopCode": 4549,
    "stationCode": 2165,
    "stopType": "MUNICIPAL_BUS",
    "shortStopName": null,
    "Position": {
      "stopLongitude": "72.497711",
      "stopLatitude": "22.957409"
    },
    "RouteCodes": null,
    "Sequence": 32,
    "routeFlow": null
  },
  {
    "stopName": "Porbandar Road Lines",
    "stopCode": 4550,
    "stationCode": 2352,
    "stopType": "MUNICIPAL_BUS",
    "shortStopName": null,
    "Position": {
      "stopLongitude": "72.499138",
      "stopLatitude": "22.956018"
    },
    "RouteCodes": null,
    "Sequence": 33,
    "routeFlow": null
  },
  {
    "stopName": "Zanab Farm",
    "stopCode": 4551,
    "stationCode": 1759,
    "stopType": "MUNICIPAL_BUS",
    "shortStopName": null,
    "Position": {
      "stopLongitude": "72.50245",
      "stopLatitude": "22.953386"
    },
    "RouteCodes": null,
    "Sequence": 34,
    "routeFlow": null
  },
  {
    "stopName": "Vanzar Patiya",
    "stopCode": 4552,
    "stationCode": 3010,
    "stopType": "MUNICIPAL_BUS",
    "shortStopName": null,
    "Position": {
      "stopLongitude": "72.503103",
      "stopLatitude": "22.949441"
    },
    "RouteCodes": null,
    "Sequence": 35,
    "routeFlow": null
  },
  {
    "stopName": "Bakrol Panjarapol",
    "stopCode": 4553,
    "stationCode": 1222,
    "stopType": "MUNICIPAL_BUS",
    "shortStopName": null,
    "Position": {
      "stopLongitude": "72.500976",
      "stopLatitude": "22.944028"
    },
    "RouteCodes": null,
    "Sequence": 36,
    "routeFlow": null
  },
  {
    "stopName": "Municipal Octroinaka (Dholka)",
    "stopCode": 4554,
    "stationCode": 2123,
    "stopType": "MUNICIPAL_BUS",
    "shortStopName": null,
    "Position": {
      "stopLongitude": "72.498563",
      "stopLatitude": "22.938401"
    },
    "RouteCodes": null,
    "Sequence": 37,
    "routeFlow": null
  },
  {
    "stopName": "Meldi Matanu Mandir",
    "stopCode": 4555,
    "stationCode": 2072,
    "stopType": "MUNICIPAL_BUS",
    "shortStopName": null,
    "Position": {
      "stopLongitude": "72.486075",
      "stopLatitude": "22.917918"
    },
    "RouteCodes": null,
    "Sequence": 42,
    "routeFlow": null
  },
  {
    "stopName": "Visalpur Gam S.T. Stand",
    "stopCode": 4556,
    "stationCode": 3061,
    "stopType": "MUNICIPAL_BUS",
    "shortStopName": null,
    "Position": {
      "stopLongitude": "72.485696",
      "stopLatitude": "22.915166"
    },
    "RouteCodes": null,
    "Sequence": 43,
    "routeFlow": null
  },
  {
    "stopName": "Parab Farm",
    "stopCode": 4557,
    "stationCode": 2301,
    "stopType": "MUNICIPAL_BUS",
    "shortStopName": null,
    "Position": {
      "stopLongitude": "72.485343",
      "stopLatitude": "22.912447"
    },
    "RouteCodes": null,
    "Sequence": 44,
    "routeFlow": null
  },
  {
    "stopName": "Gopinath Mahadevnagar",
    "stopCode": 4558,
    "stationCode": 1585,
    "stopType": "MUNICIPAL_BUS",
    "shortStopName": null,
    "Position": {
      "stopLongitude": "72.484053",
      "stopLatitude": "22.902483"
    },
    "RouteCodes": null,
    "Sequence": 47,
    "routeFlow": null
  },
  {
    "stopName": "Tajpur Cross Road",
    "stopCode": 4559,
    "stationCode": 2911,
    "stopType": "MUNICIPAL_BUS",
    "shortStopName": null,
    "Position": {
      "stopLongitude": "72.483361",
      "stopLatitude": "22.896718"
    },
    "RouteCodes": null,
    "Sequence": 48,
    "routeFlow": null
  },
  {
    "stopName": "Kasindra S.T. Stand",
    "stopCode": 4560,
    "stationCode": 1866,
    "stopType": "MUNICIPAL_BUS",
    "shortStopName": null,
    "Position": {
      "stopLongitude": "72.482923",
      "stopLatitude": "22.893213"
    },
    "RouteCodes": null,
    "Sequence": 49,
    "routeFlow": null
  },
  {
    "stopName": "Chunarawas",
    "stopCode": 4561,
    "stationCode": 1394,
    "stopType": "MUNICIPAL_BUS",
    "shortStopName": null,
    "Position": {
      "stopLongitude": "72.487801",
      "stopLatitude": "22.892821"
    },
    "RouteCodes": null,
    "Sequence": 50,
    "routeFlow": null
  },
  {
    "stopName": "Kasindra Gam",
    "stopCode": 4562,
    "stationCode": 1865,
    "stopType": "MUNICIPAL_BUS",
    "shortStopName": null,
    "Position": {
      "stopLongitude": "72.489811",
      "stopLatitude": "22.89361"
    },
    "RouteCodes": null,
    "Sequence": 51,
    "routeFlow": null
  },
  {
    "stopName": "slam barjzar",
    "stopCode": 5697,
    "stationCode": 2808,
    "stopType": "MUNICIPAL_BUS",
    "shortStopName": null,
    "Position": {
      "stopLongitude": "72.495868",
      "stopLatitude": "22.9323"
    },
    "RouteCodes": null,
    "Sequence": 39,
    "routeFlow": null
  },
  {
    "stopName": "Paras Hotel",
    "stopCode": 7055,
    "stationCode": 2303,
    "stopType": "MUNICIPAL_BUS",
    "shortStopName": null,
    "Position": {
      "stopLongitude": "72.49714",
      "stopLatitude": "22.959682"
    },
    "RouteCodes": null,
    "Sequence": 31,
    "routeFlow": null
  },
  {
    "stopName": "Bakrol Patiya",
    "stopCode": 7056,
    "stationCode": 5023,
    "stopType": "MUNICIPAL_BUS",
    "shortStopName": null,
    "Position": {
      "stopLongitude": "72.497575",
      "stopLatitude": "22.936135"
    },
    "RouteCodes": null,
    "Sequence": 38,
    "routeFlow": null
  },
  {
    "stopName": "Shakti Infrastructure & Hot Mix Plant",
    "stopCode": 7069,
    "stationCode": 2689,
    "stopType": "MUNICIPAL_BUS",
    "shortStopName": null,
    "Position": {
      "stopLongitude": "72.484276",
      "stopLatitude": "22.904248"
    },
    "RouteCodes": null,
    "Sequence": 46,
    "routeFlow": null
  },
  {
    "stopName": "Talavdi (Bakrol)",
    "stopCode": 8490,
    "stationCode": 6035,
    "stopType": "MUNICIPAL_BUS",
    "shortStopName": null,
    "Position": {
      "stopLongitude": "72.495798",
      "stopLatitude": "22.932109"
    },
    "RouteCodes": null,
    "Sequence": 40,
    "routeFlow": null
  },
  {
    "stopName": "Sarkhej Railway Station ",
    "stopCode": 8507,
    "stationCode": 6034,
    "stopType": "MUNICIPAL_BUS",
    "shortStopName": null,
    "Position": {
      "stopLongitude": "72.498163",
      "stopLatitude": "22.981582"
    },
    "RouteCodes": null,
    "Sequence": 24,
    "routeFlow": null
  },
  {
    "stopName": "Khodiyar mata nu mandir",
    "stopCode": 8509,
    "stationCode": 6036,
    "stopType": "MUNICIPAL_BUS",
    "shortStopName": null,
    "Position": {
      "stopLongitude": "72.493341",
      "stopLatitude": "22.928359"
    },
    "RouteCodes": null,
    "Sequence": 41,
    "routeFlow": null
  },
  {
    "stopName": "Cadila Patiya",
    "stopCode": 8511,
    "stationCode": 6037,
    "stopType": "MUNICIPAL_BUS",
    "shortStopName": null,
    "Position": {
      "stopLongitude": "72.484759",
      "stopLatitude": "22.908186"
    },
    "RouteCodes": null,
    "Sequence": 45,
    "routeFlow": null
  }
]