[
  {
    "stopName": "Pritamnagar",
    "stopCode": 1070,
    "stationCode": 2389,
    "stopType": "MUNICIPAL_BUS",
    "shortStopName": null,
    "Position": {
      "stopLongitude": "72.567445",
      "stopLatitude": "23.017276"
    },
    "RouteCodes": null,
    "Sequence": 26,
    "routeFlow": "LINESTRING (72.501261 22.980888, 72.501118 22.980925, 72.500951 22.980948, 72.50063 22.98099, 72.50011 22.981, 72.49969 22.9811, 72.49942 22.98119, 72.49934 22.98126, 72.4992 22.98144, 72.4992 22.98144, 72.49877 22.98203, 72.49818 22.98272, 72.4982 22.98308, 72.4982 22.98308, 72.49822 22.98382, 72.49821 22.98418, 72.49821 22.98429, 72.49821 22.9844, 72.49824 22.98447, 72.49831 22.98454, 72.49876 22.98489, 72.50028 22.98608, 72.5011 22.98666, 72.5011 22.98666, 72.50147 22.98692, 72.50154 22.98695, 72.50179 22.98715, 72.50187 22.98717, 72.5019 22.98717, 72.50287 22.98755, 72.50298 22.98758, 72.50298 22.98758, 72.50338 22.98764, 72.50435 22.98773, 72.50721 22.98806, 72.50799 22.98817, 72.50799 22.98817, 72.5087 22.98828, 72.50932 22.98839, 72.5103 22.98862, 72.51114 22.98881, 72.51244 22.98909, 72.51244 22.98909, 72.51372 22.98939, 72.51421 22.98954, 72.5152 22.98992, 72.51598 22.99023, 72.51598 22.99023, 72.51826 22.99117, 72.51826 22.99117, 72.5204 22.992, 72.52133 22.99237, 72.52212 22.99262, 72.52405 22.99315, 72.52578 22.99362, 72.52578 22.99362, 72.52802 22.99422, 72.52802 22.99422, 72.52958 22.994689, 72.529596 22.99469, 72.53115 22.9951, 72.53197 22.99528, 72.53197 22.99528, 72.533 22.99551, 72.5351 22.99587, 72.5351 22.99587, 72.53676 22.99625, 72.53761 22.99641, 72.53786 22.99649, 72.53872 22.99671, 72.53946 22.99694, 72.53946 22.99694, 72.54049 22.99732, 72.54129 22.99765, 72.54197 22.99796, 72.542 22.99797, 72.542 22.99797, 72.54376 22.99873, 72.54434 22.99899, 72.54502 22.99935, 72.54502 22.99935, 72.54581 22.99988, 72.54609 23.00006, 72.54632 23.00024, 72.54666 23.00053, 72.54678 23.0007, 72.54689 23.00088, 72.54705 23.00122, 72.54713 23.00132, 72.547497 23.001747, 72.547517 23.001874, 72.547481 23.00202, 72.547493 23.002143, 72.547512 23.002211, 72.547563 23.002249, 72.547759 23.002266, 72.54792 23.001975, 72.547977 23.001905, 72.548118 23.001923, 72.548479 23.001962, 72.54916 23.00208, 72.54998 23.00225, 72.55046 23.00236, 72.55083 23.00251, 72.55109 23.00266, 72.55145 23.00299, 72.55182 23.0034, 72.55182 23.0034, 72.55236 23.00394, 72.5527 23.00423, 72.55286 23.00439, 72.55286 23.00443, 72.55287 23.00447, 72.55288 23.0045, 72.55293 23.00457, 72.55303 23.00462, 72.5531 23.00463, 72.55315 23.00462, 72.55329 23.00464, 72.55342 23.00468, 72.55361 23.0048, 72.55418 23.00506, 72.55439 23.00516, 72.55496 23.00552, 72.55496 23.00552, 72.55575 23.00581, 72.55637 23.00615, 72.55659 23.00629, 72.55675 23.00641, 72.55675 23.00641, 72.55719 23.00683, 72.55734 23.00697, 72.55766 23.00721, 72.55815 23.0075, 72.55853 23.00765, 72.55886 23.00775, 72.559 23.00779, 72.559 23.00779, 72.55964 23.00799, 72.55995 23.0081, 72.56053 23.00838, 72.56132 23.00882, 72.56132 23.00882, 72.56187 23.00915, 72.56204 23.00927, 72.56214 23.00942, 72.56222 23.00958, 72.56235 23.00986, 72.56301 23.01123, 72.56318 23.01156, 72.56318 23.01156, 72.56353 23.01218, 72.56387 23.01269, 72.56467 23.01383, 72.56467 23.01383, 72.565 23.01427, 72.56594 23.01541, 72.56707 23.01677, 72.56746 23.01726, 72.56746 23.01726, 72.56814 23.0181, 72.56814 23.0181, 72.56951 23.01971, 72.57032 23.02072, 72.57027 23.02074, 72.57029 23.02069, 72.57045 23.02089, 72.57097 23.02137, 72.57116 23.0216, 72.57125 23.02181, 72.57128 23.02193, 72.57129 23.02207, 72.57125 23.02306, 72.57124 23.02347, 72.57126 23.02409, 72.57126 23.02409, 72.57125 23.025, 72.57123 23.025, 72.57115 23.02616, 72.57111 23.02667, 72.57251 23.02678, 72.57841 23.02725, 72.57865 23.02727)"
  },
  {
    "stopName": "Arvind Sales Emporium",
    "stopCode": 1071,
    "stationCode": 1167,
    "stopType": "MUNICIPAL_BUS",
    "shortStopName": null,
    "Position": {
      "stopLongitude": "72.568106",
      "stopLatitude": "23.018118"
    },
    "RouteCodes": null,
    "Sequence": 27,
    "routeFlow": null
  },
  {
    "stopName": "V.S. Hospital",
    "stopCode": 1072,
    "stationCode": 2977,
    "stopType": "MUNICIPAL_BUS",
    "shortStopName": null,
    "Position": {
      "stopLongitude": "72.570281",
      "stopLatitude": "23.020746"
    },
    "RouteCodes": null,
    "Sequence": 28,
    "routeFlow": null
  },
  {
    "stopName": "Sanyas Ashram",
    "stopCode": 1073,
    "stationCode": 2588,
    "stopType": "MUNICIPAL_BUS",
    "shortStopName": null,
    "Position": {
      "stopLongitude": "72.571266",
      "stopLatitude": "23.024094"
    },
    "RouteCodes": null,
    "Sequence": 29,
    "routeFlow": null
  },
  {
    "stopName": "Gandhigram Railway Station",
    "stopCode": 1074,
    "stationCode": 1522,
    "stopType": "MUNICIPAL_BUS",
    "shortStopName": null,
    "Position": {
      "stopLongitude": "72.571216",
      "stopLatitude": "23.024998"
    },
    "RouteCodes": null,
    "Sequence": 30,
    "routeFlow": null
  },
  {
    "stopName": "Sardarbag",
    "stopCode": 1075,
    "stationCode": 2611,
    "stopType": "MUNICIPAL_BUS",
    "shortStopName": null,
    "Position": {
      "stopLongitude": "72.578645",
      "stopLatitude": "23.027351"
    },
    "RouteCodes": null,
    "Sequence": 31,
    "routeFlow": null
  },
  {
    "stopName": "Sarkhej Gam",
    "stopCode": 1149,
    "stationCode": 2626,
    "stopType": "MUNICIPAL_BUS",
    "shortStopName": null,
    "Position": {
      "stopLongitude": "72.501263",
      "stopLatitude": "22.980868"
    },
    "RouteCodes": null,
    "Sequence": 1,
    "routeFlow": null
  },
  {
    "stopName": "Primary Health Centre",
    "stopCode": 1223,
    "stationCode": 2386,
    "stopType": "MUNICIPAL_BUS",
    "shortStopName": null,
    "Position": {
      "stopLongitude": "72.499213",
      "stopLatitude": "22.981446"
    },
    "RouteCodes": null,
    "Sequence": 2,
    "routeFlow": null
  },
  {
    "stopName": "Sarkhej Railway Station (St 31 36 150)",
    "stopCode": 1224,
    "stationCode": 2629,
    "stopType": "MUNICIPAL_BUS",
    "shortStopName": null,
    "Position": {
      "stopLongitude": "72.498211",
      "stopLatitude": "22.983081"
    },
    "RouteCodes": null,
    "Sequence": 3,
    "routeFlow": null
  },
  {
    "stopName": "Bhavani Tractors",
    "stopCode": 1225,
    "stationCode": 1292,
    "stopType": "MUNICIPAL_BUS",
    "shortStopName": null,
    "Position": {
      "stopLongitude": "72.50111",
      "stopLatitude": "22.986655"
    },
    "RouteCodes": null,
    "Sequence": 4,
    "routeFlow": null
  },
  {
    "stopName": "Sarkhej Bus Stand",
    "stopCode": 1226,
    "stationCode": 2625,
    "stopType": "MUNICIPAL_BUS",
    "shortStopName": null,
    "Position": {
      "stopLongitude": "72.502978",
      "stopLatitude": "22.987578"
    },
    "RouteCodes": null,
    "Sequence": 5,
    "routeFlow": null
  },
  {
    "stopName": "Factory",
    "stopCode": 1227,
    "stationCode": 1495,
    "stopType": "MUNICIPAL_BUS",
    "shortStopName": null,
    "Position": {
      "stopLongitude": "72.507983",
      "stopLatitude": "22.988186"
    },
    "RouteCodes": null,
    "Sequence": 6,
    "routeFlow": null
  },
  {
    "stopName": "Ambar Tower",
    "stopCode": 1228,
    "stationCode": 1106,
    "stopType": "MUNICIPAL_BUS",
    "shortStopName": null,
    "Position": {
      "stopLongitude": "72.512436",
      "stopLatitude": "22.98911"
    },
    "RouteCodes": null,
    "Sequence": 7,
    "routeFlow": null
  },
  {
    "stopName": "Fatehwadi",
    "stopCode": 1229,
    "stationCode": 1497,
    "stopType": "MUNICIPAL_BUS",
    "shortStopName": null,
    "Position": {
      "stopLongitude": "72.516001",
      "stopLatitude": "22.990256"
    },
    "RouteCodes": null,
    "Sequence": 8,
    "routeFlow": null
  },
  {
    "stopName": "Khurshid Park",
    "stopCode": 1230,
    "stationCode": 1895,
    "stopType": "MUNICIPAL_BUS",
    "shortStopName": null,
    "Position": {
      "stopLongitude": "72.518261",
      "stopLatitude": "22.991173"
    },
    "RouteCodes": null,
    "Sequence": 9,
    "routeFlow": null
  },
  {
    "stopName": "Gandhi Smruti",
    "stopCode": 1231,
    "stationCode": 1520,
    "stopType": "MUNICIPAL_BUS",
    "shortStopName": null,
    "Position": {
      "stopLongitude": "72.525775",
      "stopLatitude": "22.993648"
    },
    "RouteCodes": null,
    "Sequence": 10,
    "routeFlow": null
  },
  {
    "stopName": "Juhapura Road",
    "stopCode": 1232,
    "stationCode": 1801,
    "stopType": "MUNICIPAL_BUS",
    "shortStopName": null,
    "Position": {
      "stopLongitude": "72.529593",
      "stopLatitude": "22.99467"
    },
    "RouteCodes": null,
    "Sequence": 12,
    "routeFlow": null
  },
  {
    "stopName": "Prakash College",
    "stopCode": 1233,
    "stationCode": 2365,
    "stopType": "MUNICIPAL_BUS",
    "shortStopName": null,
    "Position": {
      "stopLongitude": "72.53198",
      "stopLatitude": "22.995243"
    },
    "RouteCodes": null,
    "Sequence": 13,
    "routeFlow": null
  },
  {
    "stopName": "Sarani Kamdar Society",
    "stopCode": 1234,
    "stationCode": 2595,
    "stopType": "MUNICIPAL_BUS",
    "shortStopName": null,
    "Position": {
      "stopLongitude": "72.535078",
      "stopLatitude": "22.995941"
    },
    "RouteCodes": null,
    "Sequence": 14,
    "routeFlow": null
  },
  {
    "stopName": "Guptanagar",
    "stopCode": 1235,
    "stationCode": 1633,
    "stopType": "MUNICIPAL_BUS",
    "shortStopName": null,
    "Position": {
      "stopLongitude": "72.539436",
      "stopLatitude": "22.996998"
    },
    "RouteCodes": null,
    "Sequence": 15,
    "routeFlow": null
  },
  {
    "stopName": "Pravinnagar",
    "stopCode": 1236,
    "stationCode": 2376,
    "stopType": "MUNICIPAL_BUS",
    "shortStopName": null,
    "Position": {
      "stopLongitude": "72.54197",
      "stopLatitude": "22.998026"
    },
    "RouteCodes": null,
    "Sequence": 16,
    "routeFlow": null
  },
  {
    "stopName": "Pratapkunj",
    "stopCode": 1237,
    "stationCode": 2373,
    "stopType": "MUNICIPAL_BUS",
    "shortStopName": null,
    "Position": {
      "stopLongitude": "72.544998",
      "stopLatitude": "22.999391"
    },
    "RouteCodes": null,
    "Sequence": 17,
    "routeFlow": null
  },
  {
    "stopName": "Vasna",
    "stopCode": 1286,
    "stationCode": 3019,
    "stopType": "MUNICIPAL_BUS",
    "shortStopName": null,
    "Position": {
      "stopLongitude": "72.547915",
      "stopLatitude": "23.002231"
    },
    "RouteCodes": null,
    "Sequence": 18,
    "routeFlow": null
  },
  {
    "stopName": "Jawaharnagar",
    "stopCode": 1287,
    "stationCode": 1771,
    "stopType": "MUNICIPAL_BUS",
    "shortStopName": null,
    "Position": {
      "stopLongitude": "72.551798",
      "stopLatitude": "23.003416"
    },
    "RouteCodes": null,
    "Sequence": 19,
    "routeFlow": null
  },
  {
    "stopName": "Bhaththa (Vasna)",
    "stopCode": 1288,
    "stationCode": 1288,
    "stopType": "MUNICIPAL_BUS",
    "shortStopName": null,
    "Position": {
      "stopLongitude": "72.55494",
      "stopLatitude": "23.005515"
    },
    "RouteCodes": null,
    "Sequence": 20,
    "routeFlow": null
  },
  {
    "stopName": "Anandnagar",
    "stopCode": 1289,
    "stationCode": 1129,
    "stopType": "MUNICIPAL_BUS",
    "shortStopName": null,
    "Position": {
      "stopLongitude": "72.556773",
      "stopLatitude": "23.006388"
    },
    "RouteCodes": null,
    "Sequence": 21,
    "routeFlow": null
  },
  {
    "stopName": "Fatehnagar",
    "stopCode": 1290,
    "stationCode": 1496,
    "stopType": "MUNICIPAL_BUS",
    "shortStopName": null,
    "Position": {
      "stopLongitude": "72.558968",
      "stopLatitude": "23.007895"
    },
    "RouteCodes": null,
    "Sequence": 22,
    "routeFlow": null
  },
  {
    "stopName": "Jain Merchant Society",
    "stopCode": 1291,
    "stationCode": 1743,
    "stopType": "MUNICIPAL_BUS",
    "shortStopName": null,
    "Position": {
      "stopLongitude": "72.56128",
      "stopLatitude": "23.008876"
    },
    "RouteCodes": null,
    "Sequence": 23,
    "routeFlow": null
  },
  {
    "stopName": "Mahalakshmi Society",
    "stopCode": 1292,
    "stationCode": 2000,
    "stopType": "MUNICIPAL_BUS",
    "shortStopName": null,
    "Position": {
      "stopLongitude": "72.563213",
      "stopLatitude": "23.011543"
    },
    "RouteCodes": null,
    "Sequence": 24,
    "routeFlow": null
  },
  {
    "stopName": "Paldi",
    "stopCode": 1293,
    "stationCode": 2284,
    "stopType": "MUNICIPAL_BUS",
    "shortStopName": null,
    "Position": {
      "stopLongitude": "72.564703",
      "stopLatitude": "23.013808"
    },
    "RouteCodes": null,
    "Sequence": 25,
    "routeFlow": null
  },
  {
    "stopName": "Sardar Smruti",
    "stopCode": 1804,
    "stationCode": 2610,
    "stopType": "MUNICIPAL_BUS",
    "shortStopName": null,
    "Position": {
      "stopLongitude": "72.528006",
      "stopLatitude": "22.994256"
    },
    "RouteCodes": null,
    "Sequence": 11,
    "routeFlow": null
  }
]