[
  {
    "stopName": "Pritamnagar",
    "stopCode": 1070,
    "stationCode": 2389,
    "stopType": "MUNICIPAL_BUS",
    "shortStopName": null,
    "Position": {
      "stopLongitude": "72.567445",
      "stopLatitude": "23.017276"
    },
    "RouteCodes": null,
    "Sequence": 21,
    "routeFlow": "LINESTRING (72.516551 23.006319, 72.51643 23.00609, 72.5164 23.00552, 72.51645 23.00524, 72.51654 23.00499, 72.51669 23.00479, 72.51688 23.00464, 72.51736 23.00421, 72.51762 23.00395, 72.51776 23.00373, 72.51788 23.0035, 72.51797 23.00342, 72.51817 23.00332, 72.51819 23.00332, 72.51819 23.00332, 72.51849 23.00323, 72.51895 23.00324, 72.51927 23.00328, 72.5198 23.00339, 72.52032 23.0035, 72.52101 23.00369, 72.52101 23.00369, 72.52265 23.0042, 72.52305 23.00436, 72.52378 23.00461, 72.52378 23.00461, 72.52445 23.00487, 72.5248 23.00498, 72.52543 23.00513, 72.52608 23.00527, 72.52644 23.00534, 72.52644 23.00534, 72.52766 23.00552, 72.52898 23.00571, 72.52938 23.00576, 72.52938 23.00576, 72.53113 23.00605, 72.53233 23.00633, 72.53298 23.00646, 72.53322 23.00651, 72.53392 23.00659, 72.53392 23.00659, 72.53463 23.0067, 72.53484 23.00674, 72.53539 23.00686, 72.53538 23.00689, 72.535369 23.00686, 72.53677 23.00721, 72.53696 23.00724, 72.53835 23.00758, 72.53855 23.00763, 72.53857 23.00764, 72.53997 23.00799, 72.54009 23.00803, 72.54055 23.00819, 72.54109 23.00845, 72.54207 23.00886, 72.54236 23.00898, 72.54321 23.0093, 72.54321 23.0093, 72.54361 23.00944, 72.54364 23.00936, 72.54371 23.00901, 72.54383 23.00874, 72.54421 23.00776, 72.54436 23.00746, 72.54435 23.00746, 72.54459 23.00699, 72.54513 23.0058, 72.54544 23.00519, 72.54551 23.00504, 72.54551 23.00504, 72.54609 23.00392, 72.54658 23.00308, 72.54676 23.0028, 72.54688 23.00265, 72.547264 23.002271, 72.547578 23.002269, 72.54774 23.002279, 72.547894 23.002236, 72.547977 23.001905, 72.548118 23.001923, 72.548479 23.001962, 72.54916 23.00208, 72.54998 23.00225, 72.55046 23.00236, 72.55083 23.00251, 72.55109 23.00266, 72.55145 23.00299, 72.55182 23.0034, 72.55182 23.0034, 72.55236 23.00394, 72.5527 23.00423, 72.55286 23.00439, 72.55286 23.00443, 72.55287 23.00447, 72.55288 23.0045, 72.55293 23.00457, 72.55303 23.00462, 72.5531 23.00463, 72.55315 23.00462, 72.55329 23.00464, 72.55342 23.00468, 72.55361 23.0048, 72.55418 23.00506, 72.55439 23.00516, 72.55496 23.00552, 72.55496 23.00552, 72.55575 23.00581, 72.55637 23.00615, 72.55659 23.00629, 72.55675 23.00641, 72.55675 23.00641, 72.55719 23.00683, 72.55734 23.00697, 72.55766 23.00721, 72.55815 23.0075, 72.55853 23.00765, 72.55886 23.00775, 72.559 23.00779, 72.559 23.00779, 72.55964 23.00799, 72.55995 23.0081, 72.56053 23.00838, 72.56132 23.00882, 72.56132 23.00882, 72.56187 23.00915, 72.56204 23.00927, 72.56214 23.00942, 72.56222 23.00958, 72.56235 23.00986, 72.56301 23.01123, 72.56318 23.01156, 72.56318 23.01156, 72.56353 23.01218, 72.56387 23.01269, 72.56467 23.01383, 72.56467 23.01383, 72.565 23.01427, 72.56594 23.01541, 72.56707 23.01677, 72.56746 23.01726, 72.56746 23.01726, 72.56814 23.0181, 72.56814 23.0181, 72.56903 23.01915, 72.56903 23.01915, 72.56954 23.01975, 72.57032 23.02072, 72.57027 23.02074, 72.57029 23.02069, 72.57045 23.02089, 72.57097 23.02137, 72.57116 23.0216, 72.57125 23.02181, 72.57128 23.02193, 72.57129 23.02207, 72.57125 23.02306, 72.57124 23.02347, 72.57126 23.02409, 72.57126 23.02409, 72.57125 23.025, 72.57123 23.025, 72.57115 23.02616, 72.57111 23.02667, 72.57251 23.02678, 72.57841 23.02725, 72.57865 23.02727, 72.57869 23.02727, 72.58005 23.02736, 72.58111 23.02732, 72.5813 23.02725, 72.58135 23.02722, 72.58136 23.02709, 72.5814 23.02643, 72.58107 23.0264, 72.58082 23.02643, 72.58059 23.02624, 72.58062 23.02571, 72.58064 23.02532, 72.58073 23.02532, 72.58063 23.02532, 72.58064 23.02513, 72.58062 23.02472, 72.58064 23.02449, 72.58059 23.02439, 72.58049 23.02415, 72.58041 23.02401, 72.58031 23.02393, 72.57974 23.02367, 72.57949 23.02352, 72.57918 23.02352, 72.57912 23.02356, 72.57906 23.0237, 72.57906 23.02384, 72.57905 23.02408, 72.57904 23.02436, 72.57898 23.02436, 72.57898 23.02434, 72.57864 23.02437, 72.5784 23.02436, 72.5784 23.02443)"
  },
  {
    "stopName": "Arvind Sales Emporium",
    "stopCode": 1071,
    "stationCode": 1167,
    "stopType": "MUNICIPAL_BUS",
    "shortStopName": null,
    "Position": {
      "stopLongitude": "72.568106",
      "stopLatitude": "23.018118"
    },
    "RouteCodes": null,
    "Sequence": 22,
    "routeFlow": null
  },
  {
    "stopName": "V.S. Hospital",
    "stopCode": 1072,
    "stationCode": 2977,
    "stopType": "MUNICIPAL_BUS",
    "shortStopName": null,
    "Position": {
      "stopLongitude": "72.570281",
      "stopLatitude": "23.020746"
    },
    "RouteCodes": null,
    "Sequence": 24,
    "routeFlow": null
  },
  {
    "stopName": "Sanyas Ashram",
    "stopCode": 1073,
    "stationCode": 2588,
    "stopType": "MUNICIPAL_BUS",
    "shortStopName": null,
    "Position": {
      "stopLongitude": "72.571266",
      "stopLatitude": "23.024094"
    },
    "RouteCodes": null,
    "Sequence": 25,
    "routeFlow": null
  },
  {
    "stopName": "Gandhigram Railway Station",
    "stopCode": 1074,
    "stationCode": 1522,
    "stopType": "MUNICIPAL_BUS",
    "shortStopName": null,
    "Position": {
      "stopLongitude": "72.571216",
      "stopLatitude": "23.024998"
    },
    "RouteCodes": null,
    "Sequence": 26,
    "routeFlow": null
  },
  {
    "stopName": "Sardarbag",
    "stopCode": 1075,
    "stationCode": 2611,
    "stopType": "MUNICIPAL_BUS",
    "shortStopName": null,
    "Position": {
      "stopLongitude": "72.578645",
      "stopLatitude": "23.027351"
    },
    "RouteCodes": null,
    "Sequence": 27,
    "routeFlow": null
  },
  {
    "stopName": "Apna Bazar",
    "stopCode": 1076,
    "stationCode": 1150,
    "stopType": "MUNICIPAL_BUS",
    "shortStopName": null,
    "Position": {
      "stopLongitude": "72.580705",
      "stopLatitude": "23.025321"
    },
    "RouteCodes": null,
    "Sequence": 28,
    "routeFlow": null
  },
  {
    "stopName": "But Bhavani Mandir",
    "stopCode": 1274,
    "stationCode": 1323,
    "stopType": "MUNICIPAL_BUS",
    "shortStopName": null,
    "Position": {
      "stopLongitude": "72.516563",
      "stopLatitude": "23.006304"
    },
    "RouteCodes": null,
    "Sequence": 1,
    "routeFlow": null
  },
  {
    "stopName": "Vejalpur Gam",
    "stopCode": 1275,
    "stationCode": 3034,
    "stopType": "MUNICIPAL_BUS",
    "shortStopName": null,
    "Position": {
      "stopLongitude": "72.518213",
      "stopLatitude": "23.00337"
    },
    "RouteCodes": null,
    "Sequence": 2,
    "routeFlow": null
  },
  {
    "stopName": "Rudreshwar Mahadev",
    "stopCode": 1276,
    "stationCode": 2513,
    "stopType": "MUNICIPAL_BUS",
    "shortStopName": null,
    "Position": {
      "stopLongitude": "72.52101",
      "stopLatitude": "23.003683"
    },
    "RouteCodes": null,
    "Sequence": 3,
    "routeFlow": null
  },
  {
    "stopName": "Jaltarang Society",
    "stopCode": 1277,
    "stationCode": 1751,
    "stopType": "MUNICIPAL_BUS",
    "shortStopName": null,
    "Position": {
      "stopLongitude": "72.523788",
      "stopLatitude": "23.004596"
    },
    "RouteCodes": null,
    "Sequence": 4,
    "routeFlow": null
  },
  {
    "stopName": "Shaivali Society",
    "stopCode": 1278,
    "stationCode": 2687,
    "stopType": "MUNICIPAL_BUS",
    "shortStopName": null,
    "Position": {
      "stopLongitude": "72.526443",
      "stopLatitude": "23.005325"
    },
    "RouteCodes": null,
    "Sequence": 5,
    "routeFlow": null
  },
  {
    "stopName": "Vishwamitra Society",
    "stopCode": 1279,
    "stationCode": 3071,
    "stopType": "MUNICIPAL_BUS",
    "shortStopName": null,
    "Position": {
      "stopLongitude": "72.529375",
      "stopLatitude": "23.005798"
    },
    "RouteCodes": null,
    "Sequence": 6,
    "routeFlow": null
  },
  {
    "stopName": "Jivraj Park",
    "stopCode": 1280,
    "stationCode": 1791,
    "stopType": "MUNICIPAL_BUS",
    "shortStopName": null,
    "Position": {
      "stopLongitude": "72.533911",
      "stopLatitude": "23.00664"
    },
    "RouteCodes": null,
    "Sequence": 7,
    "routeFlow": null
  },
  {
    "stopName": "Gyanada Society",
    "stopCode": 1281,
    "stationCode": 1641,
    "stopType": "MUNICIPAL_BUS",
    "shortStopName": null,
    "Position": {
      "stopLongitude": "72.535391",
      "stopLatitude": "23.00689"
    },
    "RouteCodes": null,
    "Sequence": 8,
    "routeFlow": null
  },
  {
    "stopName": "Malav Talav",
    "stopCode": 1282,
    "stationCode": 2021,
    "stopType": "MUNICIPAL_BUS",
    "shortStopName": null,
    "Position": {
      "stopLongitude": "72.538538",
      "stopLatitude": "23.007663"
    },
    "RouteCodes": null,
    "Sequence": 9,
    "routeFlow": null
  },
  {
    "stopName": "Dr.Jivraj Mehta Hospital",
    "stopCode": 1283,
    "stationCode": 1472,
    "stopType": "MUNICIPAL_BUS",
    "shortStopName": null,
    "Position": {
      "stopLongitude": "72.543199",
      "stopLatitude": "23.009311"
    },
    "RouteCodes": null,
    "Sequence": 10,
    "routeFlow": null
  },
  {
    "stopName": "Lavanya Society",
    "stopCode": 1284,
    "stationCode": 1966,
    "stopType": "MUNICIPAL_BUS",
    "shortStopName": null,
    "Position": {
      "stopLongitude": "72.544431",
      "stopLatitude": "23.007498"
    },
    "RouteCodes": null,
    "Sequence": 11,
    "routeFlow": null
  },
  {
    "stopName": "Keshariyajinagar Society",
    "stopCode": 1285,
    "stationCode": 1874,
    "stopType": "MUNICIPAL_BUS",
    "shortStopName": null,
    "Position": {
      "stopLongitude": "72.545585",
      "stopLatitude": "23.005066"
    },
    "RouteCodes": null,
    "Sequence": 12,
    "routeFlow": null
  },
  {
    "stopName": "Vasna",
    "stopCode": 1286,
    "stationCode": 3019,
    "stopType": "MUNICIPAL_BUS",
    "shortStopName": null,
    "Position": {
      "stopLongitude": "72.547915",
      "stopLatitude": "23.002231"
    },
    "RouteCodes": null,
    "Sequence": 13,
    "routeFlow": null
  },
  {
    "stopName": "Jawaharnagar",
    "stopCode": 1287,
    "stationCode": 1771,
    "stopType": "MUNICIPAL_BUS",
    "shortStopName": null,
    "Position": {
      "stopLongitude": "72.551798",
      "stopLatitude": "23.003416"
    },
    "RouteCodes": null,
    "Sequence": 14,
    "routeFlow": null
  },
  {
    "stopName": "Bhaththa (Vasna)",
    "stopCode": 1288,
    "stationCode": 1288,
    "stopType": "MUNICIPAL_BUS",
    "shortStopName": null,
    "Position": {
      "stopLongitude": "72.55494",
      "stopLatitude": "23.005515"
    },
    "RouteCodes": null,
    "Sequence": 15,
    "routeFlow": null
  },
  {
    "stopName": "Anandnagar",
    "stopCode": 1289,
    "stationCode": 1129,
    "stopType": "MUNICIPAL_BUS",
    "shortStopName": null,
    "Position": {
      "stopLongitude": "72.556773",
      "stopLatitude": "23.006388"
    },
    "RouteCodes": null,
    "Sequence": 16,
    "routeFlow": null
  },
  {
    "stopName": "Fatehnagar",
    "stopCode": 1290,
    "stationCode": 1496,
    "stopType": "MUNICIPAL_BUS",
    "shortStopName": null,
    "Position": {
      "stopLongitude": "72.558968",
      "stopLatitude": "23.007895"
    },
    "RouteCodes": null,
    "Sequence": 17,
    "routeFlow": null
  },
  {
    "stopName": "Jain Merchant Society",
    "stopCode": 1291,
    "stationCode": 1743,
    "stopType": "MUNICIPAL_BUS",
    "shortStopName": null,
    "Position": {
      "stopLongitude": "72.56128",
      "stopLatitude": "23.008876"
    },
    "RouteCodes": null,
    "Sequence": 18,
    "routeFlow": null
  },
  {
    "stopName": "Mahalakshmi Society",
    "stopCode": 1292,
    "stationCode": 2000,
    "stopType": "MUNICIPAL_BUS",
    "shortStopName": null,
    "Position": {
      "stopLongitude": "72.563213",
      "stopLatitude": "23.011543"
    },
    "RouteCodes": null,
    "Sequence": 19,
    "routeFlow": null
  },
  {
    "stopName": "Paldi",
    "stopCode": 1293,
    "stationCode": 2284,
    "stopType": "MUNICIPAL_BUS",
    "shortStopName": null,
    "Position": {
      "stopLongitude": "72.564703",
      "stopLatitude": "23.013808"
    },
    "RouteCodes": null,
    "Sequence": 20,
    "routeFlow": null
  },
  {
    "stopName": "Congress Bhavan",
    "stopCode": 1725,
    "stationCode": 1405,
    "stopType": "MUNICIPAL_BUS",
    "shortStopName": null,
    "Position": {
      "stopLongitude": "72.568988",
      "stopLatitude": "23.019175"
    },
    "RouteCodes": null,
    "Sequence": 23,
    "routeFlow": null
  },
  {
    "stopName": "Lal Darwaja",
    "stopCode": 5976,
    "stationCode": 1961,
    "stopType": "MUNICIPAL_BUS",
    "shortStopName": null,
    "Position": {
      "stopLongitude": "72.578388",
      "stopLatitude": "23.024426"
    },
    "RouteCodes": null,
    "Sequence": 29,
    "routeFlow": null
  }
]