[
  {
    "stopName": "Apna Bazar",
    "stopCode": 1076,
    "stationCode": 1150,
    "stopType": "MUNICIPAL_BUS",
    "shortStopName": null,
    "Position": {
      "stopLongitude": "72.580705",
      "stopLatitude": "23.025321"
    },
    "RouteCodes": null,
    "Sequence": 2,
    "routeFlow": "LINESTRING (72.5784 23.02443, 72.5784 23.02436, 72.57853 23.02437, 72.5788 23.02436, 72.57904 23.02434, 72.57904 23.02503, 72.5796 23.02504, 72.57976 23.02504, 72.58002 23.02499, 72.58037 23.02497, 72.58045 23.02499, 72.58058 23.02506, 72.58064 23.02513, 72.58064 23.02532, 72.58064 23.02532, 72.58059 23.02624, 72.58064 23.02715, 72.58054 23.02724, 72.5804 23.02727, 72.5799 23.02726, 72.57888 23.0272, 72.57888 23.02719, 72.57778 23.02711, 72.57124 23.02658, 72.57128 23.02613, 72.57133 23.0253, 72.57133 23.0253, 72.57139 23.02444, 72.5714 23.02408, 72.5714 23.02408, 72.57143 23.02345, 72.57142 23.02262, 72.57143 23.02212, 72.57136 23.02179, 72.571324 23.021689, 72.571354 23.021715, 72.57129 23.02161, 72.57116 23.02143, 72.57076 23.02102, 72.57052 23.02083, 72.56962 23.01968, 72.56892 23.01886, 72.56875 23.01867, 72.56875 23.01867, 72.56798 23.01776, 72.56798 23.01776, 72.56786 23.01762, 72.56775 23.01742, 72.56716 23.0167, 72.56716 23.0167, 72.56693 23.01642, 72.56618 23.01557, 72.5656 23.01486, 72.56503 23.01412, 72.56452 23.0134, 72.56452 23.0134, 72.56373 23.01227, 72.56337 23.01164, 72.56337 23.01164, 72.56243 23.00972, 72.56228 23.00939, 72.56218 23.00924, 72.56203 23.00913, 72.56169 23.00892, 72.56169 23.00892, 72.5604 23.00819, 72.56012 23.00803, 72.55981 23.00791, 72.55942 23.00779, 72.55942 23.00779, 72.55857 23.00753, 72.55823 23.00741, 72.55799 23.00728, 72.55776 23.00714, 72.55741 23.00686, 72.55741 23.00686, 72.55685 23.00632, 72.55663 23.00611, 72.55648 23.006, 72.55636 23.00594, 72.5553 23.00551, 72.55476 23.00525, 72.55494 23.00523, 72.55492 23.00526, 72.55443 23.00504, 72.55414 23.00489, 72.55378 23.00469, 72.55313 23.00427, 72.55264 23.00394, 72.55238 23.00373, 72.55216 23.00355, 72.55202 23.00338, 72.55182 23.00314, 72.55185 23.00312, 72.55181 23.00314, 72.5517 23.00301, 72.55145 23.00277, 72.55115 23.00254, 72.55101 23.00246, 72.55053 23.00229, 72.55018 23.00222, 72.54993 23.0022, 72.54966 23.00215, 72.54888 23.00199, 72.54807 23.00186, 72.54778 23.00178, 72.54771 23.00174, 72.54763 23.0019, 72.54746 23.00209, 72.5474 23.00216, 72.5474 23.00216, 72.54737 23.0022, 72.54688 23.0027, 72.54681 23.00281, 72.54674 23.0029, 72.54667 23.003, 72.54662 23.00311, 72.54652 23.00319, 72.54585 23.00439, 72.54559 23.00492, 72.54539 23.00531, 72.5452 23.00571, 72.54516 23.00588, 72.54493 23.00637, 72.54488 23.00635, 72.54459 23.00699, 72.54428 23.0076, 72.54416 23.00789, 72.54416 23.00789, 72.54359 23.00934, 72.54315 23.00918, 72.54315 23.00918, 72.54235 23.00889, 72.54189 23.00871, 72.54145 23.00848, 72.54095 23.00826, 72.5406 23.00811, 72.54 23.00791, 72.53916 23.0077, 72.53916 23.0077, 72.53669 23.0071, 72.5354 23.0068, 72.53522 23.00676, 72.53522 23.00676, 72.53439 23.00657, 72.53335 23.00645, 72.53255 23.0063, 72.53255 23.0063, 72.53114 23.00599, 72.53048 23.00588, 72.52913 23.00567, 72.52913 23.00567, 72.52758 23.00544, 72.52634 23.00525, 72.52634 23.00525, 72.52577 23.00514, 72.52511 23.00498, 72.52477 23.00491, 72.52447 23.00482, 72.52359 23.00448, 72.52359 23.00448, 72.52266 23.00415, 72.52105 23.00364, 72.52105 23.00364, 72.52029 23.00342, 72.51981 23.00332, 72.51897 23.00319, 72.51887 23.00318, 72.51887 23.00318, 72.51845 23.00318, 72.51821 23.00324, 72.51795 23.00336, 72.51777 23.00352, 72.51762 23.00383, 72.51754 23.00393, 72.51705 23.00442, 72.51671 23.00469, 72.51659 23.00481, 72.51649 23.00496, 72.51638 23.00521, 72.51633 23.00545, 72.51633 23.00567, 72.51636 23.00604, 72.51637 23.006176, 72.516346 23.006299)"
  },
  {
    "stopName": "Sardarbag",
    "stopCode": 1127,
    "stationCode": 2611,
    "stopType": "MUNICIPAL_BUS",
    "shortStopName": null,
    "Position": {
      "stopLongitude": "72.578883",
      "stopLatitude": "23.027145"
    },
    "RouteCodes": null,
    "Sequence": 3,
    "routeFlow": null
  },
  {
    "stopName": "Gandhigram Railway Station",
    "stopCode": 1128,
    "stationCode": 1522,
    "stopType": "MUNICIPAL_BUS",
    "shortStopName": null,
    "Position": {
      "stopLongitude": "72.571413",
      "stopLatitude": "23.025308"
    },
    "RouteCodes": null,
    "Sequence": 4,
    "routeFlow": null
  },
  {
    "stopName": "Sanyas Ashram",
    "stopCode": 1129,
    "stationCode": 2588,
    "stopType": "MUNICIPAL_BUS",
    "shortStopName": null,
    "Position": {
      "stopLongitude": "72.571466",
      "stopLatitude": "23.02408"
    },
    "RouteCodes": null,
    "Sequence": 5,
    "routeFlow": null
  },
  {
    "stopName": "V.S. Hospital",
    "stopCode": 1130,
    "stationCode": 2977,
    "stopType": "MUNICIPAL_BUS",
    "shortStopName": null,
    "Position": {
      "stopLongitude": "72.571373",
      "stopLatitude": "23.021679"
    },
    "RouteCodes": null,
    "Sequence": 6,
    "routeFlow": null
  },
  {
    "stopName": "Arvind Sales Emporium",
    "stopCode": 1131,
    "stationCode": 1167,
    "stopType": "MUNICIPAL_BUS",
    "shortStopName": null,
    "Position": {
      "stopLongitude": "72.568068",
      "stopLatitude": "23.017701"
    },
    "RouteCodes": null,
    "Sequence": 8,
    "routeFlow": null
  },
  {
    "stopName": "Pritamnagar",
    "stopCode": 1132,
    "stationCode": 2389,
    "stopType": "MUNICIPAL_BUS",
    "shortStopName": null,
    "Position": {
      "stopLongitude": "72.567213",
      "stopLatitude": "23.016665"
    },
    "RouteCodes": null,
    "Sequence": 9,
    "routeFlow": null
  },
  {
    "stopName": "Paldi",
    "stopCode": 1346,
    "stationCode": 2284,
    "stopType": "MUNICIPAL_BUS",
    "shortStopName": null,
    "Position": {
      "stopLongitude": "72.564498",
      "stopLatitude": "23.01341"
    },
    "RouteCodes": null,
    "Sequence": 10,
    "routeFlow": null
  },
  {
    "stopName": "Mahalakshmi Society",
    "stopCode": 1347,
    "stationCode": 2000,
    "stopType": "MUNICIPAL_BUS",
    "shortStopName": null,
    "Position": {
      "stopLongitude": "72.563405",
      "stopLatitude": "23.011623"
    },
    "RouteCodes": null,
    "Sequence": 11,
    "routeFlow": null
  },
  {
    "stopName": "Jain Merchant Society",
    "stopCode": 1348,
    "stationCode": 1743,
    "stopType": "MUNICIPAL_BUS",
    "shortStopName": null,
    "Position": {
      "stopLongitude": "72.5617",
      "stopLatitude": "23.008901"
    },
    "RouteCodes": null,
    "Sequence": 12,
    "routeFlow": null
  },
  {
    "stopName": "Fatehnagar",
    "stopCode": 1349,
    "stationCode": 1496,
    "stopType": "MUNICIPAL_BUS",
    "shortStopName": null,
    "Position": {
      "stopLongitude": "72.559421",
      "stopLatitude": "23.007781"
    },
    "RouteCodes": null,
    "Sequence": 13,
    "routeFlow": null
  },
  {
    "stopName": "Anandnagar",
    "stopCode": 1350,
    "stationCode": 1129,
    "stopType": "MUNICIPAL_BUS",
    "shortStopName": null,
    "Position": {
      "stopLongitude": "72.55749",
      "stopLatitude": "23.006791"
    },
    "RouteCodes": null,
    "Sequence": 14,
    "routeFlow": null
  },
  {
    "stopName": "Bhaththa (Vasna)",
    "stopCode": 1351,
    "stationCode": 1288,
    "stopType": "MUNICIPAL_BUS",
    "shortStopName": null,
    "Position": {
      "stopLongitude": "72.554771",
      "stopLatitude": "23.005235"
    },
    "RouteCodes": null,
    "Sequence": 15,
    "routeFlow": null
  },
  {
    "stopName": "Jawaharnagar",
    "stopCode": 1352,
    "stationCode": 1771,
    "stopType": "MUNICIPAL_BUS",
    "shortStopName": null,
    "Position": {
      "stopLongitude": "72.551836",
      "stopLatitude": "23.003118"
    },
    "RouteCodes": null,
    "Sequence": 16,
    "routeFlow": null
  },
  {
    "stopName": "Keshariyajinagar Society",
    "stopCode": 1354,
    "stationCode": 1874,
    "stopType": "MUNICIPAL_BUS",
    "shortStopName": null,
    "Position": {
      "stopLongitude": "72.544839",
      "stopLatitude": "23.006336"
    },
    "RouteCodes": null,
    "Sequence": 18,
    "routeFlow": null
  },
  {
    "stopName": "Lavanya Society",
    "stopCode": 1355,
    "stationCode": 1966,
    "stopType": "MUNICIPAL_BUS",
    "shortStopName": null,
    "Position": {
      "stopLongitude": "72.544105",
      "stopLatitude": "23.00787"
    },
    "RouteCodes": null,
    "Sequence": 19,
    "routeFlow": null
  },
  {
    "stopName": "Dr.Jivraj Mehta Hospital",
    "stopCode": 1356,
    "stationCode": 1472,
    "stopType": "MUNICIPAL_BUS",
    "shortStopName": null,
    "Position": {
      "stopLongitude": "72.543168",
      "stopLatitude": "23.00915"
    },
    "RouteCodes": null,
    "Sequence": 20,
    "routeFlow": null
  },
  {
    "stopName": "Malav Talav",
    "stopCode": 1357,
    "stationCode": 2021,
    "stopType": "MUNICIPAL_BUS",
    "shortStopName": null,
    "Position": {
      "stopLongitude": "72.539176",
      "stopLatitude": "23.007658"
    },
    "RouteCodes": null,
    "Sequence": 21,
    "routeFlow": null
  },
  {
    "stopName": "Gyanada Society",
    "stopCode": 1358,
    "stationCode": 1641,
    "stopType": "MUNICIPAL_BUS",
    "shortStopName": null,
    "Position": {
      "stopLongitude": "72.53522",
      "stopLatitude": "23.006746"
    },
    "RouteCodes": null,
    "Sequence": 22,
    "routeFlow": null
  },
  {
    "stopName": "Jivraj Park",
    "stopCode": 1359,
    "stationCode": 1791,
    "stopType": "MUNICIPAL_BUS",
    "shortStopName": null,
    "Position": {
      "stopLongitude": "72.532551",
      "stopLatitude": "23.006305"
    },
    "RouteCodes": null,
    "Sequence": 23,
    "routeFlow": null
  },
  {
    "stopName": "Vishwamitra Society",
    "stopCode": 1360,
    "stationCode": 3071,
    "stopType": "MUNICIPAL_BUS",
    "shortStopName": null,
    "Position": {
      "stopLongitude": "72.529131",
      "stopLatitude": "23.005683"
    },
    "RouteCodes": null,
    "Sequence": 24,
    "routeFlow": null
  },
  {
    "stopName": "Shaivali Society",
    "stopCode": 1361,
    "stationCode": 2687,
    "stopType": "MUNICIPAL_BUS",
    "shortStopName": null,
    "Position": {
      "stopLongitude": "72.526338",
      "stopLatitude": "23.00525"
    },
    "RouteCodes": null,
    "Sequence": 25,
    "routeFlow": null
  },
  {
    "stopName": "Jaltarang Society",
    "stopCode": 1362,
    "stationCode": 1751,
    "stopType": "MUNICIPAL_BUS",
    "shortStopName": null,
    "Position": {
      "stopLongitude": "72.523603",
      "stopLatitude": "23.004461"
    },
    "RouteCodes": null,
    "Sequence": 26,
    "routeFlow": null
  },
  {
    "stopName": "Rudreshwar Mahadev",
    "stopCode": 1363,
    "stationCode": 2513,
    "stopType": "MUNICIPAL_BUS",
    "shortStopName": null,
    "Position": {
      "stopLongitude": "72.52106",
      "stopLatitude": "23.003625"
    },
    "RouteCodes": null,
    "Sequence": 27,
    "routeFlow": null
  },
  {
    "stopName": "Vejalpur Gam",
    "stopCode": 1364,
    "stationCode": 3034,
    "stopType": "MUNICIPAL_BUS",
    "shortStopName": null,
    "Position": {
      "stopLongitude": "72.518868",
      "stopLatitude": "23.003186"
    },
    "RouteCodes": null,
    "Sequence": 28,
    "routeFlow": null
  },
  {
    "stopName": "But Bhavani Mandir",
    "stopCode": 1365,
    "stationCode": 1323,
    "stopType": "MUNICIPAL_BUS",
    "shortStopName": null,
    "Position": {
      "stopLongitude": "72.516333",
      "stopLatitude": "23.006291"
    },
    "RouteCodes": null,
    "Sequence": 29,
    "routeFlow": null
  },
  {
    "stopName": "Congress Bhavan",
    "stopCode": 1724,
    "stationCode": 1405,
    "stopType": "MUNICIPAL_BUS",
    "shortStopName": null,
    "Position": {
      "stopLongitude": "72.568766",
      "stopLatitude": "23.018655"
    },
    "RouteCodes": null,
    "Sequence": 7,
    "routeFlow": null
  },
  {
    "stopName": "Vasna",
    "stopCode": 3713,
    "stationCode": 3019,
    "stopType": "MUNICIPAL_BUS",
    "shortStopName": null,
    "Position": {
      "stopLongitude": "72.547383",
      "stopLatitude": "23.002142"
    },
    "RouteCodes": null,
    "Sequence": 17,
    "routeFlow": null
  },
  {
    "stopName": "Lal Darwaja",
    "stopCode": 5976,
    "stationCode": 1961,
    "stopType": "MUNICIPAL_BUS",
    "shortStopName": null,
    "Position": {
      "stopLongitude": "72.578388",
      "stopLatitude": "23.024426"
    },
    "RouteCodes": null,
    "Sequence": 1,
    "routeFlow": null
  }
]