[
  {
    "stopName": "Sardarbag",
    "stopCode": 1127,
    "stationCode": 2611,
    "stopType": "MUNICIPAL_BUS",
    "shortStopName": null,
    "Position": {
      "stopLongitude": "72.578883",
      "stopLatitude": "23.027145"
    },
    "RouteCodes": null,
    "Sequence": 2,
    "routeFlow": "LINESTRING (72.57852 23.02446, 72.57853 23.02437, 72.57864 23.02437, 72.57904 23.02434, 72.57904 23.02503, 72.57916 23.02504, 72.57974 23.02504, 72.58001 23.025, 72.58037 23.02497, 72.58054 23.02503, 72.58064 23.02513, 72.58063 23.02567, 72.58059 23.02624, 72.58064 23.02715, 72.58054 23.02724, 72.5804 23.02727, 72.5799 23.02726, 72.57888 23.0272, 72.57888 23.02719, 72.57778 23.02711, 72.57124 23.02658, 72.57128 23.02613, 72.57133 23.0253, 72.57133 23.0253, 72.57139 23.02444, 72.5714 23.02408, 72.5714 23.02408, 72.57143 23.02345, 72.57142 23.02262, 72.57143 23.02212, 72.57136 23.02179, 72.571324 23.021689, 72.57133 23.0217, 72.57129 23.02161, 72.57116 23.02143, 72.57076 23.02102, 72.57052 23.02083, 72.56962 23.01968, 72.56892 23.01886, 72.56824 23.01808, 72.56798 23.01776, 72.56798 23.01776, 72.56786 23.01762, 72.56775 23.01742, 72.56716 23.0167, 72.56716 23.0167, 72.56693 23.01642, 72.56618 23.01557, 72.5656 23.01486, 72.56503 23.01412, 72.56452 23.0134, 72.56452 23.0134, 72.56373 23.01227, 72.56337 23.01164, 72.56337 23.01164, 72.56243 23.00972, 72.56228 23.00939, 72.56218 23.00924, 72.56203 23.00913, 72.56169 23.00892, 72.56169 23.00892, 72.5604 23.00819, 72.56012 23.00803, 72.55981 23.00791, 72.55887 23.00764, 72.55857 23.00753, 72.55853 23.00766, 72.55838 23.008, 72.55838 23.008, 72.55823 23.00835, 72.55766 23.0098, 72.55502 23.00971, 72.55502 23.00971, 72.55389 23.00973, 72.55285 23.00981, 72.55273 23.00983, 72.55273 23.00983, 72.55241 23.00983, 72.55205 23.00973, 72.55153 23.00953, 72.5511 23.00944, 72.55075 23.00939, 72.55025 23.00931, 72.54992 23.00922, 72.54992 23.00922, 72.54945 23.00913, 72.54932 23.00918, 72.54853 23.00912, 72.54888 23.00879, 72.54951 23.00817, 72.54968 23.00803, 72.54992 23.00777, 72.54956 23.00761, 72.54955 23.00762, 72.54839 23.00722, 72.54773 23.00694, 72.54773 23.00694, 72.54638 23.00635, 72.54576 23.0061, 72.54513 23.0058, 72.54488 23.00635, 72.54488 23.00635, 72.54459 23.00699, 72.54428 23.0076, 72.54416 23.00789, 72.54416 23.00789, 72.54359 23.00934, 72.54315 23.00918, 72.54315 23.00918, 72.54235 23.00889, 72.54189 23.00871, 72.54145 23.00848, 72.54095 23.00826, 72.5406 23.00811, 72.54 23.00791, 72.53916 23.0077, 72.53916 23.0077, 72.53669 23.0071, 72.5354 23.0068, 72.53522 23.00676, 72.53522 23.00676, 72.53439 23.00657, 72.53335 23.00645, 72.53255 23.0063, 72.53255 23.0063, 72.53114 23.00599, 72.53048 23.00588, 72.52913 23.00567, 72.52913 23.00567, 72.52758 23.00544, 72.52634 23.00525, 72.52634 23.00525, 72.52577 23.00514, 72.52511 23.00498, 72.52477 23.00491, 72.52447 23.00482, 72.52359 23.00448, 72.52359 23.00448, 72.52266 23.00415, 72.52105 23.00364, 72.52105 23.00366, 72.52027 23.00344, 72.51947 23.00328, 72.51892 23.00321, 72.51862 23.00319, 72.51845 23.0032, 72.5182 23.00327, 72.51795 23.00337, 72.51783 23.00345, 72.5178 23.00343, 72.51785 23.00311, 72.51785 23.00311, 72.5178 23.00343, 72.51783 23.00345, 72.51777 23.00352, 72.51762 23.00383, 72.51754 23.00393, 72.51705 23.00442, 72.51671 23.00469, 72.51659 23.00481, 72.51649 23.00496, 72.51638 23.00521, 72.51633 23.00545, 72.51633 23.00567, 72.51636 23.00604, 72.51643 23.00624, 72.51633 23.00629, 72.51649 23.00622, 72.51644 23.00613, 72.51642 23.00604, 72.5164 23.00565, 72.51641 23.00547, 72.51645 23.00522, 72.51654 23.00499, 72.51669 23.00479, 72.51688 23.00464, 72.51736 23.00421, 72.51762 23.00395, 72.51776 23.00373, 72.51788 23.0035, 72.51798 23.00343, 72.51818 23.00334, 72.5182 23.00333, 72.51822 23.00336, 72.5182 23.00333, 72.51804 23.0034, 72.51793 23.00346, 72.51788 23.0035, 72.51783 23.00345, 72.5178 23.00343, 72.51786 23.00306, 72.5179 23.00277, 72.51746 23.00249, 72.51694 23.00212, 72.51602 23.00131, 72.51603 23.00131, 72.51591 23.0012, 72.5153 23.00082, 72.51387 22.99984, 72.5128 22.99903, 72.5128 22.99903, 72.51242 22.99872, 72.51219 22.99852, 72.51154 22.99795, 72.51085 22.99736, 72.51043 22.99695, 72.51006 22.99657, 72.50988 22.99645, 72.50988 22.99645, 72.50977 22.99637, 72.50963 22.99635, 72.50951 22.99635, 72.50817 22.99637, 72.50817 22.99637, 72.50771 22.99635, 72.50775 22.99618, 72.50786 22.99586, 72.50786 22.99586, 72.50794 22.9957, 72.50801 22.9955, 72.50804 22.9953, 72.50805 22.99465, 72.50798 22.99301, 72.5079 22.99288, 72.50779 22.99272, 72.50779 22.99272, 72.50741 22.99215, 72.50721 22.99189, 72.50681 22.99142, 72.50661 22.99123, 72.50633 22.99102, 72.50586 22.99064, 72.50562 22.99042, 72.50558 22.99037, 72.50547 22.99034, 72.50516 22.99024, 72.50516 22.99024, 72.50444 22.99004, 72.50428 22.99002, 72.50423 22.99004, 72.50415 22.99008, 72.50406 22.99013, 72.50396 22.99021, 72.50371 22.99037, 72.5035 22.99058, 72.5035 22.99058, 72.50316 22.99091, 72.50294 22.99103, 72.50234 22.99122, 72.50222 22.99125, 72.50211 22.99132, 72.502 22.99148, 72.50195 22.99168, 72.50195 22.99182, 72.50191 22.99192, 72.50186 22.99276, 72.50168 22.99359, 72.50148 22.99425, 72.50148 22.99425, 72.50134 22.9946, 72.50114 22.99495, 72.5009 22.9953, 72.50076 22.99547, 72.50054 22.99567, 72.50021 22.9959, 72.50002 22.99602, 72.49998 22.99607, 72.49978 22.99615, 72.49929 22.9955, 72.49929 22.9955, 72.49874 22.99457, 72.49859 22.99424, 72.49859 22.99424, 72.4985 22.994, 72.49845 22.99379, 72.49836 22.99335, 72.4983 22.99276, 72.49823 22.99172)"
  },
  {
    "stopName": "Gandhigram Railway Station",
    "stopCode": 1128,
    "stationCode": 1522,
    "stopType": "MUNICIPAL_BUS",
    "shortStopName": null,
    "Position": {
      "stopLongitude": "72.571413",
      "stopLatitude": "23.025308"
    },
    "RouteCodes": null,
    "Sequence": 3,
    "routeFlow": null
  },
  {
    "stopName": "Sanyas Ashram",
    "stopCode": 1129,
    "stationCode": 2588,
    "stopType": "MUNICIPAL_BUS",
    "shortStopName": null,
    "Position": {
      "stopLongitude": "72.571466",
      "stopLatitude": "23.02408"
    },
    "RouteCodes": null,
    "Sequence": 4,
    "routeFlow": null
  },
  {
    "stopName": "V.S. Hospital",
    "stopCode": 1130,
    "stationCode": 2977,
    "stopType": "MUNICIPAL_BUS",
    "shortStopName": null,
    "Position": {
      "stopLongitude": "72.571373",
      "stopLatitude": "23.021679"
    },
    "RouteCodes": null,
    "Sequence": 5,
    "routeFlow": null
  },
  {
    "stopName": "Arvind Sales Emporium",
    "stopCode": 1131,
    "stationCode": 1167,
    "stopType": "MUNICIPAL_BUS",
    "shortStopName": null,
    "Position": {
      "stopLongitude": "72.568068",
      "stopLatitude": "23.017701"
    },
    "RouteCodes": null,
    "Sequence": 6,
    "routeFlow": null
  },
  {
    "stopName": "Pritamnagar",
    "stopCode": 1132,
    "stationCode": 2389,
    "stopType": "MUNICIPAL_BUS",
    "shortStopName": null,
    "Position": {
      "stopLongitude": "72.567213",
      "stopLatitude": "23.016665"
    },
    "RouteCodes": null,
    "Sequence": 7,
    "routeFlow": null
  },
  {
    "stopName": "Vejalpur Gam",
    "stopCode": 1275,
    "stationCode": 3034,
    "stopType": "MUNICIPAL_BUS",
    "shortStopName": null,
    "Position": {
      "stopLongitude": "72.518213",
      "stopLatitude": "23.00337"
    },
    "RouteCodes": null,
    "Sequence": 29,
    "routeFlow": null
  },
  {
    "stopName": "Paldi",
    "stopCode": 1346,
    "stationCode": 2284,
    "stopType": "MUNICIPAL_BUS",
    "shortStopName": null,
    "Position": {
      "stopLongitude": "72.564498",
      "stopLatitude": "23.01341"
    },
    "RouteCodes": null,
    "Sequence": 8,
    "routeFlow": null
  },
  {
    "stopName": "Mahalakshmi Society",
    "stopCode": 1347,
    "stationCode": 2000,
    "stopType": "MUNICIPAL_BUS",
    "shortStopName": null,
    "Position": {
      "stopLongitude": "72.563405",
      "stopLatitude": "23.011623"
    },
    "RouteCodes": null,
    "Sequence": 9,
    "routeFlow": null
  },
  {
    "stopName": "Jain Merchant Society",
    "stopCode": 1348,
    "stationCode": 1743,
    "stopType": "MUNICIPAL_BUS",
    "shortStopName": null,
    "Position": {
      "stopLongitude": "72.5617",
      "stopLatitude": "23.008901"
    },
    "RouteCodes": null,
    "Sequence": 10,
    "routeFlow": null
  },
  {
    "stopName": "Keshariyajinagar Society",
    "stopCode": 1354,
    "stationCode": 1874,
    "stopType": "MUNICIPAL_BUS",
    "shortStopName": null,
    "Position": {
      "stopLongitude": "72.544839",
      "stopLatitude": "23.006336"
    },
    "RouteCodes": null,
    "Sequence": 17,
    "routeFlow": null
  },
  {
    "stopName": "Lavanya Society",
    "stopCode": 1355,
    "stationCode": 1966,
    "stopType": "MUNICIPAL_BUS",
    "shortStopName": null,
    "Position": {
      "stopLongitude": "72.544105",
      "stopLatitude": "23.00787"
    },
    "RouteCodes": null,
    "Sequence": 18,
    "routeFlow": null
  },
  {
    "stopName": "Dr.Jivraj Mehta Hospital",
    "stopCode": 1356,
    "stationCode": 1472,
    "stopType": "MUNICIPAL_BUS",
    "shortStopName": null,
    "Position": {
      "stopLongitude": "72.543168",
      "stopLatitude": "23.00915"
    },
    "RouteCodes": null,
    "Sequence": 19,
    "routeFlow": null
  },
  {
    "stopName": "Malav Talav",
    "stopCode": 1357,
    "stationCode": 2021,
    "stopType": "MUNICIPAL_BUS",
    "shortStopName": null,
    "Position": {
      "stopLongitude": "72.539176",
      "stopLatitude": "23.007658"
    },
    "RouteCodes": null,
    "Sequence": 20,
    "routeFlow": null
  },
  {
    "stopName": "Gyanada Society",
    "stopCode": 1358,
    "stationCode": 1641,
    "stopType": "MUNICIPAL_BUS",
    "shortStopName": null,
    "Position": {
      "stopLongitude": "72.53522",
      "stopLatitude": "23.006746"
    },
    "RouteCodes": null,
    "Sequence": 21,
    "routeFlow": null
  },
  {
    "stopName": "Jivraj Park",
    "stopCode": 1359,
    "stationCode": 1791,
    "stopType": "MUNICIPAL_BUS",
    "shortStopName": null,
    "Position": {
      "stopLongitude": "72.532551",
      "stopLatitude": "23.006305"
    },
    "RouteCodes": null,
    "Sequence": 22,
    "routeFlow": null
  },
  {
    "stopName": "Vishwamitra Society",
    "stopCode": 1360,
    "stationCode": 3071,
    "stopType": "MUNICIPAL_BUS",
    "shortStopName": null,
    "Position": {
      "stopLongitude": "72.529131",
      "stopLatitude": "23.005683"
    },
    "RouteCodes": null,
    "Sequence": 23,
    "routeFlow": null
  },
  {
    "stopName": "Shaivali Society",
    "stopCode": 1361,
    "stationCode": 2687,
    "stopType": "MUNICIPAL_BUS",
    "shortStopName": null,
    "Position": {
      "stopLongitude": "72.526338",
      "stopLatitude": "23.00525"
    },
    "RouteCodes": null,
    "Sequence": 24,
    "routeFlow": null
  },
  {
    "stopName": "Jaltarang Society",
    "stopCode": 1362,
    "stationCode": 1751,
    "stopType": "MUNICIPAL_BUS",
    "shortStopName": null,
    "Position": {
      "stopLongitude": "72.523603",
      "stopLatitude": "23.004461"
    },
    "RouteCodes": null,
    "Sequence": 25,
    "routeFlow": null
  },
  {
    "stopName": "Rudreshwar Mahadev",
    "stopCode": 1363,
    "stationCode": 2513,
    "stopType": "MUNICIPAL_BUS",
    "shortStopName": null,
    "Position": {
      "stopLongitude": "72.52106",
      "stopLatitude": "23.003625"
    },
    "RouteCodes": null,
    "Sequence": 26,
    "routeFlow": null
  },
  {
    "stopName": "Fatehnagar",
    "stopCode": 3051,
    "stationCode": 1496,
    "stopType": "MUNICIPAL_BUS",
    "shortStopName": null,
    "Position": {
      "stopLongitude": "72.558358",
      "stopLatitude": "23.007988"
    },
    "RouteCodes": null,
    "Sequence": 11,
    "routeFlow": null
  },
  {
    "stopName": "Ashoknagar",
    "stopCode": 3052,
    "stationCode": 1182,
    "stopType": "MUNICIPAL_BUS",
    "shortStopName": null,
    "Position": {
      "stopLongitude": "72.555016",
      "stopLatitude": "23.00971"
    },
    "RouteCodes": null,
    "Sequence": 12,
    "routeFlow": null
  },
  {
    "stopName": "Vikas Gruh",
    "stopCode": 3053,
    "stationCode": 3047,
    "stopType": "MUNICIPAL_BUS",
    "shortStopName": null,
    "Position": {
      "stopLongitude": "72.552726",
      "stopLatitude": "23.009831"
    },
    "RouteCodes": null,
    "Sequence": 13,
    "routeFlow": null
  },
  {
    "stopName": "Shardanagar",
    "stopCode": 3054,
    "stationCode": 2709,
    "stopType": "MUNICIPAL_BUS",
    "shortStopName": null,
    "Position": {
      "stopLongitude": "72.549918",
      "stopLatitude": "23.009221"
    },
    "RouteCodes": null,
    "Sequence": 14,
    "routeFlow": null
  },
  {
    "stopName": "Dharnidhar Society",
    "stopCode": 3055,
    "stationCode": 1458,
    "stopType": "MUNICIPAL_BUS",
    "shortStopName": null,
    "Position": {
      "stopLongitude": "72.549561",
      "stopLatitude": "23.007601"
    },
    "RouteCodes": null,
    "Sequence": 15,
    "routeFlow": null
  },
  {
    "stopName": "Shreyanshnath Society",
    "stopCode": 3056,
    "stationCode": 2734,
    "stopType": "MUNICIPAL_BUS",
    "shortStopName": null,
    "Position": {
      "stopLongitude": "72.547757",
      "stopLatitude": "23.006896"
    },
    "RouteCodes": null,
    "Sequence": 16,
    "routeFlow": null
  },
  {
    "stopName": "Vejalpur Gam",
    "stopCode": 3413,
    "stationCode": 3034,
    "stopType": "MUNICIPAL_BUS",
    "shortStopName": null,
    "Position": {
      "stopLongitude": "72.517856",
      "stopLatitude": "23.003113"
    },
    "RouteCodes": null,
    "Sequence": 27,
    "routeFlow": null
  },
  {
    "stopName": "But Bhavani Mandir",
    "stopCode": 3478,
    "stationCode": 1323,
    "stopType": "MUNICIPAL_BUS",
    "shortStopName": null,
    "Position": {
      "stopLongitude": "72.516295",
      "stopLatitude": "23.00629"
    },
    "RouteCodes": null,
    "Sequence": 28,
    "routeFlow": null
  },
  {
    "stopName": "Lal Darwaja",
    "stopCode": 4104,
    "stationCode": 1961,
    "stopType": "MUNICIPAL_BUS",
    "shortStopName": null,
    "Position": {
      "stopLongitude": "72.578454",
      "stopLatitude": "23.024455"
    },
    "RouteCodes": null,
    "Sequence": 1,
    "routeFlow": null
  },
  {
    "stopName": "Shrinandnagar",
    "stopCode": 4570,
    "stationCode": 2754,
    "stopType": "MUNICIPAL_BUS",
    "shortStopName": null,
    "Position": {
      "stopLongitude": "72.516078",
      "stopLatitude": "23.001258"
    },
    "RouteCodes": null,
    "Sequence": 30,
    "routeFlow": null
  },
  {
    "stopName": "Kailasdham",
    "stopCode": 4571,
    "stationCode": 1822,
    "stopType": "MUNICIPAL_BUS",
    "shortStopName": null,
    "Position": {
      "stopLongitude": "72.512835",
      "stopLatitude": "22.998996"
    },
    "RouteCodes": null,
    "Sequence": 31,
    "routeFlow": null
  },
  {
    "stopName": "Ambedkarnagar",
    "stopCode": 4572,
    "stationCode": 1109,
    "stopType": "MUNICIPAL_BUS",
    "shortStopName": null,
    "Position": {
      "stopLongitude": "72.509913",
      "stopLatitude": "22.996401"
    },
    "RouteCodes": null,
    "Sequence": 32,
    "routeFlow": null
  },
  {
    "stopName": "Margha Kendra",
    "stopCode": 4573,
    "stationCode": 2056,
    "stopType": "MUNICIPAL_BUS",
    "shortStopName": null,
    "Position": {
      "stopLongitude": "72.508165",
      "stopLatitude": "22.996334"
    },
    "RouteCodes": null,
    "Sequence": 33,
    "routeFlow": null
  },
  {
    "stopName": "Makarba Gam",
    "stopCode": 4574,
    "stationCode": 2018,
    "stopType": "MUNICIPAL_BUS",
    "shortStopName": null,
    "Position": {
      "stopLongitude": "72.507875",
      "stopLatitude": "22.995861"
    },
    "RouteCodes": null,
    "Sequence": 34,
    "routeFlow": null
  },
  {
    "stopName": "Rajivnagar",
    "stopCode": 4575,
    "stationCode": 2449,
    "stopType": "MUNICIPAL_BUS",
    "shortStopName": null,
    "Position": {
      "stopLongitude": "72.50517",
      "stopLatitude": "22.990206"
    },
    "RouteCodes": null,
    "Sequence": 36,
    "routeFlow": null
  },
  {
    "stopName": "Saiyadwad",
    "stopCode": 4576,
    "stationCode": 2556,
    "stopType": "MUNICIPAL_BUS",
    "shortStopName": null,
    "Position": {
      "stopLongitude": "72.503483",
      "stopLatitude": "22.990571"
    },
    "RouteCodes": null,
    "Sequence": 37,
    "routeFlow": null
  },
  {
    "stopName": "D.A.V.International School",
    "stopCode": 4577,
    "stationCode": 1408,
    "stopType": "MUNICIPAL_BUS",
    "shortStopName": null,
    "Position": {
      "stopLongitude": "72.501485",
      "stopLatitude": "22.994256"
    },
    "RouteCodes": null,
    "Sequence": 38,
    "routeFlow": null
  },
  {
    "stopName": "K.P.Femina",
    "stopCode": 4578,
    "stationCode": 1812,
    "stopType": "MUNICIPAL_BUS",
    "shortStopName": null,
    "Position": {
      "stopLongitude": "72.499321",
      "stopLatitude": "22.995475"
    },
    "RouteCodes": null,
    "Sequence": 39,
    "routeFlow": null
  },
  {
    "stopName": "Siddhi Vinayak Tower",
    "stopCode": 4579,
    "stationCode": 2787,
    "stopType": "MUNICIPAL_BUS",
    "shortStopName": null,
    "Position": {
      "stopLongitude": "72.49861",
      "stopLatitude": "22.994236"
    },
    "RouteCodes": null,
    "Sequence": 40,
    "routeFlow": null
  },
  {
    "stopName": "Adani Vidyavihar",
    "stopCode": 4580,
    "stationCode": 1068,
    "stopType": "MUNICIPAL_BUS",
    "shortStopName": null,
    "Position": {
      "stopLongitude": "72.498291",
      "stopLatitude": "22.99172"
    },
    "RouteCodes": null,
    "Sequence": 41,
    "routeFlow": null
  },
  {
    "stopName": "Sarkhej Roza",
    "stopCode": 5377,
    "stationCode": 2631,
    "stopType": "MUNICIPAL_BUS",
    "shortStopName": null,
    "Position": {
      "stopLongitude": "72.507825",
      "stopLatitude": "22.992703"
    },
    "RouteCodes": null,
    "Sequence": 35,
    "routeFlow": null
  }
]