[
  {
    "stopName": "Vastrapur Railway Crossing",
    "stopCode": 1055,
    "stationCode": 3022,
    "stopType": "MUNICIPAL_BUS",
    "shortStopName": null,
    "Position": {
      "stopLongitude": "72.520226",
      "stopLatitude": "23.008035"
    },
    "RouteCodes": null,
    "Sequence": 2,
    "routeFlow": "LINESTRING (72.51654 23.00632, 72.51644 23.00613, 72.5166 23.00618, 72.51823 23.00644, 72.5185 23.00654, 72.51906 23.00672, 72.5193 23.00684, 72.51952 23.00699, 72.5197 23.00713, 72.51999 23.00741, 72.52055 23.00806, 72.52023 23.00802, 72.52023 23.00802, 72.52303 23.00831, 72.52303 23.00831, 72.5261 23.00862, 72.5261 23.00862, 72.52782 23.00878, 72.52836 23.00885, 72.52836 23.00886, 72.53094 23.00911, 72.53177 23.00918, 72.531778 23.009202, 72.532091 23.009222, 72.53308 23.00931, 72.53308 23.00931, 72.53597 23.00959, 72.53747 23.00972, 72.53772 23.00974, 72.53772 23.00974, 72.5386 23.00983, 72.53922 23.00995, 72.53964 23.01008, 72.53996 23.01017, 72.54112 23.01057, 72.54216 23.01093, 72.54216 23.01093, 72.54551 23.01215, 72.54551 23.01215, 72.54699 23.0127, 72.54765 23.01294, 72.54835 23.01318, 72.54842 23.01311, 72.54854 23.01299, 72.54859 23.01295, 72.54862 23.01293, 72.54879 23.01279, 72.54905 23.01262, 72.54938 23.01243, 72.5495 23.0124, 72.5501 23.01222, 72.55062 23.01214, 72.55109 23.01213, 72.55109 23.01213, 72.55213 23.01214, 72.55252 23.01216, 72.55304 23.01222, 72.55344 23.01227, 72.55371 23.0123, 72.55371 23.0123, 72.55489 23.01245, 72.55526 23.01253, 72.55557 23.01264, 72.55606 23.01285, 72.55651 23.0131, 72.55733 23.0135, 72.55733 23.0135, 72.55851 23.01416, 72.55884 23.01443, 72.55912 23.01472, 72.55919 23.01477, 72.55938 23.01451, 72.55957 23.01427, 72.55964 23.01419, 72.55964 23.01419, 72.5602 23.01361, 72.56048 23.01333, 72.56118 23.01272, 72.56141 23.01251, 72.56141 23.01251, 72.56208 23.01194, 72.56285 23.01132, 72.56294 23.01127, 72.56301 23.01123, 72.56318 23.01156, 72.56318 23.01156, 72.56353 23.01218, 72.56387 23.01269, 72.56467 23.01383, 72.56467 23.01383, 72.565 23.01427, 72.56598 23.0137, 72.56655 23.01343, 72.56808 23.0128, 72.56867 23.01265, 72.56885 23.01258, 72.5692 23.01248, 72.56921 23.01243, 72.56926 23.01243, 72.56926 23.01243, 72.56959 23.01237, 72.57118 23.0119, 72.57141 23.01184, 72.57215 23.01172, 72.57337 23.01152, 72.57485 23.01128, 72.5766 23.01098, 72.57782 23.01076, 72.57781 23.01071, 72.57842 23.01058, 72.57959 23.01031, 72.58041 23.01015, 72.58065 23.01013, 72.58111 23.01013, 72.58123 23.01016, 72.58368 23.01095, 72.58413 23.0111, 72.58468 23.01128, 72.58468 23.01128, 72.58732 23.01218, 72.58836 23.01251, 72.58836 23.01251, 72.58928 23.01282, 72.58985 23.01307, 72.59039 23.01334, 72.59117 23.01392, 72.59144 23.01405, 72.59168 23.01422, 72.59168 23.01422, 72.59212 23.01456, 72.59233 23.01479, 72.5926 23.01518, 72.59269 23.01543, 72.59273 23.01571, 72.59276 23.01638, 72.59276 23.01655, 72.59272 23.0168, 72.59269 23.01693, 72.59329 23.017, 72.59329 23.017, 72.59549 23.01739, 72.59549 23.01739, 72.59589 23.01747, 72.59657 23.01764, 72.59731 23.0179, 72.59782 23.0182, 72.59789 23.01824, 72.59789 23.01824, 72.59826 23.01848, 72.59852 23.01869, 72.59881 23.01901, 72.59906 23.01931, 72.59913 23.01942, 72.59913 23.01942, 72.59923 23.01963, 72.59929 23.01993, 72.59929 23.02022, 72.59881 23.02232, 72.59863 23.02266, 72.59854 23.02284, 72.59852 23.02295, 72.59853 23.02309, 72.59858 23.02322, 72.59866 23.02327, 72.59878 23.02331, 72.59893 23.02336, 72.59904 23.02343, 72.59914 23.02352, 72.59958 23.02418)"
  },
  {
    "stopName": "Yogeshwar Apartment",
    "stopCode": 1056,
    "stationCode": 1929,
    "stopType": "MUNICIPAL_BUS",
    "shortStopName": null,
    "Position": {
      "stopLongitude": "72.523026",
      "stopLatitude": "23.008331"
    },
    "RouteCodes": null,
    "Sequence": 3,
    "routeFlow": null
  },
  {
    "stopName": "Navkar Apartment",
    "stopCode": 1057,
    "stationCode": 2196,
    "stopType": "MUNICIPAL_BUS",
    "shortStopName": null,
    "Position": {
      "stopLongitude": "72.52611",
      "stopLatitude": "23.008658"
    },
    "RouteCodes": null,
    "Sequence": 4,
    "routeFlow": null
  },
  {
    "stopName": "Alka Park",
    "stopCode": 1058,
    "stationCode": 1093,
    "stopType": "MUNICIPAL_BUS",
    "shortStopName": null,
    "Position": {
      "stopLongitude": "72.528356",
      "stopLatitude": "23.00889"
    },
    "RouteCodes": null,
    "Sequence": 5,
    "routeFlow": null
  },
  {
    "stopName": "Vishwakarma Society",
    "stopCode": 1059,
    "stationCode": 3069,
    "stopType": "MUNICIPAL_BUS",
    "shortStopName": null,
    "Position": {
      "stopLongitude": "72.531766",
      "stopLatitude": "23.009238"
    },
    "RouteCodes": null,
    "Sequence": 6,
    "routeFlow": null
  },
  {
    "stopName": "Rajivnagar",
    "stopCode": 1060,
    "stationCode": 2449,
    "stopType": "MUNICIPAL_BUS",
    "shortStopName": null,
    "Position": {
      "stopLongitude": "72.533075",
      "stopLatitude": "23.009366"
    },
    "RouteCodes": null,
    "Sequence": 7,
    "routeFlow": null
  },
  {
    "stopName": "Shrikunj Society",
    "stopCode": 1061,
    "stationCode": 2749,
    "stopType": "MUNICIPAL_BUS",
    "shortStopName": null,
    "Position": {
      "stopLongitude": "72.537715",
      "stopLatitude": "23.009783"
    },
    "RouteCodes": null,
    "Sequence": 8,
    "routeFlow": null
  },
  {
    "stopName": "Ayojannagar",
    "stopCode": 1062,
    "stationCode": 1204,
    "stopType": "MUNICIPAL_BUS",
    "shortStopName": null,
    "Position": {
      "stopLongitude": "72.542141",
      "stopLatitude": "23.01098"
    },
    "RouteCodes": null,
    "Sequence": 9,
    "routeFlow": null
  },
  {
    "stopName": "Niranjan Society",
    "stopCode": 1063,
    "stationCode": 2231,
    "stopType": "MUNICIPAL_BUS",
    "shortStopName": null,
    "Position": {
      "stopLongitude": "72.545495",
      "stopLatitude": "23.012186"
    },
    "RouteCodes": null,
    "Sequence": 10,
    "routeFlow": null
  },
  {
    "stopName": "Sharda Society",
    "stopCode": 1064,
    "stationCode": 2706,
    "stopType": "MUNICIPAL_BUS",
    "shortStopName": null,
    "Position": {
      "stopLongitude": "72.548653",
      "stopLatitude": "23.013013"
    },
    "RouteCodes": null,
    "Sequence": 11,
    "routeFlow": null
  },
  {
    "stopName": "Sharda Mandir",
    "stopCode": 1065,
    "stationCode": 2705,
    "stopType": "MUNICIPAL_BUS",
    "shortStopName": null,
    "Position": {
      "stopLongitude": "72.55109",
      "stopLatitude": "23.012153"
    },
    "RouteCodes": null,
    "Sequence": 12,
    "routeFlow": null
  },
  {
    "stopName": "Sukhipura",
    "stopCode": 1066,
    "stationCode": 2863,
    "stopType": "MUNICIPAL_BUS",
    "shortStopName": null,
    "Position": {
      "stopLongitude": "72.553715",
      "stopLatitude": "23.012276"
    },
    "RouteCodes": null,
    "Sequence": 13,
    "routeFlow": null
  },
  {
    "stopName": "Jainnagar",
    "stopCode": 1067,
    "stationCode": 1748,
    "stopType": "MUNICIPAL_BUS",
    "shortStopName": null,
    "Position": {
      "stopLongitude": "72.557331",
      "stopLatitude": "23.013503"
    },
    "RouteCodes": null,
    "Sequence": 14,
    "routeFlow": null
  },
  {
    "stopName": "Nutan Society",
    "stopCode": 1068,
    "stationCode": 2250,
    "stopType": "MUNICIPAL_BUS",
    "shortStopName": null,
    "Position": {
      "stopLongitude": "72.559683",
      "stopLatitude": "23.014221"
    },
    "RouteCodes": null,
    "Sequence": 15,
    "routeFlow": null
  },
  {
    "stopName": "Tolaknagar",
    "stopCode": 1069,
    "stationCode": 2944,
    "stopType": "MUNICIPAL_BUS",
    "shortStopName": null,
    "Position": {
      "stopLongitude": "72.561428",
      "stopLatitude": "23.012528"
    },
    "RouteCodes": null,
    "Sequence": 16,
    "routeFlow": null
  },
  {
    "stopName": "But Bhavani Mandir",
    "stopCode": 1274,
    "stationCode": 1323,
    "stopType": "MUNICIPAL_BUS",
    "shortStopName": null,
    "Position": {
      "stopLongitude": "72.516563",
      "stopLatitude": "23.006304"
    },
    "RouteCodes": null,
    "Sequence": 1,
    "routeFlow": null
  },
  {
    "stopName": "Mahalakshmi Society",
    "stopCode": 1292,
    "stationCode": 2000,
    "stopType": "MUNICIPAL_BUS",
    "shortStopName": null,
    "Position": {
      "stopLongitude": "72.563213",
      "stopLatitude": "23.011543"
    },
    "RouteCodes": null,
    "Sequence": 17,
    "routeFlow": null
  },
  {
    "stopName": "Paldi",
    "stopCode": 1293,
    "stationCode": 2284,
    "stopType": "MUNICIPAL_BUS",
    "shortStopName": null,
    "Position": {
      "stopLongitude": "72.564703",
      "stopLatitude": "23.013808"
    },
    "RouteCodes": null,
    "Sequence": 18,
    "routeFlow": null
  },
  {
    "stopName": "Museum (Sanskar Kendra)",
    "stopCode": 1294,
    "stationCode": 2132,
    "stopType": "MUNICIPAL_BUS",
    "shortStopName": null,
    "Position": {
      "stopLongitude": "72.569252",
      "stopLatitude": "23.012406"
    },
    "RouteCodes": null,
    "Sequence": 19,
    "routeFlow": null
  },
  {
    "stopName": "Calico Colony",
    "stopCode": 1295,
    "stationCode": 1331,
    "stopType": "MUNICIPAL_BUS",
    "shortStopName": null,
    "Position": {
      "stopLongitude": "72.577823",
      "stopLatitude": "23.010776"
    },
    "RouteCodes": null,
    "Sequence": 20,
    "routeFlow": null
  },
  {
    "stopName": "Municipal Chal (S.T.)",
    "stopCode": 1297,
    "stationCode": 2117,
    "stopType": "MUNICIPAL_BUS",
    "shortStopName": null,
    "Position": {
      "stopLongitude": "72.58834",
      "stopLatitude": "23.01257"
    },
    "RouteCodes": null,
    "Sequence": 22,
    "routeFlow": null
  },
  {
    "stopName": "S.T. Stand",
    "stopCode": 1298,
    "stationCode": 2526,
    "stopType": "MUNICIPAL_BUS",
    "shortStopName": null,
    "Position": {
      "stopLongitude": "72.591714",
      "stopLatitude": "23.014171"
    },
    "RouteCodes": null,
    "Sequence": 23,
    "routeFlow": null
  },
  {
    "stopName": "Astodiya Darwaja",
    "stopCode": 1299,
    "stationCode": 1197,
    "stopType": "MUNICIPAL_BUS",
    "shortStopName": null,
    "Position": {
      "stopLongitude": "72.593273",
      "stopLatitude": "23.01708"
    },
    "RouteCodes": null,
    "Sequence": 24,
    "routeFlow": null
  },
  {
    "stopName": "Municipal_bus Staff Quarters",
    "stopCode": 1941,
    "stationCode": 1121,
    "stopType": "MUNICIPAL_BUS",
    "shortStopName": null,
    "Position": {
      "stopLongitude": "72.584628",
      "stopLatitude": "23.011398"
    },
    "RouteCodes": null,
    "Sequence": 21,
    "routeFlow": null
  },
  {
    "stopName": "Raipur Darwaja",
    "stopCode": 1945,
    "stationCode": 2497,
    "stopType": "MUNICIPAL_BUS",
    "shortStopName": null,
    "Position": {
      "stopLongitude": "72.595473",
      "stopLatitude": "23.017458"
    },
    "RouteCodes": null,
    "Sequence": 25,
    "routeFlow": null
  },
  {
    "stopName": "Mahipatram Ashram",
    "stopCode": 1946,
    "stationCode": 2012,
    "stopType": "MUNICIPAL_BUS",
    "shortStopName": null,
    "Position": {
      "stopLongitude": "72.597851",
      "stopLatitude": "23.018296"
    },
    "RouteCodes": null,
    "Sequence": 26,
    "routeFlow": null
  },
  {
    "stopName": "New Cloth Market",
    "stopCode": 1947,
    "stationCode": 2208,
    "stopType": "MUNICIPAL_BUS",
    "shortStopName": null,
    "Position": {
      "stopLongitude": "72.59909",
      "stopLatitude": "23.019433"
    },
    "RouteCodes": null,
    "Sequence": 27,
    "routeFlow": null
  },
  {
    "stopName": "Sarangpur",
    "stopCode": 2270,
    "stationCode": 2593,
    "stopType": "MUNICIPAL_BUS",
    "shortStopName": null,
    "Position": {
      "stopLongitude": "72.599565",
      "stopLatitude": "23.024185"
    },
    "RouteCodes": null,
    "Sequence": 28,
    "routeFlow": null
  }
]