[
  {
    "stopName": "Calico Colony",
    "stopCode": 1344,
    "stationCode": 1331,
    "stopType": "MUNICIPAL_BUS",
    "shortStopName": null,
    "Position": {
      "stopLongitude": "72.577815",
      "stopLatitude": "23.010635"
    },
    "RouteCodes": null,
    "Sequence": 10,
    "routeFlow": "LINESTRING (72.60032 23.03024, 72.60029 23.02853, 72.6003 23.02786, 72.60029 23.02661, 72.60029 23.02623, 72.60026 23.0256, 72.60024 23.02532, 72.60018 23.02505, 72.60013 23.02486, 72.60007 23.02477, 72.59925 23.02349, 72.599269 23.023491, 72.59902 23.02311, 72.59896 23.02298, 72.59891 23.02273, 72.59896 23.0223, 72.59904 23.02197, 72.59919 23.02131, 72.59941 23.02024, 72.59942 23.01999, 72.59938 23.01967, 72.5993 23.01946, 72.59902 23.01901, 72.5989 23.01888, 72.5989 23.01888, 72.59848 23.01847, 72.59825 23.01831, 72.59772 23.01797, 72.59772 23.01797, 72.5972 23.0177, 72.59659 23.01745, 72.59626 23.01738, 72.59572 23.01727, 72.59533 23.01722, 72.59533 23.01722, 72.59484 23.01717, 72.59441 23.01708, 72.59335 23.0169, 72.59272 23.0168, 72.59139 23.01677, 72.59107 23.01671, 72.59104 23.01669, 72.59103 23.01668, 72.59105 23.01653, 72.59102 23.01626, 72.59102 23.01626, 72.59096 23.01583, 72.59098 23.01544, 72.59116 23.01451, 72.59121 23.01432, 72.59121 23.01432, 72.59132 23.01392, 72.5905 23.01331, 72.59013 23.01311, 72.58976 23.01292, 72.58925 23.01271, 72.5885 23.01246, 72.5885 23.01246, 72.58809 23.01232, 72.58733 23.01207, 72.58474 23.01122, 72.58474 23.01122, 72.58311 23.01069, 72.58125 23.0101, 72.58101 23.01006, 72.5808 23.01005, 72.58041 23.01008, 72.57959 23.01024, 72.57797 23.01061, 72.57782 23.01064, 72.57782 23.01064, 72.57655 23.01085, 72.57603 23.01094, 72.5723 23.01157, 72.57115 23.01178, 72.56926 23.01231, 72.56926 23.01231, 72.56889 23.0124, 72.56813 23.01267, 72.56776 23.01282, 72.5662 23.01347, 72.56582 23.01367, 72.56503 23.01412, 72.56452 23.0134, 72.56452 23.0134, 72.56373 23.01227, 72.56337 23.01164, 72.56337 23.01164, 72.56243 23.00972, 72.56228 23.00939, 72.56218 23.00924, 72.56203 23.00913, 72.56169 23.00892, 72.56169 23.00892, 72.5604 23.00819, 72.56012 23.00803, 72.55981 23.00791, 72.55942 23.00779, 72.55941 23.0078, 72.55857 23.00753, 72.55842 23.00793, 72.55828 23.00834, 72.55766 23.0098, 72.55557 23.00973, 72.55502 23.00973, 72.55502 23.00971, 72.55389 23.00973, 72.55285 23.00981, 72.55273 23.00983, 72.55273 23.00983, 72.55241 23.00983, 72.55205 23.00973, 72.55153 23.00953, 72.5511 23.00944, 72.55075 23.00939, 72.55025 23.00931, 72.54992 23.00922, 72.54992 23.00922, 72.54945 23.00913, 72.54932 23.00918, 72.54853 23.00912, 72.54888 23.00879, 72.54951 23.00817, 72.54968 23.00803, 72.54992 23.00777, 72.54956 23.00761, 72.54955 23.00762, 72.54839 23.00722, 72.54773 23.00694, 72.54773 23.00694, 72.54638 23.00635, 72.54576 23.0061, 72.54513 23.0058, 72.54488 23.00635, 72.54488 23.00635, 72.54459 23.00699, 72.54428 23.0076, 72.54416 23.00789, 72.54416 23.00789, 72.54359 23.00934, 72.54315 23.00918, 72.54315 23.00918, 72.54235 23.00889, 72.54189 23.00871, 72.54145 23.00848, 72.54095 23.00826, 72.5406 23.00811, 72.54 23.00791, 72.53916 23.0077, 72.53916 23.0077, 72.53669 23.0071, 72.5354 23.0068, 72.53518 23.00675, 72.53518 23.00675, 72.53439 23.00657, 72.53335 23.00645, 72.53255 23.0063, 72.53255 23.0063, 72.53114 23.00599, 72.53048 23.00588, 72.52913 23.00567, 72.52913 23.00567, 72.52758 23.00544, 72.52634 23.00525, 72.52634 23.00525, 72.52577 23.00514, 72.52511 23.00498, 72.52477 23.00491, 72.52447 23.00482, 72.52359 23.00448, 72.52359 23.00448, 72.52266 23.00415, 72.52105 23.00364, 72.52105 23.00364, 72.52029 23.00342, 72.51981 23.00332, 72.51897 23.00319, 72.5187 23.00317, 72.5187 23.00317, 72.51841 23.00319, 72.51813 23.00327, 72.51789 23.0034, 72.51781 23.00348, 72.51773 23.00359, 72.51759 23.00388, 72.51732 23.00417, 72.51699 23.00447, 72.51666 23.00473, 72.51645 23.00502, 72.5164 23.00514, 72.51635 23.00535, 72.51633 23.00557, 72.51634 23.00581, 72.51637 23.0061, 72.51643 23.00625)"
  },
  {
    "stopName": "Museum (Sanskar Kendra)",
    "stopCode": 1345,
    "stationCode": 2132,
    "stopType": "MUNICIPAL_BUS",
    "shortStopName": null,
    "Position": {
      "stopLongitude": "72.569244",
      "stopLatitude": "23.012228"
    },
    "RouteCodes": null,
    "Sequence": 11,
    "routeFlow": null
  },
  {
    "stopName": "Paldi",
    "stopCode": 1346,
    "stationCode": 2284,
    "stopType": "MUNICIPAL_BUS",
    "shortStopName": null,
    "Position": {
      "stopLongitude": "72.564498",
      "stopLatitude": "23.01341"
    },
    "RouteCodes": null,
    "Sequence": 12,
    "routeFlow": null
  },
  {
    "stopName": "Mahalakshmi Society",
    "stopCode": 1347,
    "stationCode": 2000,
    "stopType": "MUNICIPAL_BUS",
    "shortStopName": null,
    "Position": {
      "stopLongitude": "72.563405",
      "stopLatitude": "23.011623"
    },
    "RouteCodes": null,
    "Sequence": 13,
    "routeFlow": null
  },
  {
    "stopName": "Jain Merchant Society",
    "stopCode": 1348,
    "stationCode": 1743,
    "stopType": "MUNICIPAL_BUS",
    "shortStopName": null,
    "Position": {
      "stopLongitude": "72.5617",
      "stopLatitude": "23.008901"
    },
    "RouteCodes": null,
    "Sequence": 14,
    "routeFlow": null
  },
  {
    "stopName": "Fatehnagar",
    "stopCode": 1349,
    "stationCode": 1496,
    "stopType": "MUNICIPAL_BUS",
    "shortStopName": null,
    "Position": {
      "stopLongitude": "72.559421",
      "stopLatitude": "23.007781"
    },
    "RouteCodes": null,
    "Sequence": 15,
    "routeFlow": null
  },
  {
    "stopName": "Keshariyajinagar Society",
    "stopCode": 1354,
    "stationCode": 1874,
    "stopType": "MUNICIPAL_BUS",
    "shortStopName": null,
    "Position": {
      "stopLongitude": "72.544839",
      "stopLatitude": "23.006336"
    },
    "RouteCodes": null,
    "Sequence": 21,
    "routeFlow": null
  },
  {
    "stopName": "Lavanya Society",
    "stopCode": 1355,
    "stationCode": 1966,
    "stopType": "MUNICIPAL_BUS",
    "shortStopName": null,
    "Position": {
      "stopLongitude": "72.544105",
      "stopLatitude": "23.00787"
    },
    "RouteCodes": null,
    "Sequence": 22,
    "routeFlow": null
  },
  {
    "stopName": "Dr.Jivraj Mehta Hospital",
    "stopCode": 1356,
    "stationCode": 1472,
    "stopType": "MUNICIPAL_BUS",
    "shortStopName": null,
    "Position": {
      "stopLongitude": "72.543168",
      "stopLatitude": "23.00915"
    },
    "RouteCodes": null,
    "Sequence": 23,
    "routeFlow": null
  },
  {
    "stopName": "Malav Talav",
    "stopCode": 1357,
    "stationCode": 2021,
    "stopType": "MUNICIPAL_BUS",
    "shortStopName": null,
    "Position": {
      "stopLongitude": "72.539176",
      "stopLatitude": "23.007658"
    },
    "RouteCodes": null,
    "Sequence": 24,
    "routeFlow": null
  },
  {
    "stopName": "Jivraj Park",
    "stopCode": 1359,
    "stationCode": 1791,
    "stopType": "MUNICIPAL_BUS",
    "shortStopName": null,
    "Position": {
      "stopLongitude": "72.532551",
      "stopLatitude": "23.006305"
    },
    "RouteCodes": null,
    "Sequence": 26,
    "routeFlow": null
  },
  {
    "stopName": "Vishwamitra Society",
    "stopCode": 1360,
    "stationCode": 3071,
    "stopType": "MUNICIPAL_BUS",
    "shortStopName": null,
    "Position": {
      "stopLongitude": "72.529131",
      "stopLatitude": "23.005683"
    },
    "RouteCodes": null,
    "Sequence": 27,
    "routeFlow": null
  },
  {
    "stopName": "Shaivali Society",
    "stopCode": 1361,
    "stationCode": 2687,
    "stopType": "MUNICIPAL_BUS",
    "shortStopName": null,
    "Position": {
      "stopLongitude": "72.526338",
      "stopLatitude": "23.00525"
    },
    "RouteCodes": null,
    "Sequence": 28,
    "routeFlow": null
  },
  {
    "stopName": "Jaltarang Society",
    "stopCode": 1362,
    "stationCode": 1751,
    "stopType": "MUNICIPAL_BUS",
    "shortStopName": null,
    "Position": {
      "stopLongitude": "72.523603",
      "stopLatitude": "23.004461"
    },
    "RouteCodes": null,
    "Sequence": 29,
    "routeFlow": null
  },
  {
    "stopName": "Rudreshwar Mahadev",
    "stopCode": 1363,
    "stationCode": 2513,
    "stopType": "MUNICIPAL_BUS",
    "shortStopName": null,
    "Position": {
      "stopLongitude": "72.52106",
      "stopLatitude": "23.003625"
    },
    "RouteCodes": null,
    "Sequence": 30,
    "routeFlow": null
  },
  {
    "stopName": "But Bhavani Mandir",
    "stopCode": 1365,
    "stationCode": 1323,
    "stopType": "MUNICIPAL_BUS",
    "shortStopName": null,
    "Position": {
      "stopLongitude": "72.516333",
      "stopLatitude": "23.006291"
    },
    "RouteCodes": null,
    "Sequence": 32,
    "routeFlow": null
  },
  {
    "stopName": "Kalupur Terminus",
    "stopCode": 1715,
    "stationCode": 1840,
    "stopType": "MUNICIPAL_BUS",
    "shortStopName": null,
    "Position": {
      "stopLongitude": "72.600373",
      "stopLatitude": "23.030241"
    },
    "RouteCodes": null,
    "Sequence": 1,
    "routeFlow": null
  },
  {
    "stopName": "Sarangpur",
    "stopCode": 1844,
    "stationCode": 2593,
    "stopType": "MUNICIPAL_BUS",
    "shortStopName": null,
    "Position": {
      "stopLongitude": "72.5993",
      "stopLatitude": "23.023465"
    },
    "RouteCodes": null,
    "Sequence": 2,
    "routeFlow": null
  },
  {
    "stopName": "New Cloth Market",
    "stopCode": 1845,
    "stationCode": 2208,
    "stopType": "MUNICIPAL_BUS",
    "shortStopName": null,
    "Position": {
      "stopLongitude": "72.598915",
      "stopLatitude": "23.01886"
    },
    "RouteCodes": null,
    "Sequence": 3,
    "routeFlow": null
  },
  {
    "stopName": "Mahipatram Ashram",
    "stopCode": 1846,
    "stationCode": 2012,
    "stopType": "MUNICIPAL_BUS",
    "shortStopName": null,
    "Position": {
      "stopLongitude": "72.597764",
      "stopLatitude": "23.017908"
    },
    "RouteCodes": null,
    "Sequence": 4,
    "routeFlow": null
  },
  {
    "stopName": "Raipur Darwaja",
    "stopCode": 1847,
    "stationCode": 2497,
    "stopType": "MUNICIPAL_BUS",
    "shortStopName": null,
    "Position": {
      "stopLongitude": "72.595344",
      "stopLatitude": "23.017108"
    },
    "RouteCodes": null,
    "Sequence": 5,
    "routeFlow": null
  },
  {
    "stopName": "Astodiya Darwaja",
    "stopCode": 1848,
    "stationCode": 1197,
    "stopType": "MUNICIPAL_BUS",
    "shortStopName": null,
    "Position": {
      "stopLongitude": "72.590998",
      "stopLatitude": "23.016266"
    },
    "RouteCodes": null,
    "Sequence": 6,
    "routeFlow": null
  },
  {
    "stopName": "S.T. Stand",
    "stopCode": 1849,
    "stationCode": 2526,
    "stopType": "MUNICIPAL_BUS",
    "shortStopName": null,
    "Position": {
      "stopLongitude": "72.59128",
      "stopLatitude": "23.014339"
    },
    "RouteCodes": null,
    "Sequence": 7,
    "routeFlow": null
  },
  {
    "stopName": "Municipal Chal (S.T.)",
    "stopCode": 1850,
    "stationCode": 2117,
    "stopType": "MUNICIPAL_BUS",
    "shortStopName": null,
    "Position": {
      "stopLongitude": "72.588491",
      "stopLatitude": "23.012478"
    },
    "RouteCodes": null,
    "Sequence": 8,
    "routeFlow": null
  },
  {
    "stopName": "Municipal_bus Staff Quarters",
    "stopCode": 1851,
    "stationCode": 1121,
    "stopType": "MUNICIPAL_BUS",
    "shortStopName": null,
    "Position": {
      "stopLongitude": "72.584753",
      "stopLatitude": "23.011188"
    },
    "RouteCodes": null,
    "Sequence": 9,
    "routeFlow": null
  },
  {
    "stopName": "Gnanada Society",
    "stopCode": 2607,
    "stationCode": 1558,
    "stopType": "MUNICIPAL_BUS",
    "shortStopName": null,
    "Position": {
      "stopLongitude": "72.53518",
      "stopLatitude": "23.00676"
    },
    "RouteCodes": null,
    "Sequence": 25,
    "routeFlow": null
  },
  {
    "stopName": "Ashoknagar",
    "stopCode": 3052,
    "stationCode": 1182,
    "stopType": "MUNICIPAL_BUS",
    "shortStopName": null,
    "Position": {
      "stopLongitude": "72.555016",
      "stopLatitude": "23.00971"
    },
    "RouteCodes": null,
    "Sequence": 16,
    "routeFlow": null
  },
  {
    "stopName": "Vikas Gruh",
    "stopCode": 3053,
    "stationCode": 3047,
    "stopType": "MUNICIPAL_BUS",
    "shortStopName": null,
    "Position": {
      "stopLongitude": "72.552726",
      "stopLatitude": "23.009831"
    },
    "RouteCodes": null,
    "Sequence": 17,
    "routeFlow": null
  },
  {
    "stopName": "Shardanagar",
    "stopCode": 3054,
    "stationCode": 2709,
    "stopType": "MUNICIPAL_BUS",
    "shortStopName": null,
    "Position": {
      "stopLongitude": "72.549918",
      "stopLatitude": "23.009221"
    },
    "RouteCodes": null,
    "Sequence": 18,
    "routeFlow": null
  },
  {
    "stopName": "Dharnidhar Society",
    "stopCode": 3055,
    "stationCode": 1458,
    "stopType": "MUNICIPAL_BUS",
    "shortStopName": null,
    "Position": {
      "stopLongitude": "72.549561",
      "stopLatitude": "23.007601"
    },
    "RouteCodes": null,
    "Sequence": 19,
    "routeFlow": null
  },
  {
    "stopName": "Shreyanshnath Society",
    "stopCode": 3056,
    "stationCode": 2734,
    "stopType": "MUNICIPAL_BUS",
    "shortStopName": null,
    "Position": {
      "stopLongitude": "72.547757",
      "stopLatitude": "23.006896"
    },
    "RouteCodes": null,
    "Sequence": 20,
    "routeFlow": null
  },
  {
    "stopName": "Vejalpur",
    "stopCode": 4591,
    "stationCode": 3033,
    "stopType": "MUNICIPAL_BUS",
    "shortStopName": null,
    "Position": {
      "stopLongitude": "72.518705",
      "stopLatitude": "23.003156"
    },
    "RouteCodes": null,
    "Sequence": 31,
    "routeFlow": null
  }
]