[
  {
    "stopName": "Kalupur Terminus",
    "stopCode": 3050,
    "stationCode": 1840,
    "stopType": "MUNICIPAL_BUS",
    "shortStopName": null,
    "Position": {
      "stopLongitude": "72.599818",
      "stopLatitude": "23.027958"
    },
    "RouteCodes": null,
    "Sequence": 10,
    "routeFlow": "LINESTRING (72.58287 23.02416, 72.5837 23.02423, 72.58435 23.02432, 72.5844 23.02435, 72.58441 23.02438, 72.58455 23.02439, 72.58455 23.02439, 72.58535 23.02439, 72.58535 23.02439, 72.58624 23.02438, 72.58698 23.02435, 72.58698 23.02435, 72.58801 23.02433, 72.58865 23.02444, 72.58938 23.02456, 72.58976 23.0246, 72.59018 23.02464, 72.59018 23.02464, 72.59081 23.02475, 72.59101 23.02477, 72.591 23.02477, 72.59189 23.02482, 72.59238 23.02493, 72.59266 23.02495, 72.59287 23.02491, 72.59308 23.02489, 72.59376 23.02493, 72.59444 23.02493, 72.59505 23.02492, 72.59539 23.02484, 72.59582 23.02483, 72.59617 23.02488, 72.59618 23.02489, 72.59618 23.02489, 72.59659 23.02499, 72.59699 23.02512, 72.59758 23.02529, 72.59758 23.02529, 72.5977 23.02534, 72.59784 23.02544, 72.59858 23.02598, 72.59889 23.02622, 72.59899 23.0263, 72.59899 23.0263, 72.60022 23.02725, 72.60016 23.02763, 72.60016 23.02792, 72.59982 23.02792)"
  },
  {
    "stopName": "Bhadrakali Mandir",
    "stopCode": 3400,
    "stationCode": 5066,
    "stopType": "MUNICIPAL_BUS",
    "shortStopName": null,
    "Position": {
      "stopLongitude": "72.582874",
      "stopLatitude": "23.024113"
    },
    "RouteCodes": null,
    "Sequence": 1,
    "routeFlow": null
  },
  {
    "stopName": "Tin Darwaja",
    "stopCode": 4025,
    "stationCode": 2095,
    "stopType": "MUNICIPAL_BUS",
    "shortStopName": null,
    "Position": {
      "stopLongitude": "72.584551",
      "stopLatitude": "23.024454"
    },
    "RouteCodes": null,
    "Sequence": 2,
    "routeFlow": null
  },
  {
    "stopName": "Pankornaka",
    "stopCode": 4026,
    "stationCode": 2602,
    "stopType": "MUNICIPAL_BUS",
    "shortStopName": null,
    "Position": {
      "stopLongitude": "72.585352",
      "stopLatitude": "23.024497"
    },
    "RouteCodes": null,
    "Sequence": 3,
    "routeFlow": null
  },
  {
    "stopName": "Fuwara",
    "stopCode": 4066,
    "stationCode": 2652,
    "stopType": "MUNICIPAL_BUS",
    "shortStopName": null,
    "Position": {
      "stopLongitude": "72.586989",
      "stopLatitude": "23.024523"
    },
    "RouteCodes": null,
    "Sequence": 4,
    "routeFlow": null
  },
  {
    "stopName": "Fatasa Ni Pol",
    "stopCode": 4088,
    "stationCode": 2660,
    "stopType": "MUNICIPAL_BUS",
    "shortStopName": null,
    "Position": {
      "stopLongitude": "72.590171",
      "stopLatitude": "23.024698"
    },
    "RouteCodes": null,
    "Sequence": 5,
    "routeFlow": null
  },
  {
    "stopName": "Bala Hanuman(Khadiya)",
    "stopCode": 4089,
    "stationCode": 3036,
    "stopType": "MUNICIPAL_BUS",
    "shortStopName": null,
    "Position": {
      "stopLongitude": "72.590992",
      "stopLatitude": "23.024896"
    },
    "RouteCodes": null,
    "Sequence": 6,
    "routeFlow": null
  },
  {
    "stopName": "Khadiya Char Rasta",
    "stopCode": 4090,
    "stationCode": 3066,
    "stopType": "MUNICIPAL_BUS",
    "shortStopName": null,
    "Position": {
      "stopLongitude": "72.596188",
      "stopLatitude": "23.024874"
    },
    "RouteCodes": null,
    "Sequence": 7,
    "routeFlow": null
  },
  {
    "stopName": "Panchkuva",
    "stopCode": 4091,
    "stationCode": 5020,
    "stopType": "MUNICIPAL_BUS",
    "shortStopName": null,
    "Position": {
      "stopLongitude": "72.597568",
      "stopLatitude": "23.025312"
    },
    "RouteCodes": null,
    "Sequence": 8,
    "routeFlow": null
  },
  {
    "stopName": "Shaher Kotda",
    "stopCode": 4092,
    "stationCode": 5021,
    "stopType": "MUNICIPAL_BUS",
    "shortStopName": null,
    "Position": {
      "stopLongitude": "72.598991",
      "stopLatitude": "23.026296"
    },
    "RouteCodes": null,
    "Sequence": 9,
    "routeFlow": null
  }
]