[
  {
    "stopName": "Apna Bazar",
    "stopCode": 1076,
    "stationCode": 1150,
    "stopType": "MUNICIPAL_BUS",
    "shortStopName": null,
    "Position": {
      "stopLongitude": "72.580705",
      "stopLatitude": "23.025321"
    },
    "RouteCodes": null,
    "Sequence": 54,
    "routeFlow": "LINESTRING (72.57904 23.02452, 72.57904 23.02503, 72.57916 23.02504, 72.57974 23.02504, 72.58001 23.025, 72.58037 23.02497, 72.58054 23.02503, 72.58064 23.02513, 72.58063 23.02567, 72.58059 23.02624, 72.58064 23.02715, 72.58054 23.02724, 72.5804 23.02727, 72.5799 23.02726, 72.57888 23.0272, 72.57888 23.02719, 72.57778 23.02711, 72.57124 23.02658, 72.57112 23.02658, 72.57111 23.02667, 72.57103 23.02737, 72.57096 23.02782, 72.57084 23.02829, 72.57071 23.02865, 72.57071 23.02865, 72.57047 23.02939, 72.57045 23.02961, 72.57047 23.03028, 72.57049 23.03036, 72.57048 23.03039, 72.57044 23.03049, 72.57037 23.03063, 72.57029 23.0307, 72.57022 23.03075, 72.56999 23.03081, 72.56967 23.0309, 72.56937 23.03094, 72.56895 23.03099, 72.56849 23.03098, 72.56782 23.03082, 72.56719 23.03067, 72.56698 23.03065, 72.56699 23.03063, 72.56589 23.03058, 72.56576 23.03058, 72.56513 23.03066, 72.56452 23.03076, 72.56443 23.03079, 72.56429 23.0309, 72.56423 23.03099, 72.56418 23.031, 72.5641 23.03105, 72.56406 23.03115, 72.56406 23.03126, 72.56412 23.03132, 72.5641 23.03161, 72.56411 23.03169, 72.56408 23.03181, 72.56408 23.03181, 72.56399 23.03226, 72.56395 23.03292, 72.564 23.03361, 72.56405 23.03391, 72.56413 23.03421, 72.56423 23.03458, 72.56447 23.03515, 72.56438 23.03518, 72.56418 23.03525, 72.56337 23.03558, 72.56337 23.03558, 72.56031 23.03685, 72.56031 23.03685, 72.55934 23.03727, 72.55841 23.0377, 72.55791 23.03794, 72.55789 23.03795, 72.55689 23.03848, 72.55646 23.03865, 72.55596 23.03876, 72.555713 23.038794, 72.555584 23.038816, 72.55558 23.03882, 72.55511 23.03881, 72.55501 23.03879, 72.55494 23.03888, 72.55491 23.03898, 72.55489 23.03924, 72.55488 23.0394, 72.55479 23.03956, 72.55473 23.03959, 72.55469 23.03963, 72.55467 23.03967, 72.5545 23.03974, 72.55424 23.03991, 72.55377 23.04018, 72.55365 23.04026, 72.55284 23.04077, 72.55214 23.04116, 72.55178 23.04133, 72.55121 23.04157, 72.54963 23.04234, 72.54909 23.0426, 72.54865 23.04289, 72.54865 23.04289, 72.54737 23.04375, 72.54695 23.04401, 72.54674 23.04413, 72.5463 23.04432, 72.54601 23.04442, 72.54601 23.04442, 72.54587 23.04446, 72.54559 23.0445, 72.54498 23.04454, 72.54453 23.0446, 72.54361 23.04478, 72.54361 23.04478, 72.54259 23.04498, 72.54217 23.0451, 72.54153 23.04532, 72.54086 23.04562, 72.54067 23.04568, 72.54028 23.04573, 72.54025 23.04571, 72.54021 23.04571, 72.54014 23.04572, 72.54013 23.04573, 72.53974 23.04578, 72.53933 23.04579, 72.53933 23.04579, 72.53748 23.04581, 72.53684 23.04583, 72.53684 23.04583, 72.5361 23.04586, 72.53585 23.04586, 72.53347 23.04584, 72.53347 23.04584, 72.53348 23.04677, 72.5336 23.04919, 72.5336 23.04919, 72.53361 23.04961, 72.53361 23.0513, 72.53366 23.05231, 72.53365 23.05232, 72.53364 23.05233, 72.53362 23.05235, 72.53361 23.05237, 72.53362 23.05242, 72.53366 23.05246, 72.53367 23.05246, 72.5337 23.05286, 72.5337 23.05286, 72.53393 23.05626, 72.53393 23.05626, 72.53398 23.05683, 72.53404 23.05871, 72.53404 23.05871, 72.53406 23.0595, 72.53387 23.05955, 72.53334 23.05965, 72.53312 23.05974, 72.53259 23.06008, 72.53247 23.06015, 72.53247 23.06015, 72.53166 23.06062, 72.53081 23.06118, 72.53064 23.06089, 72.53064 23.06089, 72.52938 23.05874, 72.52938 23.05874, 72.5293 23.05858, 72.5293 23.05856, 72.52928 23.05851, 72.52924 23.05849, 72.52919 23.05849, 72.52915 23.05851, 72.52913 23.05855, 72.52914 23.0586, 72.52914 23.05861, 72.52696 23.05964, 72.52638 23.05993, 72.52638 23.05993, 72.52508 23.06053, 72.52437 23.06088, 72.52456 23.06124, 72.52469 23.06153, 72.52469 23.06153, 72.52546 23.06299, 72.52555 23.06329, 72.52558 23.06357, 72.52559 23.06393, 72.52601 23.06394, 72.52601 23.06394, 72.52922 23.06403, 72.52922 23.06403, 72.52985 23.06404, 72.53004 23.06407, 72.53016 23.06412, 72.53036 23.06427, 72.53046 23.06419, 72.53074 23.06405, 72.53093 23.06395, 72.53093 23.06395, 72.53136 23.06374, 72.5317 23.06355, 72.53259 23.06307, 72.53374 23.06242, 72.53374 23.06242, 72.53405 23.06219, 72.53419 23.06206, 72.53505 23.06111, 72.5356 23.06055, 72.53576 23.06037, 72.53605 23.05999, 72.53646 23.05942, 72.53662 23.05922, 72.53672 23.05916, 72.53672 23.05916, 72.53879 23.05799, 72.53924 23.05768, 72.5395 23.05748, 72.53995 23.05716, 72.54009 23.05709, 72.54031 23.05699, 72.54031 23.05699, 72.54082 23.05677, 72.54148 23.0565, 72.542 23.05624, 72.5428 23.05583, 72.5428 23.05583, 72.54415 23.0551, 72.54457 23.05488, 72.54486 23.05473, 72.5449 23.05479, 72.5449 23.05479, 72.54486 23.05473, 72.54506 23.05463, 72.54561 23.05433, 72.54659 23.0538, 72.54707 23.05356, 72.54868 23.05272, 72.54868 23.05272, 72.54931 23.05242, 72.54963 23.0523, 72.54964 23.0523, 72.54967 23.0523, 72.5497 23.05228, 72.54985 23.05216, 72.55011 23.05212, 72.55076 23.05208, 72.55101 23.05211, 72.55123 23.05211, 72.55142 23.05214, 72.55165 23.05216, 72.55165 23.05216, 72.5526 23.05215, 72.5533 23.05218, 72.55378 23.05221, 72.55378 23.05221, 72.55446 23.05225, 72.55481 23.05229, 72.55528 23.05231, 72.55555 23.05233, 72.55555 23.05233, 72.55625 23.05237, 72.55697 23.0524, 72.55774 23.0524, 72.55811 23.05237, 72.55872 23.05233, 72.55933 23.05233, 72.559328 23.05233, 72.55984 23.0524, 72.56032 23.05242, 72.56099 23.05236, 72.56136 23.05231, 72.56235 23.05221, 72.56281 23.05215, 72.56283 23.05214, 72.56283 23.05214, 72.56313 23.05203, 72.56342 23.05203, 72.56406 23.05212, 72.56425 23.05212, 72.56466 23.05206, 72.56522 23.05202, 72.56577 23.05194, 72.56579 23.05193, 72.56568 23.05142, 72.56567 23.05129, 72.56567 23.05129, 72.56566 23.05107, 72.56571 23.0507, 72.56589 23.05017, 72.56596 23.05004, 72.5661 23.04974, 72.5661 23.04974, 72.5663 23.04939, 72.56654 23.04903, 72.56695 23.0484, 72.56759 23.04756, 72.56822 23.04692, 72.56872 23.04695, 72.56885 23.04696, 72.56885 23.04696, 72.57012 23.04705, 72.57048 23.04705, 72.57055 23.04704, 72.57051 23.04698, 72.57033 23.04653, 72.57025 23.04612, 72.5702 23.04583, 72.57015 23.04523, 72.57015 23.04521, 72.57015 23.04521, 72.57004 23.04435, 72.56987 23.04341, 72.56987 23.04337, 72.56966 23.04209, 72.569593 23.041511, 72.569591 23.041518, 72.5695 23.04093, 72.56943 23.04037, 72.57049 23.04026, 72.57147 23.04023, 72.57286 23.04013, 72.57382 23.04005, 72.57564 23.03994, 72.5778 23.03976, 72.57814 23.0397, 72.57814 23.0397, 72.57986 23.03944, 72.58056 23.039375, 72.580547 23.039372, 72.5816 23.03927, 72.58184 23.03925, 72.5831 23.03909, 72.583573 23.039047, 72.58357 23.03901, 72.58385 23.03896, 72.58576 23.03853, 72.58576 23.03853, 72.5879 23.03803, 72.58808 23.038, 72.58807 23.03789, 72.58806 23.03772, 72.58791 23.03756, 72.58785 23.03722, 72.58774 23.03661, 72.58769 23.03634, 72.58761 23.03622, 72.58705 23.03579, 72.58685 23.03549, 72.58685 23.03549, 72.58664 23.03524, 72.58612 23.03473, 72.58572 23.03422, 72.58572 23.03422, 72.58501 23.0333, 72.58484 23.03303, 72.58461 23.03259, 72.58455 23.03248, 72.58455 23.03248, 72.58377 23.03091, 72.58357 23.03057, 72.58354 23.03052, 72.58349 23.03047, 72.58333 23.03038, 72.58313 23.03026, 72.58299 23.03014, 72.58299 23.03014, 72.58266 23.02982, 72.58244 23.02963, 72.58228 23.02936, 72.58218 23.02922, 72.58204 23.0291, 72.58177 23.02898, 72.58165 23.0289, 72.58159 23.02884, 72.58144 23.02827, 72.58144 23.02827, 72.58138 23.02789, 72.58136 23.02772, 72.58135 23.02737, 72.58136 23.02709, 72.5814 23.02643, 72.58107 23.0264, 72.58082 23.02643, 72.58059 23.02624, 72.58062 23.02571, 72.58064 23.02532, 72.58073 23.02532, 72.58063 23.02532, 72.58064 23.02513, 72.58067 23.02493, 72.58067 23.02476, 72.58066 23.02468, 72.58067 23.02463, 72.58068 23.02454, 72.58067 23.02445, 72.58059 23.02419, 72.58055 23.02411, 72.58047 23.02403, 72.58029 23.02389, 72.57971 23.02365, 72.57953 23.02355, 72.57944 23.02354, 72.57912 23.02353, 72.57912 23.02386, 72.5791 23.02408, 72.5791 23.02438, 72.57898 23.02438, 72.57898 23.02436)"
  },
  {
    "stopName": "Delhi Chakla",
    "stopCode": 1120,
    "stationCode": 1430,
    "stopType": "MUNICIPAL_BUS",
    "shortStopName": null,
    "Position": {
      "stopLongitude": "72.58691",
      "stopLatitude": "23.035448"
    },
    "RouteCodes": null,
    "Sequence": 49,
    "routeFlow": null
  },
  {
    "stopName": "Rentiyawadi",
    "stopCode": 1121,
    "stationCode": 2501,
    "stopType": "MUNICIPAL_BUS",
    "shortStopName": null,
    "Position": {
      "stopLongitude": "72.585791",
      "stopLatitude": "23.034176"
    },
    "RouteCodes": null,
    "Sequence": 50,
    "routeFlow": null
  },
  {
    "stopName": "Ahmedabad Gramya Jilla Nyayalay",
    "stopCode": 1122,
    "stationCode": 1077,
    "stopType": "MUNICIPAL_BUS",
    "shortStopName": null,
    "Position": {
      "stopLongitude": "72.584573",
      "stopLatitude": "23.032465"
    },
    "RouteCodes": null,
    "Sequence": 51,
    "routeFlow": null
  },
  {
    "stopName": "Jansatta Karyalay",
    "stopCode": 1123,
    "stationCode": 1761,
    "stopType": "MUNICIPAL_BUS",
    "shortStopName": null,
    "Position": {
      "stopLongitude": "72.583018",
      "stopLatitude": "23.030113"
    },
    "RouteCodes": null,
    "Sequence": 52,
    "routeFlow": null
  },
  {
    "stopName": "Dinbai Tower",
    "stopCode": 1124,
    "stationCode": 1463,
    "stopType": "MUNICIPAL_BUS",
    "shortStopName": null,
    "Position": {
      "stopLongitude": "72.581501",
      "stopLatitude": "23.02826"
    },
    "RouteCodes": null,
    "Sequence": 53,
    "routeFlow": null
  },
  {
    "stopName": "Sardarbag",
    "stopCode": 1127,
    "stationCode": 2611,
    "stopType": "MUNICIPAL_BUS",
    "shortStopName": null,
    "Position": {
      "stopLongitude": "72.578883",
      "stopLatitude": "23.027145"
    },
    "RouteCodes": null,
    "Sequence": 2,
    "routeFlow": null
  },
  {
    "stopName": "Shankar Bhuvan",
    "stopCode": 1153,
    "stationCode": 2696,
    "stopType": "MUNICIPAL_BUS",
    "shortStopName": null,
    "Position": {
      "stopLongitude": "72.578156",
      "stopLatitude": "23.039766"
    },
    "RouteCodes": null,
    "Sequence": 45,
    "routeFlow": null
  },
  {
    "stopName": "Shahpur Darwaja",
    "stopCode": 1154,
    "stationCode": 2683,
    "stopType": "MUNICIPAL_BUS",
    "shortStopName": null,
    "Position": {
      "stopLongitude": "72.580563",
      "stopLatitude": "23.039361"
    },
    "RouteCodes": null,
    "Sequence": 46,
    "routeFlow": null
  },
  {
    "stopName": "Halimni Khadki",
    "stopCode": 1155,
    "stationCode": 1646,
    "stopType": "MUNICIPAL_BUS",
    "shortStopName": null,
    "Position": {
      "stopLongitude": "72.583578",
      "stopLatitude": "23.039036"
    },
    "RouteCodes": null,
    "Sequence": 47,
    "routeFlow": null
  },
  {
    "stopName": "Delhi Darwaja (Rt.77 Stand)",
    "stopCode": 1156,
    "stationCode": 1432,
    "stopType": "MUNICIPAL_BUS",
    "shortStopName": null,
    "Position": {
      "stopLongitude": "72.585762",
      "stopLatitude": "23.038551"
    },
    "RouteCodes": null,
    "Sequence": 48,
    "routeFlow": null
  },
  {
    "stopName": "Navarangpura",
    "stopCode": 1214,
    "stationCode": 2189,
    "stopType": "MUNICIPAL_BUS",
    "shortStopName": null,
    "Position": {
      "stopLongitude": "72.563374",
      "stopLatitude": "23.035586"
    },
    "RouteCodes": null,
    "Sequence": 6,
    "routeFlow": null
  },
  {
    "stopName": "Swastik Society",
    "stopCode": 1215,
    "stationCode": 2903,
    "stopType": "MUNICIPAL_BUS",
    "shortStopName": null,
    "Position": {
      "stopLongitude": "72.560326",
      "stopLatitude": "23.036878"
    },
    "RouteCodes": null,
    "Sequence": 7,
    "routeFlow": null
  },
  {
    "stopName": "Commerce College Hostel",
    "stopCode": 1216,
    "stationCode": 1403,
    "stopType": "MUNICIPAL_BUS",
    "shortStopName": null,
    "Position": {
      "stopLongitude": "72.557906",
      "stopLatitude": "23.037986"
    },
    "RouteCodes": null,
    "Sequence": 8,
    "routeFlow": null
  },
  {
    "stopName": "Commerce College",
    "stopCode": 1217,
    "stationCode": 1402,
    "stopType": "MUNICIPAL_BUS",
    "shortStopName": null,
    "Position": {
      "stopLongitude": "72.555578",
      "stopLatitude": "23.038808"
    },
    "RouteCodes": null,
    "Sequence": 9,
    "routeFlow": null
  },
  {
    "stopName": "Gujarat Vidyapith",
    "stopCode": 2110,
    "stationCode": 1627,
    "stopType": "MUNICIPAL_BUS",
    "shortStopName": null,
    "Position": {
      "stopLongitude": "72.569903",
      "stopLatitude": "23.043365"
    },
    "RouteCodes": null,
    "Sequence": 43,
    "routeFlow": null
  },
  {
    "stopName": "Someshwar Park",
    "stopCode": 2143,
    "stationCode": 2824,
    "stopType": "MUNICIPAL_BUS",
    "shortStopName": null,
    "Position": {
      "stopLongitude": "72.526373",
      "stopLatitude": "23.059921"
    },
    "RouteCodes": null,
    "Sequence": 23,
    "routeFlow": null
  },
  {
    "stopName": "Nataraj Cinema",
    "stopCode": 2160,
    "stationCode": 2182,
    "stopType": "MUNICIPAL_BUS",
    "shortStopName": null,
    "Position": {
      "stopLongitude": "72.570706",
      "stopLatitude": "23.028653"
    },
    "RouteCodes": null,
    "Sequence": 3,
    "routeFlow": null
  },
  {
    "stopName": "Gulab Tower",
    "stopCode": 2240,
    "stationCode": 1631,
    "stopType": "MUNICIPAL_BUS",
    "shortStopName": null,
    "Position": {
      "stopLongitude": "72.526011",
      "stopLatitude": "23.06397"
    },
    "RouteCodes": null,
    "Sequence": 25,
    "routeFlow": null
  },
  {
    "stopName": "Nirman Tower (Sattadhar)",
    "stopCode": 2241,
    "stationCode": 2240,
    "stopType": "MUNICIPAL_BUS",
    "shortStopName": null,
    "Position": {
      "stopLongitude": "72.529215",
      "stopLatitude": "23.064086"
    },
    "RouteCodes": null,
    "Sequence": 26,
    "routeFlow": null
  },
  {
    "stopName": "Sarthak School (Sattadhar Cross Road)",
    "stopCode": 2242,
    "stationCode": 2638,
    "stopType": "MUNICIPAL_BUS",
    "shortStopName": null,
    "Position": {
      "stopLongitude": "72.53094",
      "stopLatitude": "23.063962"
    },
    "RouteCodes": null,
    "Sequence": 27,
    "routeFlow": null
  },
  {
    "stopName": "Income Tax Office",
    "stopCode": 2273,
    "stationCode": 1705,
    "stopType": "MUNICIPAL_BUS",
    "shortStopName": null,
    "Position": {
      "stopLongitude": "72.569608",
      "stopLatitude": "23.041513"
    },
    "RouteCodes": null,
    "Sequence": 44,
    "routeFlow": null
  },
  {
    "stopName": "Amikunj Society",
    "stopCode": 2677,
    "stationCode": 1117,
    "stopType": "MUNICIPAL_BUS",
    "shortStopName": null,
    "Position": {
      "stopLongitude": "72.555545",
      "stopLatitude": "23.052351"
    },
    "RouteCodes": null,
    "Sequence": 36,
    "routeFlow": null
  },
  {
    "stopName": "Naranpura Char Rasta",
    "stopCode": 2678,
    "stationCode": 2155,
    "stopType": "MUNICIPAL_BUS",
    "shortStopName": null,
    "Position": {
      "stopLongitude": "72.559328",
      "stopLatitude": "23.052342"
    },
    "RouteCodes": null,
    "Sequence": 37,
    "routeFlow": null
  },
  {
    "stopName": "Shrimali Society",
    "stopCode": 2822,
    "stationCode": 2750,
    "stopType": "MUNICIPAL_BUS",
    "shortStopName": null,
    "Position": {
      "stopLongitude": "72.564048",
      "stopLatitude": "23.031805"
    },
    "RouteCodes": null,
    "Sequence": 5,
    "routeFlow": null
  },
  {
    "stopName": "Devendra Society",
    "stopCode": 2858,
    "stationCode": 1444,
    "stopType": "MUNICIPAL_BUS",
    "shortStopName": null,
    "Position": {
      "stopLongitude": "72.553776",
      "stopLatitude": "23.052225"
    },
    "RouteCodes": null,
    "Sequence": 35,
    "routeFlow": null
  },
  {
    "stopName": "Gautamnagar (Naranpura Railway Crossing)",
    "stopCode": 2859,
    "stationCode": 1537,
    "stopType": "MUNICIPAL_BUS",
    "shortStopName": null,
    "Position": {
      "stopLongitude": "72.562876",
      "stopLatitude": "23.052206"
    },
    "RouteCodes": null,
    "Sequence": 38,
    "routeFlow": null
  },
  {
    "stopName": "Shriniketan Society",
    "stopCode": 2860,
    "stationCode": 2759,
    "stopType": "MUNICIPAL_BUS",
    "shortStopName": null,
    "Position": {
      "stopLongitude": "72.565692",
      "stopLatitude": "23.051288"
    },
    "RouteCodes": null,
    "Sequence": 39,
    "routeFlow": null
  },
  {
    "stopName": "Vidyanagar High School (Usmanpura)",
    "stopCode": 2862,
    "stationCode": 3040,
    "stopType": "MUNICIPAL_BUS",
    "shortStopName": null,
    "Position": {
      "stopLongitude": "72.568854",
      "stopLatitude": "23.046938"
    },
    "RouteCodes": null,
    "Sequence": 41,
    "routeFlow": null
  },
  {
    "stopName": "Usmanpura",
    "stopCode": 2863,
    "stationCode": 2975,
    "stopType": "MUNICIPAL_BUS",
    "shortStopName": null,
    "Position": {
      "stopLongitude": "72.570203",
      "stopLatitude": "23.045203"
    },
    "RouteCodes": null,
    "Sequence": 42,
    "routeFlow": null
  },
  {
    "stopName": "Panchshil Society",
    "stopCode": 2890,
    "stationCode": 2293,
    "stopType": "MUNICIPAL_BUS",
    "shortStopName": null,
    "Position": {
      "stopLongitude": "72.566093",
      "stopLatitude": "23.049738"
    },
    "RouteCodes": null,
    "Sequence": 40,
    "routeFlow": null
  },
  {
    "stopName": "Sarvodaynagar",
    "stopCode": 2915,
    "stationCode": 2645,
    "stopType": "MUNICIPAL_BUS",
    "shortStopName": null,
    "Position": {
      "stopLongitude": "72.533773",
      "stopLatitude": "23.06246"
    },
    "RouteCodes": null,
    "Sequence": 28,
    "routeFlow": null
  },
  {
    "stopName": "Bhuyangdev Society",
    "stopCode": 2916,
    "stationCode": 1307,
    "stopType": "MUNICIPAL_BUS",
    "shortStopName": null,
    "Position": {
      "stopLongitude": "72.536758",
      "stopLatitude": "23.059213"
    },
    "RouteCodes": null,
    "Sequence": 29,
    "routeFlow": null
  },
  {
    "stopName": "Sola Housing Complex",
    "stopCode": 2917,
    "stationCode": 2820,
    "stopType": "MUNICIPAL_BUS",
    "shortStopName": null,
    "Position": {
      "stopLongitude": "72.540328",
      "stopLatitude": "23.057043"
    },
    "RouteCodes": null,
    "Sequence": 30,
    "routeFlow": null
  },
  {
    "stopName": "Akashganga",
    "stopCode": 2918,
    "stationCode": 1089,
    "stopType": "MUNICIPAL_BUS",
    "shortStopName": null,
    "Position": {
      "stopLongitude": "72.542823",
      "stopLatitude": "23.05587"
    },
    "RouteCodes": null,
    "Sequence": 31,
    "routeFlow": null
  },
  {
    "stopName": "Paras Nagar",
    "stopCode": 2919,
    "stationCode": 2305,
    "stopType": "MUNICIPAL_BUS",
    "shortStopName": null,
    "Position": {
      "stopLongitude": "72.544858",
      "stopLatitude": "23.054808"
    },
    "RouteCodes": null,
    "Sequence": 32,
    "routeFlow": null
  },
  {
    "stopName": "A.E.C Zonal Office",
    "stopCode": 2920,
    "stationCode": 1076,
    "stopType": "MUNICIPAL_BUS",
    "shortStopName": null,
    "Position": {
      "stopLongitude": "72.54869",
      "stopLatitude": "23.05274"
    },
    "RouteCodes": null,
    "Sequence": 33,
    "routeFlow": null
  },
  {
    "stopName": "Naranpura",
    "stopCode": 2921,
    "stationCode": 2154,
    "stopType": "MUNICIPAL_BUS",
    "shortStopName": null,
    "Position": {
      "stopLongitude": "72.551648",
      "stopLatitude": "23.052195"
    },
    "RouteCodes": null,
    "Sequence": 34,
    "routeFlow": null
  },
  {
    "stopName": "Gurukul",
    "stopCode": 2988,
    "stationCode": 1640,
    "stopType": "MUNICIPAL_BUS",
    "shortStopName": null,
    "Position": {
      "stopLongitude": "72.533436",
      "stopLatitude": "23.04582"
    },
    "RouteCodes": null,
    "Sequence": 15,
    "routeFlow": null
  },
  {
    "stopName": "Nand Apartment",
    "stopCode": 3025,
    "stationCode": 2146,
    "stopType": "MUNICIPAL_BUS",
    "shortStopName": null,
    "Position": {
      "stopLongitude": "72.53358",
      "stopLatitude": "23.049191"
    },
    "RouteCodes": null,
    "Sequence": 16,
    "routeFlow": null
  },
  {
    "stopName": "Mithakhali",
    "stopCode": 3378,
    "stationCode": 2088,
    "stopType": "MUNICIPAL_BUS",
    "shortStopName": null,
    "Position": {
      "stopLongitude": "72.566981",
      "stopLatitude": "23.030655"
    },
    "RouteCodes": null,
    "Sequence": 4,
    "routeFlow": null
  },
  {
    "stopName": "Manav Mandir",
    "stopCode": 3379,
    "stationCode": 2023,
    "stopType": "MUNICIPAL_BUS",
    "shortStopName": null,
    "Position": {
      "stopLongitude": "72.53933",
      "stopLatitude": "23.045785"
    },
    "RouteCodes": null,
    "Sequence": 13,
    "routeFlow": null
  },
  {
    "stopName": "Niranjan Society",
    "stopCode": 3380,
    "stationCode": 2231,
    "stopType": "MUNICIPAL_BUS",
    "shortStopName": null,
    "Position": {
      "stopLongitude": "72.536835",
      "stopLatitude": "23.045826"
    },
    "RouteCodes": null,
    "Sequence": 14,
    "routeFlow": null
  },
  {
    "stopName": "Suchita Apartment (Vijay Char Rasta)",
    "stopCode": 3839,
    "stationCode": 2852,
    "stopType": "MUNICIPAL_BUS",
    "shortStopName": null,
    "Position": {
      "stopLongitude": "72.548675",
      "stopLatitude": "23.042893"
    },
    "RouteCodes": null,
    "Sequence": 10,
    "routeFlow": null
  },
  {
    "stopName": "Saurabh Society",
    "stopCode": 3840,
    "stationCode": 2661,
    "stopType": "MUNICIPAL_BUS",
    "shortStopName": null,
    "Position": {
      "stopLongitude": "72.546",
      "stopLatitude": "23.044386"
    },
    "RouteCodes": null,
    "Sequence": 11,
    "routeFlow": null
  },
  {
    "stopName": "Kailasnagar",
    "stopCode": 3841,
    "stationCode": 1823,
    "stopType": "MUNICIPAL_BUS",
    "shortStopName": null,
    "Position": {
      "stopLongitude": "72.54361",
      "stopLatitude": "23.044763"
    },
    "RouteCodes": null,
    "Sequence": 12,
    "routeFlow": null
  },
  {
    "stopName": "Sun And Step Club",
    "stopCode": 3978,
    "stationCode": 2866,
    "stopType": "MUNICIPAL_BUS",
    "shortStopName": null,
    "Position": {
      "stopLongitude": "72.530676",
      "stopLatitude": "23.060875"
    },
    "RouteCodes": null,
    "Sequence": 21,
    "routeFlow": null
  },
  {
    "stopName": "New Nikita Park",
    "stopCode": 3980,
    "stationCode": 2211,
    "stopType": "MUNICIPAL_BUS",
    "shortStopName": null,
    "Position": {
      "stopLongitude": "72.529403",
      "stopLatitude": "23.058726"
    },
    "RouteCodes": null,
    "Sequence": 22,
    "routeFlow": null
  },
  {
    "stopName": "Maruti Complex (Subhash Chowk)",
    "stopCode": 4411,
    "stationCode": 2059,
    "stopType": "MUNICIPAL_BUS",
    "shortStopName": null,
    "Position": {
      "stopLongitude": "72.533711",
      "stopLatitude": "23.052855"
    },
    "RouteCodes": null,
    "Sequence": 17,
    "routeFlow": null
  },
  {
    "stopName": "Vishramnagar",
    "stopCode": 4412,
    "stationCode": 3065,
    "stopType": "MUNICIPAL_BUS",
    "shortStopName": null,
    "Position": {
      "stopLongitude": "72.533951",
      "stopLatitude": "23.056263"
    },
    "RouteCodes": null,
    "Sequence": 18,
    "routeFlow": null
  },
  {
    "stopName": "Income Tax Society",
    "stopCode": 4413,
    "stationCode": 1706,
    "stopType": "MUNICIPAL_BUS",
    "shortStopName": null,
    "Position": {
      "stopLongitude": "72.534038",
      "stopLatitude": "23.058712"
    },
    "RouteCodes": null,
    "Sequence": 19,
    "routeFlow": null
  },
  {
    "stopName": "Vaibhav Bunglows",
    "stopCode": 4414,
    "stationCode": 2989,
    "stopType": "MUNICIPAL_BUS",
    "shortStopName": null,
    "Position": {
      "stopLongitude": "72.532453",
      "stopLatitude": "23.060131"
    },
    "RouteCodes": null,
    "Sequence": 20,
    "routeFlow": null
  },
  {
    "stopName": "Shilpi Residency",
    "stopCode": 4666,
    "stationCode": 2717,
    "stopType": "MUNICIPAL_BUS",
    "shortStopName": null,
    "Position": {
      "stopLongitude": "72.52465",
      "stopLatitude": "23.061543"
    },
    "RouteCodes": null,
    "Sequence": 24,
    "routeFlow": null
  },
  {
    "stopName": "Lal Darwaja",
    "stopCode": 5978,
    "stationCode": 1961,
    "stopType": "MUNICIPAL_BUS",
    "shortStopName": null,
    "Position": {
      "stopLongitude": "72.578956",
      "stopLatitude": "23.024518"
    },
    "RouteCodes": null,
    "Sequence": 1,
    "routeFlow": null
  },
  {
    "stopName": "Lal Darwaja",
    "stopCode": 8431,
    "stationCode": 1961,
    "stopType": "MUNICIPAL_BUS",
    "shortStopName": null,
    "Position": {
      "stopLongitude": "72.578948",
      "stopLatitude": "23.02443"
    },
    "RouteCodes": null,
    "Sequence": 55,
    "routeFlow": null
  }
]