[
  {
    "stopName": "Gandhigram Railway Station",
    "stopCode": 1128,
    "stationCode": 1522,
    "stopType": "MUNICIPAL_BUS",
    "shortStopName": null,
    "Position": {
      "stopLongitude": "72.571413",
      "stopLatitude": "23.025308"
    },
    "RouteCodes": null,
    "Sequence": 28,
    "routeFlow": "LINESTRING (72.58101 23.12288, 72.58225 23.12239, 72.58248 23.12231, 72.58266 23.12221, 72.58264 23.12213, 72.5824 23.12098, 72.58233 23.12056, 72.58222 23.11996, 72.58218 23.1196, 72.58218 23.1196, 72.58217 23.11921, 72.58219 23.11852, 72.58222 23.11821, 72.58228 23.11788, 72.58239 23.11755, 72.58271 23.11665, 72.58281 23.11628, 72.58282 23.11626, 72.58313 23.11519, 72.58375 23.1131, 72.58409 23.11207, 72.58427 23.11146, 72.58441 23.111, 72.58441 23.111, 72.58471 23.11002, 72.58498 23.10918, 72.58521 23.10837, 72.58572 23.10681, 72.58572 23.10681, 72.58648 23.10435, 72.58678 23.10346, 72.58678 23.10346, 72.58717 23.10217, 72.58789 23.09992, 72.58818 23.09898, 72.58818 23.09898, 72.58827 23.09869, 72.5884 23.09836, 72.58842 23.09835, 72.58847 23.09825, 72.58848 23.09814, 72.58846 23.0981, 72.58946 23.09487, 72.58965 23.09418, 72.58965 23.09418, 72.59018 23.09225, 72.59042 23.09123, 72.59075 23.0901, 72.59093 23.0895, 72.59093 23.0895, 72.59116 23.08868, 72.59175 23.08673, 72.59177 23.08668, 72.59193 23.08672, 72.592 23.08649, 72.592 23.08649, 72.59268 23.0844, 72.59268 23.0844, 72.593 23.08346, 72.59283 23.08345, 72.59324 23.08216, 72.59366 23.08094, 72.59366 23.08094, 72.59384 23.08053, 72.59417 23.07998, 72.59457 23.0794, 72.59528 23.07835, 72.59539 23.07812, 72.59544 23.07786, 72.59544 23.07766, 72.59559 23.07766, 72.59554 23.07748, 72.59538 23.07718, 72.59482 23.07636, 72.59441 23.07587, 72.59441 23.07587, 72.5932 23.07434, 72.59262 23.07362, 72.59248 23.07371, 72.59223 23.07345, 72.59209 23.07335, 72.59161 23.07278, 72.59023 23.07109, 72.5897 23.0704, 72.58944 23.07008, 72.58925 23.06992, 72.58915 23.06986, 72.58886 23.06976, 72.58768 23.06948, 72.58702 23.06934, 72.5868 23.06933, 72.58577 23.06937, 72.58502 23.0694, 72.5843 23.06931, 72.58289 23.06908, 72.58247 23.06901, 72.58236 23.06896, 72.58226 23.06891, 72.58214 23.06877, 72.58199 23.06858, 72.58198 23.06855, 72.58198 23.0685, 72.58196 23.06843, 72.58192 23.06837, 72.58185 23.06833, 72.58177 23.0683, 72.58169 23.0683, 72.58155 23.06836, 72.58151 23.06839, 72.58105 23.06843, 72.5802 23.06827, 72.5802 23.06827, 72.57796 23.06775, 72.57748 23.06763, 72.57696 23.06758, 72.57621 23.06756, 72.57541 23.06756, 72.57541 23.06756, 72.57503 23.06756, 72.57501 23.06761, 72.57498 23.06773, 72.57639 23.06777, 72.5765 23.06776, 72.57649 23.06771, 72.57649 23.06758, 72.57647 23.06736, 72.5764 23.06709, 72.57632 23.06693, 72.57613 23.06661, 72.57593 23.06637, 72.57557 23.06606, 72.57536 23.06591, 72.57494 23.06559, 72.57478 23.06541, 72.57474 23.06536, 72.57528 23.06491, 72.57585 23.06442, 72.57606 23.06421, 72.57615 23.06406, 72.57649 23.06332, 72.57697 23.06225, 72.57711 23.06195, 72.57721 23.06179, 72.57743 23.06145, 72.57819 23.06029, 72.57859 23.05968, 72.57873 23.05953, 72.57893 23.0594, 72.57916 23.05922, 72.57846 23.05862, 72.578464 23.058613, 72.57588 23.05645, 72.57572 23.05637, 72.5753 23.05624, 72.57482 23.05616, 72.57414 23.05608, 72.57319 23.05598, 72.57263 23.05593, 72.57249 23.05588, 72.57205 23.05564, 72.57202 23.0556, 72.57194 23.05554, 72.571934 23.055509, 72.571926 23.05545, 72.57187 23.05546, 72.57171 23.05515, 72.57167 23.05496, 72.57158 23.05392, 72.57146 23.0523, 72.57133 23.05054, 72.57133 23.05054, 72.57125 23.04946, 72.57117 23.04882, 72.57111 23.04821, 72.57104 23.04794, 72.57099 23.04781, 72.57074 23.04736, 72.57051 23.04698, 72.57033 23.04653, 72.57025 23.04612, 72.5702 23.04583, 72.57015 23.04523, 72.57015 23.04521, 72.57015 23.04521, 72.57004 23.04435, 72.56987 23.04341, 72.56987 23.04337, 72.56966 23.04209, 72.56941 23.04023, 72.5693 23.03947, 72.56937 23.03946, 72.56916 23.03802, 72.56905 23.03738, 72.56905 23.03738, 72.56897 23.0372, 72.56893 23.03685, 72.56892 23.03642, 72.56895 23.03584, 72.56908 23.03515, 72.56913 23.03498, 72.56963 23.03386, 72.56963 23.03386, 72.57013 23.03271, 72.57013 23.03271, 72.5705 23.03191, 72.57065 23.03153, 72.57069 23.03134, 72.57071 23.03107, 72.57066 23.03074, 72.57059 23.03014, 72.57057 23.02986, 72.57057 23.02986, 72.57056 23.02966, 72.57057 23.02946, 72.57083 23.02868, 72.57083 23.02868, 72.57102 23.02809, 72.57111 23.02766, 72.57116 23.02732, 72.57124 23.02658, 72.57131 23.02556, 72.57133 23.0253, 72.57133 23.0253, 72.57139 23.02444, 72.5714 23.02408, 72.5714 23.02408, 72.57143 23.02345, 72.57142 23.02262, 72.57143 23.02212, 72.57136 23.02179, 72.571324 23.021689, 72.571354 23.021715, 72.57129 23.02161, 72.57116 23.02143, 72.57076 23.02102, 72.57052 23.02083, 72.56962 23.01968, 72.56892 23.01886, 72.56875 23.01867, 72.56875 23.01867, 72.56798 23.01776, 72.56798 23.01776, 72.56786 23.01762, 72.56775 23.01742, 72.56716 23.0167, 72.56716 23.0167, 72.56693 23.01642, 72.56618 23.01557, 72.5656 23.01486, 72.56503 23.01412, 72.56452 23.0134, 72.56452 23.0134, 72.56373 23.01227, 72.56337 23.01164, 72.56337 23.01164, 72.56243 23.00972, 72.56228 23.00939, 72.56218 23.00924, 72.56203 23.00913, 72.56169 23.00892, 72.56169 23.00892, 72.5604 23.00819, 72.56012 23.00803, 72.55981 23.00791, 72.55942 23.00779, 72.55942 23.00779, 72.55857 23.00753, 72.55823 23.00741, 72.55799 23.00728, 72.55776 23.00714, 72.55741 23.00686, 72.55741 23.00686, 72.55685 23.00632, 72.55663 23.00611, 72.55648 23.006, 72.55636 23.00594, 72.5553 23.00551, 72.55476 23.00525, 72.55494 23.00523, 72.55492 23.00526, 72.55443 23.00504, 72.55414 23.00489, 72.55378 23.00469, 72.55313 23.00427, 72.55264 23.00394, 72.55238 23.00373, 72.55216 23.00355, 72.55202 23.00338, 72.55182 23.00314, 72.55185 23.00312, 72.55181 23.00314, 72.5517 23.00301, 72.55145 23.00277, 72.55115 23.00254, 72.55101 23.00246, 72.55053 23.00229, 72.55018 23.00222, 72.54993 23.0022, 72.54966 23.00215, 72.54888 23.00199, 72.54807 23.00186, 72.54778 23.00178, 72.54771 23.00174, 72.54763 23.0019, 72.54746 23.00209, 72.54742 23.00214)"
  },
  {
    "stopName": "Sanyas Ashram",
    "stopCode": 1129,
    "stationCode": 2588,
    "stopType": "MUNICIPAL_BUS",
    "shortStopName": null,
    "Position": {
      "stopLongitude": "72.571466",
      "stopLatitude": "23.02408"
    },
    "RouteCodes": null,
    "Sequence": 29,
    "routeFlow": null
  },
  {
    "stopName": "V.S. Hospital",
    "stopCode": 1130,
    "stationCode": 2977,
    "stopType": "MUNICIPAL_BUS",
    "shortStopName": null,
    "Position": {
      "stopLongitude": "72.571373",
      "stopLatitude": "23.021679"
    },
    "RouteCodes": null,
    "Sequence": 30,
    "routeFlow": null
  },
  {
    "stopName": "Arvind Sales Emporium",
    "stopCode": 1131,
    "stationCode": 1167,
    "stopType": "MUNICIPAL_BUS",
    "shortStopName": null,
    "Position": {
      "stopLongitude": "72.568068",
      "stopLatitude": "23.017701"
    },
    "RouteCodes": null,
    "Sequence": 32,
    "routeFlow": null
  },
  {
    "stopName": "Pritamnagar",
    "stopCode": 1132,
    "stationCode": 2389,
    "stopType": "MUNICIPAL_BUS",
    "shortStopName": null,
    "Position": {
      "stopLongitude": "72.567213",
      "stopLatitude": "23.016665"
    },
    "RouteCodes": null,
    "Sequence": 33,
    "routeFlow": null
  },
  {
    "stopName": "Income Tax Office",
    "stopCode": 1212,
    "stationCode": 1705,
    "stopType": "MUNICIPAL_BUS",
    "shortStopName": null,
    "Position": {
      "stopLongitude": "72.569438",
      "stopLatitude": "23.039451"
    },
    "RouteCodes": null,
    "Sequence": 22,
    "routeFlow": null
  },
  {
    "stopName": "Paldi",
    "stopCode": 1346,
    "stationCode": 2284,
    "stopType": "MUNICIPAL_BUS",
    "shortStopName": null,
    "Position": {
      "stopLongitude": "72.564498",
      "stopLatitude": "23.01341"
    },
    "RouteCodes": null,
    "Sequence": 34,
    "routeFlow": null
  },
  {
    "stopName": "Mahalakshmi Society",
    "stopCode": 1347,
    "stationCode": 2000,
    "stopType": "MUNICIPAL_BUS",
    "shortStopName": null,
    "Position": {
      "stopLongitude": "72.563405",
      "stopLatitude": "23.011623"
    },
    "RouteCodes": null,
    "Sequence": 35,
    "routeFlow": null
  },
  {
    "stopName": "Jain Merchant Society",
    "stopCode": 1348,
    "stationCode": 1743,
    "stopType": "MUNICIPAL_BUS",
    "shortStopName": null,
    "Position": {
      "stopLongitude": "72.5617",
      "stopLatitude": "23.008901"
    },
    "RouteCodes": null,
    "Sequence": 36,
    "routeFlow": null
  },
  {
    "stopName": "Fatehnagar",
    "stopCode": 1349,
    "stationCode": 1496,
    "stopType": "MUNICIPAL_BUS",
    "shortStopName": null,
    "Position": {
      "stopLongitude": "72.559421",
      "stopLatitude": "23.007781"
    },
    "RouteCodes": null,
    "Sequence": 37,
    "routeFlow": null
  },
  {
    "stopName": "Anandnagar",
    "stopCode": 1350,
    "stationCode": 1129,
    "stopType": "MUNICIPAL_BUS",
    "shortStopName": null,
    "Position": {
      "stopLongitude": "72.55749",
      "stopLatitude": "23.006791"
    },
    "RouteCodes": null,
    "Sequence": 38,
    "routeFlow": null
  },
  {
    "stopName": "Bhaththa (Vasna)",
    "stopCode": 1351,
    "stationCode": 1288,
    "stopType": "MUNICIPAL_BUS",
    "shortStopName": null,
    "Position": {
      "stopLongitude": "72.554771",
      "stopLatitude": "23.005235"
    },
    "RouteCodes": null,
    "Sequence": 39,
    "routeFlow": null
  },
  {
    "stopName": "Jawaharnagar",
    "stopCode": 1352,
    "stationCode": 1771,
    "stopType": "MUNICIPAL_BUS",
    "shortStopName": null,
    "Position": {
      "stopLongitude": "72.551836",
      "stopLatitude": "23.003118"
    },
    "RouteCodes": null,
    "Sequence": 40,
    "routeFlow": null
  },
  {
    "stopName": "Mount Carmel School",
    "stopCode": 1353,
    "stationCode": 2102,
    "stopType": "MUNICIPAL_BUS",
    "shortStopName": null,
    "Position": {
      "stopLongitude": "72.569705",
      "stopLatitude": "23.03389"
    },
    "RouteCodes": null,
    "Sequence": 24,
    "routeFlow": null
  },
  {
    "stopName": "Vasna",
    "stopCode": 1598,
    "stationCode": 3019,
    "stopType": "MUNICIPAL_BUS",
    "shortStopName": null,
    "Position": {
      "stopLongitude": "72.547439",
      "stopLatitude": "23.002146"
    },
    "RouteCodes": null,
    "Sequence": 41,
    "routeFlow": null
  },
  {
    "stopName": "Chandkheda Gam",
    "stopCode": 1652,
    "stationCode": 1359,
    "stopType": "MUNICIPAL_BUS",
    "shortStopName": null,
    "Position": {
      "stopLongitude": "72.582871",
      "stopLatitude": "23.116276"
    },
    "RouteCodes": null,
    "Sequence": 3,
    "routeFlow": null
  },
  {
    "stopName": "Congress Bhavan",
    "stopCode": 1724,
    "stationCode": 1405,
    "stopType": "MUNICIPAL_BUS",
    "shortStopName": null,
    "Position": {
      "stopLongitude": "72.568766",
      "stopLatitude": "23.018655"
    },
    "RouteCodes": null,
    "Sequence": 31,
    "routeFlow": null
  },
  {
    "stopName": "Vadaj",
    "stopCode": 2107,
    "stationCode": 2978,
    "stopType": "MUNICIPAL_BUS",
    "shortStopName": null,
    "Position": {
      "stopLongitude": "72.571935",
      "stopLatitude": "23.055433"
    },
    "RouteCodes": null,
    "Sequence": 18,
    "routeFlow": null
  },
  {
    "stopName": "Champaner Society",
    "stopCode": 2108,
    "stationCode": 1348,
    "stopType": "MUNICIPAL_BUS",
    "shortStopName": null,
    "Position": {
      "stopLongitude": "72.571363",
      "stopLatitude": "23.050541"
    },
    "RouteCodes": null,
    "Sequence": 19,
    "routeFlow": null
  },
  {
    "stopName": "Gujarat Vidyapith",
    "stopCode": 2110,
    "stationCode": 1627,
    "stopType": "MUNICIPAL_BUS",
    "shortStopName": null,
    "Position": {
      "stopLongitude": "72.569903",
      "stopLatitude": "23.043365"
    },
    "RouteCodes": null,
    "Sequence": 21,
    "routeFlow": null
  },
  {
    "stopName": "Chandkheda (Sarthi Bunglows)",
    "stopCode": 2194,
    "stationCode": 1357,
    "stopType": "MUNICIPAL_BUS",
    "shortStopName": null,
    "Position": {
      "stopLongitude": "72.581004",
      "stopLatitude": "23.122871"
    },
    "RouteCodes": null,
    "Sequence": 1,
    "routeFlow": null
  },
  {
    "stopName": "Satyamev Hospital",
    "stopCode": 2196,
    "stationCode": 2657,
    "stopType": "MUNICIPAL_BUS",
    "shortStopName": null,
    "Position": {
      "stopLongitude": "72.582214",
      "stopLatitude": "23.119593"
    },
    "RouteCodes": null,
    "Sequence": 2,
    "routeFlow": null
  },
  {
    "stopName": "Shivshakti Nagar (Chandkheda)",
    "stopCode": 2197,
    "stationCode": 2730,
    "stopType": "MUNICIPAL_BUS",
    "shortStopName": null,
    "Position": {
      "stopLongitude": "72.584431",
      "stopLatitude": "23.111006"
    },
    "RouteCodes": null,
    "Sequence": 4,
    "routeFlow": null
  },
  {
    "stopName": "Parshwanathnagar",
    "stopCode": 2198,
    "stationCode": 2317,
    "stopType": "MUNICIPAL_BUS",
    "shortStopName": null,
    "Position": {
      "stopLongitude": "72.58577",
      "stopLatitude": "23.106823"
    },
    "RouteCodes": null,
    "Sequence": 5,
    "routeFlow": null
  },
  {
    "stopName": "O.N.G.C. Office",
    "stopCode": 2199,
    "stationCode": 2253,
    "stopType": "MUNICIPAL_BUS",
    "shortStopName": null,
    "Position": {
      "stopLongitude": "72.586788",
      "stopLatitude": "23.103461"
    },
    "RouteCodes": null,
    "Sequence": 6,
    "routeFlow": null
  },
  {
    "stopName": "Motera Road",
    "stopCode": 2200,
    "stationCode": 2098,
    "stopType": "MUNICIPAL_BUS",
    "shortStopName": null,
    "Position": {
      "stopLongitude": "72.588221",
      "stopLatitude": "23.098986"
    },
    "RouteCodes": null,
    "Sequence": 7,
    "routeFlow": null
  },
  {
    "stopName": "Lakshminagar",
    "stopCode": 2201,
    "stationCode": 1954,
    "stopType": "MUNICIPAL_BUS",
    "shortStopName": null,
    "Position": {
      "stopLongitude": "72.589661",
      "stopLatitude": "23.094185"
    },
    "RouteCodes": null,
    "Sequence": 8,
    "routeFlow": null
  },
  {
    "stopName": "Acher Depot",
    "stopCode": 2202,
    "stationCode": 1061,
    "stopType": "MUNICIPAL_BUS",
    "shortStopName": null,
    "Position": {
      "stopLongitude": "72.590976",
      "stopLatitude": "23.089508"
    },
    "RouteCodes": null,
    "Sequence": 9,
    "routeFlow": null
  },
  {
    "stopName": "Abu-Koba Cross Road",
    "stopCode": 2203,
    "stationCode": 1059,
    "stopType": "MUNICIPAL_BUS",
    "shortStopName": null,
    "Position": {
      "stopLongitude": "72.592",
      "stopLatitude": "23.086486"
    },
    "RouteCodes": null,
    "Sequence": 10,
    "routeFlow": null
  },
  {
    "stopName": "Chandrabhaga Bridge",
    "stopCode": 2218,
    "stationCode": 1364,
    "stopType": "MUNICIPAL_BUS",
    "shortStopName": null,
    "Position": {
      "stopLongitude": "72.578482",
      "stopLatitude": "23.058589"
    },
    "RouteCodes": null,
    "Sequence": 17,
    "routeFlow": null
  },
  {
    "stopName": "Mill Owners Association",
    "stopCode": 2219,
    "stationCode": 2082,
    "stopType": "MUNICIPAL_BUS",
    "shortStopName": null,
    "Position": {
      "stopLongitude": "72.570153",
      "stopLatitude": "23.032718"
    },
    "RouteCodes": null,
    "Sequence": 25,
    "routeFlow": null
  },
  {
    "stopName": "Vallabhsadan",
    "stopCode": 2220,
    "stationCode": 3005,
    "stopType": "MUNICIPAL_BUS",
    "shortStopName": null,
    "Position": {
      "stopLongitude": "72.570603",
      "stopLatitude": "23.029853"
    },
    "RouteCodes": null,
    "Sequence": 26,
    "routeFlow": null
  },
  {
    "stopName": "Nataraj Cinema",
    "stopCode": 2221,
    "stationCode": 2182,
    "stopType": "MUNICIPAL_BUS",
    "shortStopName": null,
    "Position": {
      "stopLongitude": "72.570805",
      "stopLatitude": "23.028671"
    },
    "RouteCodes": null,
    "Sequence": 27,
    "routeFlow": null
  },
  {
    "stopName": "Chintamani Society",
    "stopCode": 2420,
    "stationCode": 1387,
    "stopType": "MUNICIPAL_BUS",
    "shortStopName": null,
    "Position": {
      "stopLongitude": "72.592704",
      "stopLatitude": "23.084407"
    },
    "RouteCodes": null,
    "Sequence": 11,
    "routeFlow": null
  },
  {
    "stopName": "Usmanpura",
    "stopCode": 2863,
    "stationCode": 2975,
    "stopType": "MUNICIPAL_BUS",
    "shortStopName": null,
    "Position": {
      "stopLongitude": "72.570203",
      "stopLatitude": "23.045203"
    },
    "RouteCodes": null,
    "Sequence": 20,
    "routeFlow": null
  },
  {
    "stopName": "Power House",
    "stopCode": 4760,
    "stationCode": 2353,
    "stopType": "MUNICIPAL_BUS",
    "shortStopName": null,
    "Position": {
      "stopLongitude": "72.592575",
      "stopLatitude": "23.07365"
    },
    "RouteCodes": null,
    "Sequence": 14,
    "routeFlow": null
  },
  {
    "stopName": "Power House Staff Quarters",
    "stopCode": 5407,
    "stationCode": 2354,
    "stopType": "MUNICIPAL_BUS",
    "shortStopName": null,
    "Position": {
      "stopLongitude": "72.594408",
      "stopLatitude": "23.075866"
    },
    "RouteCodes": null,
    "Sequence": 13,
    "routeFlow": null
  },
  {
    "stopName": "Municipal Snanagar (Sabarmati)",
    "stopCode": 5572,
    "stationCode": 2128,
    "stopType": "MUNICIPAL_BUS",
    "shortStopName": null,
    "Position": {
      "stopLongitude": "72.593701",
      "stopLatitude": "23.080956"
    },
    "RouteCodes": null,
    "Sequence": 12,
    "routeFlow": null
  },
  {
    "stopName": "Metro Station",
    "stopCode": 5975,
    "stationCode": 6545,
    "stopType": "MUNICIPAL_BUS",
    "shortStopName": null,
    "Position": {
      "stopLongitude": "72.569022",
      "stopLatitude": "23.037376"
    },
    "RouteCodes": null,
    "Sequence": 23,
    "routeFlow": null
  },
  {
    "stopName": "RTO Circle",
    "stopCode": 8336,
    "stationCode": 7273,
    "stopType": "MUNICIPAL_BUS",
    "shortStopName": null,
    "Position": {
      "stopLongitude": "72.580204",
      "stopLatitude": "23.068251"
    },
    "RouteCodes": null,
    "Sequence": 15,
    "routeFlow": null
  },
  {
    "stopName": "Ranip ST Bus Stand",
    "stopCode": 8519,
    "stationCode": 6041,
    "stopType": "MUNICIPAL_BUS",
    "shortStopName": null,
    "Position": {
      "stopLongitude": "72.575408",
      "stopLatitude": "23.067582"
    },
    "RouteCodes": null,
    "Sequence": 16,
    "routeFlow": null
  }
]