[
  {
    "stopName": "Kumbhanath Society",
    "stopCode": 1325,
    "stationCode": 1935,
    "stopType": "MUNICIPAL_BUS",
    "shortStopName": null,
    "Position": {
      "stopLongitude": "72.611146",
      "stopLatitude": "22.98943"
    },
    "RouteCodes": null,
    "Sequence": 32,
    "routeFlow": "LINESTRING (72.64875 22.93646, 72.64839 22.93722, 72.64817 22.93774, 72.64795 22.93826, 72.64793 22.9384, 72.64802 22.93842, 72.64878 22.93869, 72.64895 22.93876, 72.64895 22.93876, 72.6491 22.93882, 72.64915 22.93887, 72.64917 22.93894, 72.64915 22.93907, 72.64909 22.93923, 72.64907 22.93936, 72.64907 22.93947, 72.64911 22.9397, 72.64916 22.93999, 72.64917 22.94038, 72.64912 22.94063, 72.64905 22.94081, 72.64892 22.94104, 72.6488 22.94122, 72.64857 22.94141, 72.64819 22.9417, 72.64776 22.94198, 72.64753 22.94216, 72.64738 22.94233, 72.64722 22.94257, 72.64714 22.94277, 72.64692 22.94305, 72.64666 22.94329, 72.64644 22.94345, 72.64586 22.94379, 72.64575 22.94386, 72.64575 22.94386, 72.64561 22.94396, 72.64538 22.94424, 72.6453 22.94434, 72.64601 22.94475, 72.64726 22.94551, 72.64782 22.94587, 72.64796 22.946, 72.64813 22.94618, 72.64861 22.94677, 72.64896 22.94721, 72.64975 22.94828, 72.65014 22.94882, 72.65014 22.94882, 72.65354 22.95351, 72.65354 22.95351, 72.65606 22.957, 72.65615 22.95716, 72.65619 22.95728, 72.65629 22.95752, 72.65629 22.95761, 72.65631 22.95764, 72.65631 22.95766, 72.65613 22.95801, 72.65595 22.95817, 72.65576 22.95836, 72.65576 22.95836, 72.65524 22.95889, 72.65438 22.9597, 72.65316 22.96092, 72.6518 22.96228, 72.6518 22.96228, 72.64823 22.96585, 72.64819 22.96586, 72.64675 22.96726, 72.64675 22.96726, 72.64596 22.96804, 72.64543 22.96857, 72.64397 22.97003, 72.64276 22.97124, 72.64236 22.97165, 72.64238 22.97167, 72.63983 22.97424, 72.63983 22.97424, 72.63853 22.97551, 72.6373 22.97677, 72.63708 22.97698, 72.63708 22.97698, 72.63434 22.9797, 72.63346 22.98056, 72.63323 22.98033, 72.63322 22.98032, 72.63319 22.98028, 72.63281 22.97994, 72.63206 22.97942, 72.63187 22.97929, 72.63116 22.97885, 72.63103 22.97881, 72.62989 22.978, 72.62986 22.97794, 72.62983 22.97776, 72.62986 22.9776, 72.63037 22.97637, 72.63083 22.97528, 72.63083 22.97528, 72.63151 22.9738, 72.63151 22.9738, 72.63392 22.96873, 72.63392 22.96873, 72.63473 22.9671, 72.63501 22.96645, 72.63519 22.96595, 72.63537 22.96551, 72.63595 22.96443, 72.63617 22.96405, 72.63617 22.96405, 72.63633 22.96371, 72.63622 22.96369, 72.63622 22.96372, 72.63554 22.96359, 72.63484 22.96341, 72.63349 22.96313, 72.63258 22.96295, 72.63196 22.96283, 72.63171 22.9628, 72.63139 22.96276, 72.63133 22.96269, 72.63129 22.96267, 72.63022 22.96244, 72.62884 22.96217, 72.62872 22.96213, 72.62862 22.96213, 72.62816 22.96204, 72.62779 22.96195, 72.62779 22.96194, 72.62784 22.96195, 72.62784 22.96194, 72.62771 22.96191, 72.62813 22.96095, 72.62829 22.96069, 72.62844 22.96034, 72.62886 22.95938, 72.62909 22.95887, 72.62909 22.95887, 72.62844 22.96034, 72.62829 22.96069, 72.62813 22.96095, 72.628 22.96124, 72.62771 22.96191, 72.62783 22.96193, 72.62784 22.96194, 72.6278 22.96194, 72.62779 22.96195, 72.62784 22.96197, 72.62841 22.9621, 72.62862 22.96213, 72.62872 22.96213, 72.63022 22.96244, 72.63129 22.96267, 72.63133 22.96269, 72.63139 22.96276, 72.63159 22.96279, 72.63155 22.96285, 72.63148 22.96298, 72.63142 22.96312, 72.63139 22.9631, 72.63043 22.96515, 72.63043 22.96515, 72.62979 22.96653, 72.62949 22.96719, 72.62878 22.9688, 72.62878 22.9688, 72.62752 22.97151, 72.62732 22.97179, 72.62706 22.97206, 72.62706 22.97206, 72.62683 22.97227, 72.62635 22.97293, 72.62561 22.97409, 72.62524 22.97464, 72.62524 22.97464, 72.62507 22.9749, 72.62484 22.97511, 72.62407 22.97576, 72.62365 22.97613, 72.62365 22.97613, 72.62348 22.97629, 72.62296 22.9767, 72.62257 22.97688, 72.62222 22.97711, 72.62215 22.97715, 72.62215 22.97715, 72.62174 22.9774, 72.62158 22.97742, 72.62107 22.97731, 72.62091 22.97729, 72.6208 22.97732, 72.62072 22.97751, 72.62044 22.97817, 72.62044 22.97817, 72.62028 22.97859, 72.62018 22.97875, 72.62009 22.97886, 72.61983 22.97904, 72.61907 22.97965, 72.61894 22.97973, 72.61894 22.97973, 72.61744 22.98067, 72.6171 22.98088, 72.61664 22.98117, 72.61594 22.98168, 72.61545 22.98208, 72.61545 22.98208, 72.6145 22.98289, 72.61408 22.98327, 72.6136 22.98376, 72.61323 22.98417, 72.61315 22.98423, 72.61275 22.98439, 72.61231 22.98464, 72.61222 22.98472, 72.61217 22.98477, 72.61211 22.98487, 72.61211 22.98487, 72.61201 22.98506, 72.6119 22.98532, 72.61168 22.98594, 72.6115 22.98641, 72.61141 22.98649, 72.61125 22.98647, 72.61133 22.98668, 72.61128 22.98679, 72.61126 22.9869, 72.61128 22.98728, 72.61128 22.98728, 72.61131 22.98759, 72.61124 22.9877, 72.61123 22.98771, 72.61121 22.98772, 72.6112 22.98776, 72.61121 22.9878, 72.6111 22.98798, 72.61101 22.98809, 72.61086 22.98821, 72.61089 22.9883, 72.61095 22.98859, 72.61101 22.98883, 72.61112 22.98921, 72.61113 22.98943, 72.61114 22.98945, 72.61118 22.99, 72.61125 22.99036, 72.61162 22.99154, 72.61163 22.99157, 72.61029 22.99217, 72.60981 22.99243, 72.60931 22.99273, 72.60931 22.99273, 72.60903 22.99288, 72.6087 22.993, 72.60826 22.99322, 72.60795 22.99342, 72.60773 22.99358, 72.60764 22.99368, 72.6073 22.99389, 72.60735 22.99401, 72.60735 22.99401, 72.60756 22.99445, 72.60767 22.99476, 72.60777 22.9951, 72.6078 22.99519, 72.60789 22.99519, 72.60789 22.99519, 72.61016 22.99513, 72.61028 22.99512, 72.61028 22.99512, 72.61045 22.9951, 72.61111 22.99497, 72.61141 22.99494, 72.61212 22.99495, 72.61212 22.99495, 72.612843 22.994893, 72.61258 22.99551, 72.61218 22.99639, 72.61184 22.99713, 72.6117 22.99708, 72.61145 22.99754, 72.61145 22.99754, 72.61107 22.99827, 72.61015 22.9978, 72.6094 22.99752, 72.60906 22.99742, 72.60851 22.99729, 72.60816 22.99723, 72.6077 22.99718, 72.60729 22.99717, 72.60729 22.99716, 72.60597 22.99717, 72.60529 22.99721, 72.60466 22.99725, 72.60405 22.99742, 72.60372 22.99752, 72.60372 22.99747, 72.60372 22.99747, 72.60372 22.99752, 72.60353 22.9976, 72.60306 22.99783, 72.60274 22.99794, 72.60227 22.99821, 72.6019 22.99845, 72.60162 22.99866, 72.60162 22.99866, 72.60122 22.99907, 72.60084 22.99948, 72.60068 22.9997, 72.60048 23.00004, 72.60023 23.00048, 72.60023 23.00048, 72.59977 23.00127, 72.59946 23.00184, 72.59938 23.00202, 72.59917 23.00251, 72.59908 23.00261, 72.59833 23.00288, 72.5982 23.00296, 72.59811 23.00308, 72.59802 23.00326, 72.59802 23.00326, 72.59791 23.00355, 72.59726 23.00341, 72.59684 23.0033, 72.59639 23.00319, 72.59639 23.00319, 72.59536 23.00291, 72.59395 23.00259, 72.59395 23.00259, 72.5934 23.00247, 72.59258 23.00225, 72.59153 23.00202, 72.59153 23.00202, 72.58998 23.0017, 72.58998 23.0017, 72.58957 23.0016, 72.58945 23.00157, 72.58943 23.00164, 72.58943 23.00169, 72.5895 23.00237, 72.58963 23.00295, 72.58975 23.00332, 72.58987 23.00365, 72.58987 23.00365, 72.59005 23.00414, 72.59073 23.00586, 72.59073 23.00586, 72.59109 23.00682, 72.5914 23.00762, 72.59143 23.00775, 72.59149 23.00804, 72.59156 23.0093, 72.59156 23.0093, 72.59156 23.01009, 72.59155 23.01049, 72.59144 23.01135, 72.5913 23.01324, 72.5913 23.01324, 72.59129 23.01346, 72.59136 23.01363, 72.59132 23.01392, 72.5905 23.01331, 72.59013 23.01311, 72.58976 23.01292, 72.58925 23.01271, 72.5885 23.01246, 72.5885 23.01246, 72.58809 23.01232, 72.58733 23.01207, 72.58474 23.01122, 72.58474 23.01122, 72.58311 23.01069, 72.58125 23.0101, 72.58101 23.01006, 72.5808 23.01005, 72.58041 23.01008, 72.57959 23.01024, 72.57797 23.01061, 72.57782 23.01064, 72.57782 23.01064, 72.57655 23.01085, 72.57603 23.01094, 72.5723 23.01157, 72.57115 23.01178, 72.56926 23.01231, 72.56926 23.01231, 72.56889 23.0124, 72.56813 23.01267, 72.56776 23.01282, 72.5662 23.01347, 72.56582 23.01367, 72.56503 23.01412, 72.56452 23.0134, 72.56452 23.0134, 72.56373 23.01227, 72.56337 23.01164, 72.56337 23.01164, 72.56243 23.00972, 72.56228 23.00939, 72.56218 23.00924, 72.56203 23.00913, 72.56169 23.00892, 72.56169 23.00892, 72.5604 23.00819, 72.56012 23.00803, 72.55981 23.00791, 72.55942 23.00779, 72.55942 23.00779, 72.55857 23.00753, 72.55823 23.00741, 72.55799 23.00728, 72.55776 23.00714, 72.55741 23.00686, 72.55741 23.00686, 72.55685 23.00632, 72.55663 23.00611, 72.55648 23.006, 72.55636 23.00594, 72.5553 23.00551, 72.55476 23.00525, 72.55494 23.00523, 72.55492 23.00526, 72.55443 23.00504, 72.55414 23.00489, 72.55378 23.00469, 72.55313 23.00427, 72.55264 23.00394, 72.55238 23.00373, 72.55216 23.00355, 72.55202 23.00338, 72.55182 23.00314, 72.55185 23.00312, 72.55181 23.00314, 72.5517 23.00301, 72.55145 23.00277, 72.55115 23.00254, 72.55101 23.00246, 72.55053 23.00229, 72.55018 23.00222, 72.54993 23.0022, 72.54966 23.00215, 72.54888 23.00199, 72.54807 23.00186, 72.54778 23.00178, 72.54771 23.00174, 72.54763 23.0019, 72.54746 23.00209, 72.5474 23.00216, 72.5474 23.00216, 72.54737 23.0022, 72.54688 23.0027, 72.54681 23.00281, 72.54674 23.0029, 72.54667 23.003, 72.54662 23.00311, 72.54652 23.00319, 72.54585 23.00439, 72.54559 23.00492, 72.54539 23.00531, 72.5452 23.00571, 72.54516 23.00588, 72.54493 23.00637, 72.54488 23.00635, 72.54459 23.00699, 72.54428 23.0076, 72.54416 23.00789, 72.54416 23.00789, 72.54359 23.00934, 72.54315 23.00918, 72.54315 23.00918, 72.54235 23.00889, 72.54189 23.00871, 72.54145 23.00848, 72.54095 23.00826, 72.5406 23.00811, 72.54 23.00791, 72.53916 23.0077, 72.53916 23.0077, 72.53669 23.0071, 72.5354 23.0068, 72.53518 23.00675, 72.53518 23.00675, 72.53439 23.00657, 72.53335 23.00645, 72.53315 23.0064, 72.53301 23.00638, 72.53298 23.00646, 72.53283 23.00676, 72.53283 23.00676, 72.5326 23.00718, 72.53227 23.00788, 72.53175 23.00915, 72.53167 23.00936, 72.53157 23.00989, 72.53144 23.0107, 72.53139 23.01093, 72.5311 23.01182, 72.53081 23.01273, 72.53071 23.01307, 72.53066 23.01334, 72.53063 23.01362, 72.53063 23.01362, 72.53056 23.01428, 72.53052 23.01457, 72.53029 23.01454, 72.52949 23.01436, 72.52949 23.01436, 72.52788 23.01395, 72.52696 23.01377, 72.52696 23.01375, 72.52605 23.0135, 72.52605 23.0135, 72.52586 23.01344, 72.5249 23.01332, 72.52432 23.01326, 72.52356 23.0132, 72.52295 23.01316, 72.52295 23.01314, 72.52029 23.01294, 72.51916 23.01286, 72.51916 23.01286, 72.51729 23.01272, 72.51573 23.01264, 72.5153 23.01263, 72.5153 23.01263, 72.51404 23.01256, 72.51362 23.01252, 72.51358 23.01252, 72.51358 23.01252, 72.51343 23.01251, 72.51285 23.01239, 72.5115 23.01212, 72.51074 23.01199, 72.50994 23.01196, 72.50994 23.01196, 72.50937 23.01194, 72.50888 23.0119, 72.50678 23.01183, 72.5064 23.01183, 72.5064 23.01183, 72.5041 23.01174, 72.5041 23.01176, 72.50272 23.01169, 72.50246 23.01172, 72.50347 23.01499, 72.50405 23.01681, 72.50405 23.01681, 72.50534 23.02093, 72.50534 23.02093, 72.50575 23.0223, 72.50572 23.02239, 72.50571 23.02246, 72.50577 23.02269, 72.50602 23.02345, 72.50617 23.02393, 72.50617 23.02393, 72.50681 23.02596)"
  },
  {
    "stopName": "Aradhana Society",
    "stopCode": 1326,
    "stationCode": 1153,
    "stopType": "MUNICIPAL_BUS",
    "shortStopName": null,
    "Position": {
      "stopLongitude": "72.61225",
      "stopLatitude": "22.991355"
    },
    "RouteCodes": null,
    "Sequence": 33,
    "routeFlow": null
  },
  {
    "stopName": "Maninagar",
    "stopCode": 1329,
    "stationCode": 2042,
    "stopType": "MUNICIPAL_BUS",
    "shortStopName": null,
    "Position": {
      "stopLongitude": "72.611516",
      "stopLatitude": "22.997571"
    },
    "RouteCodes": null,
    "Sequence": 39,
    "routeFlow": null
  },
  {
    "stopName": "Calico Colony",
    "stopCode": 1344,
    "stationCode": 1331,
    "stopType": "MUNICIPAL_BUS",
    "shortStopName": null,
    "Position": {
      "stopLongitude": "72.577815",
      "stopLatitude": "23.010635"
    },
    "RouteCodes": null,
    "Sequence": 55,
    "routeFlow": null
  },
  {
    "stopName": "Museum (Sanskar Kendra)",
    "stopCode": 1345,
    "stationCode": 2132,
    "stopType": "MUNICIPAL_BUS",
    "shortStopName": null,
    "Position": {
      "stopLongitude": "72.569244",
      "stopLatitude": "23.012228"
    },
    "RouteCodes": null,
    "Sequence": 56,
    "routeFlow": null
  },
  {
    "stopName": "Paldi",
    "stopCode": 1346,
    "stationCode": 2284,
    "stopType": "MUNICIPAL_BUS",
    "shortStopName": null,
    "Position": {
      "stopLongitude": "72.564498",
      "stopLatitude": "23.01341"
    },
    "RouteCodes": null,
    "Sequence": 57,
    "routeFlow": null
  },
  {
    "stopName": "Mahalakshmi Society",
    "stopCode": 1347,
    "stationCode": 2000,
    "stopType": "MUNICIPAL_BUS",
    "shortStopName": null,
    "Position": {
      "stopLongitude": "72.563405",
      "stopLatitude": "23.011623"
    },
    "RouteCodes": null,
    "Sequence": 58,
    "routeFlow": null
  },
  {
    "stopName": "Jain Merchant Society",
    "stopCode": 1348,
    "stationCode": 1743,
    "stopType": "MUNICIPAL_BUS",
    "shortStopName": null,
    "Position": {
      "stopLongitude": "72.5617",
      "stopLatitude": "23.008901"
    },
    "RouteCodes": null,
    "Sequence": 59,
    "routeFlow": null
  },
  {
    "stopName": "Fatehnagar",
    "stopCode": 1349,
    "stationCode": 1496,
    "stopType": "MUNICIPAL_BUS",
    "shortStopName": null,
    "Position": {
      "stopLongitude": "72.559421",
      "stopLatitude": "23.007781"
    },
    "RouteCodes": null,
    "Sequence": 60,
    "routeFlow": null
  },
  {
    "stopName": "Anandnagar",
    "stopCode": 1350,
    "stationCode": 1129,
    "stopType": "MUNICIPAL_BUS",
    "shortStopName": null,
    "Position": {
      "stopLongitude": "72.55749",
      "stopLatitude": "23.006791"
    },
    "RouteCodes": null,
    "Sequence": 61,
    "routeFlow": null
  },
  {
    "stopName": "Bhaththa (Vasna)",
    "stopCode": 1351,
    "stationCode": 1288,
    "stopType": "MUNICIPAL_BUS",
    "shortStopName": null,
    "Position": {
      "stopLongitude": "72.554771",
      "stopLatitude": "23.005235"
    },
    "RouteCodes": null,
    "Sequence": 62,
    "routeFlow": null
  },
  {
    "stopName": "Jawaharnagar",
    "stopCode": 1352,
    "stationCode": 1771,
    "stopType": "MUNICIPAL_BUS",
    "shortStopName": null,
    "Position": {
      "stopLongitude": "72.551836",
      "stopLatitude": "23.003118"
    },
    "RouteCodes": null,
    "Sequence": 63,
    "routeFlow": null
  },
  {
    "stopName": "Keshariyajinagar Society",
    "stopCode": 1354,
    "stationCode": 1874,
    "stopType": "MUNICIPAL_BUS",
    "shortStopName": null,
    "Position": {
      "stopLongitude": "72.544839",
      "stopLatitude": "23.006336"
    },
    "RouteCodes": null,
    "Sequence": 65,
    "routeFlow": null
  },
  {
    "stopName": "Lavanya Society",
    "stopCode": 1355,
    "stationCode": 1966,
    "stopType": "MUNICIPAL_BUS",
    "shortStopName": null,
    "Position": {
      "stopLongitude": "72.544105",
      "stopLatitude": "23.00787"
    },
    "RouteCodes": null,
    "Sequence": 66,
    "routeFlow": null
  },
  {
    "stopName": "Dr.Jivraj Mehta Hospital",
    "stopCode": 1356,
    "stationCode": 1472,
    "stopType": "MUNICIPAL_BUS",
    "shortStopName": null,
    "Position": {
      "stopLongitude": "72.543168",
      "stopLatitude": "23.00915"
    },
    "RouteCodes": null,
    "Sequence": 67,
    "routeFlow": null
  },
  {
    "stopName": "Malav Talav",
    "stopCode": 1357,
    "stationCode": 2021,
    "stopType": "MUNICIPAL_BUS",
    "shortStopName": null,
    "Position": {
      "stopLongitude": "72.539176",
      "stopLatitude": "23.007658"
    },
    "RouteCodes": null,
    "Sequence": 68,
    "routeFlow": null
  },
  {
    "stopName": "Jivraj Park",
    "stopCode": 1401,
    "stationCode": 1791,
    "stopType": "MUNICIPAL_BUS",
    "shortStopName": null,
    "Position": {
      "stopLongitude": "72.532816",
      "stopLatitude": "23.006755"
    },
    "RouteCodes": null,
    "Sequence": 70,
    "routeFlow": null
  },
  {
    "stopName": "Karnavati Club (Chimanbhai Patel Inst.)",
    "stopCode": 1607,
    "stationCode": 1385,
    "stopType": "MUNICIPAL_BUS",
    "shortStopName": null,
    "Position": {
      "stopLongitude": "72.50403",
      "stopLatitude": "23.016815"
    },
    "RouteCodes": null,
    "Sequence": 82,
    "routeFlow": null
  },
  {
    "stopName": "Karnavati Club",
    "stopCode": 1608,
    "stationCode": 1023,
    "stopType": "MUNICIPAL_BUS",
    "shortStopName": null,
    "Position": {
      "stopLongitude": "72.505335",
      "stopLatitude": "23.02093"
    },
    "RouteCodes": null,
    "Sequence": 83,
    "routeFlow": null
  },
  {
    "stopName": "Wide Angle",
    "stopCode": 1609,
    "stationCode": 3088,
    "stopType": "MUNICIPAL_BUS",
    "shortStopName": null,
    "Position": {
      "stopLongitude": "72.506171",
      "stopLatitude": "23.023935"
    },
    "RouteCodes": null,
    "Sequence": 84,
    "routeFlow": null
  },
  {
    "stopName": "Municipal Chal (S.T.)",
    "stopCode": 1850,
    "stationCode": 2117,
    "stopType": "MUNICIPAL_BUS",
    "shortStopName": null,
    "Position": {
      "stopLongitude": "72.588491",
      "stopLatitude": "23.012478"
    },
    "RouteCodes": null,
    "Sequence": 53,
    "routeFlow": null
  },
  {
    "stopName": "Municipal_bus Staff Quarters",
    "stopCode": 1851,
    "stationCode": 1121,
    "stopType": "MUNICIPAL_BUS",
    "shortStopName": null,
    "Position": {
      "stopLongitude": "72.584753",
      "stopLatitude": "23.011188"
    },
    "RouteCodes": null,
    "Sequence": 54,
    "routeFlow": null
  },
  {
    "stopName": "Shyamal Cross",
    "stopCode": 2022,
    "stationCode": 2782,
    "stopType": "MUNICIPAL_BUS",
    "shortStopName": null,
    "Position": {
      "stopLongitude": "72.530608",
      "stopLatitude": "23.01362"
    },
    "RouteCodes": null,
    "Sequence": 71,
    "routeFlow": null
  },
  {
    "stopName": "Krushna bag",
    "stopCode": 2145,
    "stationCode": 1924,
    "stopType": "MUNICIPAL_BUS",
    "shortStopName": null,
    "Position": {
      "stopLongitude": "72.603748",
      "stopLatitude": "22.997472"
    },
    "RouteCodes": null,
    "Sequence": 41,
    "routeFlow": null
  },
  {
    "stopName": "Rambag",
    "stopCode": 2146,
    "stationCode": 2464,
    "stopType": "MUNICIPAL_BUS",
    "shortStopName": null,
    "Position": {
      "stopLongitude": "72.601631",
      "stopLatitude": "22.998668"
    },
    "RouteCodes": null,
    "Sequence": 42,
    "routeFlow": null
  },
  {
    "stopName": "Shelat Bhuvan",
    "stopCode": 2147,
    "stationCode": 2712,
    "stopType": "MUNICIPAL_BUS",
    "shortStopName": null,
    "Position": {
      "stopLongitude": "72.600238",
      "stopLatitude": "23.000483"
    },
    "RouteCodes": null,
    "Sequence": 43,
    "routeFlow": null
  },
  {
    "stopName": "Pushpakunj-Shukladada Chowk",
    "stopCode": 2148,
    "stationCode": 2400,
    "stopType": "MUNICIPAL_BUS",
    "shortStopName": null,
    "Position": {
      "stopLongitude": "72.598013",
      "stopLatitude": "23.003255"
    },
    "RouteCodes": null,
    "Sequence": 44,
    "routeFlow": null
  },
  {
    "stopName": "Gordhanwadi",
    "stopCode": 2149,
    "stationCode": 1587,
    "stopType": "MUNICIPAL_BUS",
    "shortStopName": null,
    "Position": {
      "stopLongitude": "72.596388",
      "stopLatitude": "23.003195"
    },
    "RouteCodes": null,
    "Sequence": 45,
    "routeFlow": null
  },
  {
    "stopName": "Amrakunj",
    "stopCode": 2150,
    "stationCode": 1120,
    "stopType": "MUNICIPAL_BUS",
    "shortStopName": null,
    "Position": {
      "stopLongitude": "72.593941",
      "stopLatitude": "23.002616"
    },
    "RouteCodes": null,
    "Sequence": 46,
    "routeFlow": null
  },
  {
    "stopName": "Shahalam Tollnaka",
    "stopCode": 2152,
    "stationCode": 2679,
    "stopType": "MUNICIPAL_BUS",
    "shortStopName": null,
    "Position": {
      "stopLongitude": "72.589975",
      "stopLatitude": "23.001698"
    },
    "RouteCodes": null,
    "Sequence": 48,
    "routeFlow": null
  },
  {
    "stopName": "Mangal Park",
    "stopCode": 2153,
    "stationCode": 2031,
    "stopType": "MUNICIPAL_BUS",
    "shortStopName": null,
    "Position": {
      "stopLongitude": "72.589883",
      "stopLatitude": "23.003648"
    },
    "RouteCodes": null,
    "Sequence": 49,
    "routeFlow": null
  },
  {
    "stopName": "Bhulabhai Park",
    "stopCode": 2154,
    "stationCode": 1302,
    "stopType": "MUNICIPAL_BUS",
    "shortStopName": null,
    "Position": {
      "stopLongitude": "72.590783",
      "stopLatitude": "23.005848"
    },
    "RouteCodes": null,
    "Sequence": 50,
    "routeFlow": null
  },
  {
    "stopName": "Majur Gam",
    "stopCode": 2155,
    "stationCode": 2016,
    "stopType": "MUNICIPAL_BUS",
    "shortStopName": null,
    "Position": {
      "stopLongitude": "72.591615",
      "stopLatitude": "23.009293"
    },
    "RouteCodes": null,
    "Sequence": 51,
    "routeFlow": null
  },
  {
    "stopName": "Gnanada Society",
    "stopCode": 2607,
    "stationCode": 1558,
    "stopType": "MUNICIPAL_BUS",
    "shortStopName": null,
    "Position": {
      "stopLongitude": "72.53518",
      "stopLatitude": "23.00676"
    },
    "RouteCodes": null,
    "Sequence": 69,
    "routeFlow": null
  },
  {
    "stopName": "Swaminarayan Mandir (Maninagar)",
    "stopCode": 2874,
    "stationCode": 2891,
    "stopType": "MUNICIPAL_BUS",
    "shortStopName": null,
    "Position": {
      "stopLongitude": "72.610278",
      "stopLatitude": "22.995146"
    },
    "RouteCodes": null,
    "Sequence": 37,
    "routeFlow": null
  },
  {
    "stopName": "Maninagar Railway Crossing",
    "stopCode": 2875,
    "stationCode": 2044,
    "stopType": "MUNICIPAL_BUS",
    "shortStopName": null,
    "Position": {
      "stopLongitude": "72.612096",
      "stopLatitude": "22.99495"
    },
    "RouteCodes": null,
    "Sequence": 38,
    "routeFlow": null
  },
  {
    "stopName": "Hanumanji Mandir",
    "stopCode": 3145,
    "stationCode": 5049,
    "stopType": "MUNICIPAL_BUS",
    "shortStopName": null,
    "Position": {
      "stopLongitude": "72.651786",
      "stopLatitude": "22.96227"
    },
    "RouteCodes": null,
    "Sequence": 7,
    "routeFlow": null
  },
  {
    "stopName": "Klockner - Windsor",
    "stopCode": 3146,
    "stationCode": 1901,
    "stopType": "MUNICIPAL_BUS",
    "shortStopName": null,
    "Position": {
      "stopLongitude": "72.648185",
      "stopLatitude": "22.96585"
    },
    "RouteCodes": null,
    "Sequence": 8,
    "routeFlow": null
  },
  {
    "stopName": "Vatva Patiya",
    "stopCode": 3147,
    "stationCode": 3027,
    "stopType": "MUNICIPAL_BUS",
    "shortStopName": null,
    "Position": {
      "stopLongitude": "72.64671",
      "stopLatitude": "22.967224"
    },
    "RouteCodes": null,
    "Sequence": 9,
    "routeFlow": null
  },
  {
    "stopName": "P.R. Enterprise",
    "stopCode": 3148,
    "stationCode": 2274,
    "stopType": "MUNICIPAL_BUS",
    "shortStopName": null,
    "Position": {
      "stopLongitude": "72.642366",
      "stopLatitude": "22.971651"
    },
    "RouteCodes": null,
    "Sequence": 10,
    "routeFlow": null
  },
  {
    "stopName": "Nika Tubes",
    "stopCode": 3149,
    "stationCode": 2219,
    "stopType": "MUNICIPAL_BUS",
    "shortStopName": null,
    "Position": {
      "stopLongitude": "72.639806",
      "stopLatitude": "22.97422"
    },
    "RouteCodes": null,
    "Sequence": 11,
    "routeFlow": null
  },
  {
    "stopName": "Nirma",
    "stopCode": 3150,
    "stationCode": 2236,
    "stopType": "MUNICIPAL_BUS",
    "shortStopName": null,
    "Position": {
      "stopLongitude": "72.637055",
      "stopLatitude": "22.976953"
    },
    "RouteCodes": null,
    "Sequence": 12,
    "routeFlow": null
  },
  {
    "stopName": "Ghodasar Gam",
    "stopCode": 3168,
    "stationCode": 1548,
    "stopType": "MUNICIPAL_BUS",
    "shortStopName": null,
    "Position": {
      "stopLongitude": "72.612091",
      "stopLatitude": "22.984863"
    },
    "RouteCodes": null,
    "Sequence": 30,
    "routeFlow": null
  },
  {
    "stopName": "Ashapuri Society (Avkar Hall)",
    "stopCode": 3169,
    "stationCode": 1174,
    "stopType": "MUNICIPAL_BUS",
    "shortStopName": null,
    "Position": {
      "stopLongitude": "72.611276",
      "stopLatitude": "22.987276"
    },
    "RouteCodes": null,
    "Sequence": 31,
    "routeFlow": null
  },
  {
    "stopName": "Vasna",
    "stopCode": 3713,
    "stationCode": 3019,
    "stopType": "MUNICIPAL_BUS",
    "shortStopName": null,
    "Position": {
      "stopLongitude": "72.547383",
      "stopLatitude": "23.002142"
    },
    "RouteCodes": null,
    "Sequence": 64,
    "routeFlow": null
  },
  {
    "stopName": "Vinobabhavenagar",
    "stopCode": 3886,
    "stationCode": 3053,
    "stopType": "MUNICIPAL_BUS",
    "shortStopName": null,
    "Position": {
      "stopLongitude": "72.648735",
      "stopLatitude": "22.936458"
    },
    "RouteCodes": null,
    "Sequence": 1,
    "routeFlow": null
  },
  {
    "stopName": "Vinobabhavenagar (Pravesh)",
    "stopCode": 3887,
    "stationCode": 3054,
    "stopType": "MUNICIPAL_BUS",
    "shortStopName": null,
    "Position": {
      "stopLongitude": "72.64893",
      "stopLatitude": "22.938811"
    },
    "RouteCodes": null,
    "Sequence": 2,
    "routeFlow": null
  },
  {
    "stopName": "Saraswati Vidyalay",
    "stopCode": 3888,
    "stationCode": 2598,
    "stopType": "MUNICIPAL_BUS",
    "shortStopName": null,
    "Position": {
      "stopLongitude": "72.645763",
      "stopLatitude": "22.943883"
    },
    "RouteCodes": null,
    "Sequence": 3,
    "routeFlow": null
  },
  {
    "stopName": "Ayojannagar Approach",
    "stopCode": 3889,
    "stationCode": 1205,
    "stopType": "MUNICIPAL_BUS",
    "shortStopName": null,
    "Position": {
      "stopLongitude": "72.65012",
      "stopLatitude": "22.948836"
    },
    "RouteCodes": null,
    "Sequence": 4,
    "routeFlow": null
  },
  {
    "stopName": "Radheshyam Colony",
    "stopCode": 3890,
    "stationCode": 5081,
    "stopType": "MUNICIPAL_BUS",
    "shortStopName": null,
    "Position": {
      "stopLongitude": "72.653531",
      "stopLatitude": "22.95352"
    },
    "RouteCodes": null,
    "Sequence": 5,
    "routeFlow": null
  },
  {
    "stopName": "Vinzol Approach",
    "stopCode": 3891,
    "stationCode": 3055,
    "stopType": "MUNICIPAL_BUS",
    "shortStopName": null,
    "Position": {
      "stopLongitude": "72.655751",
      "stopLatitude": "22.958355"
    },
    "RouteCodes": null,
    "Sequence": 6,
    "routeFlow": null
  },
  {
    "stopName": "Trikampura Patiya",
    "stopCode": 3893,
    "stationCode": 2951,
    "stopType": "MUNICIPAL_BUS",
    "shortStopName": null,
    "Position": {
      "stopLongitude": "72.633235",
      "stopLatitude": "22.980315"
    },
    "RouteCodes": null,
    "Sequence": 13,
    "routeFlow": null
  },
  {
    "stopName": "Krushna Roller Floor Mills",
    "stopCode": 3895,
    "stationCode": 1923,
    "stopType": "MUNICIPAL_BUS",
    "shortStopName": null,
    "Position": {
      "stopLongitude": "72.636227",
      "stopLatitude": "22.963651"
    },
    "RouteCodes": null,
    "Sequence": 18,
    "routeFlow": null
  },
  {
    "stopName": "Vatva Industrial Township",
    "stopCode": 3896,
    "stationCode": 3026,
    "stopType": "MUNICIPAL_BUS",
    "shortStopName": null,
    "Position": {
      "stopLongitude": "72.631363",
      "stopLatitude": "22.963095"
    },
    "RouteCodes": null,
    "Sequence": 20,
    "routeFlow": null
  },
  {
    "stopName": "Kiran Industries",
    "stopCode": 3897,
    "stationCode": 1897,
    "stopType": "MUNICIPAL_BUS",
    "shortStopName": null,
    "Position": {
      "stopLongitude": "72.630425",
      "stopLatitude": "22.965146"
    },
    "RouteCodes": null,
    "Sequence": 21,
    "routeFlow": null
  },
  {
    "stopName": "Chokshi Tubes",
    "stopCode": 3898,
    "stationCode": 1390,
    "stopType": "MUNICIPAL_BUS",
    "shortStopName": null,
    "Position": {
      "stopLongitude": "72.628776",
      "stopLatitude": "22.968795"
    },
    "RouteCodes": null,
    "Sequence": 22,
    "routeFlow": null
  },
  {
    "stopName": "Bombay Conductors",
    "stopCode": 3899,
    "stationCode": 1316,
    "stopType": "MUNICIPAL_BUS",
    "shortStopName": null,
    "Position": {
      "stopLongitude": "72.627048",
      "stopLatitude": "22.972048"
    },
    "RouteCodes": null,
    "Sequence": 23,
    "routeFlow": null
  },
  {
    "stopName": "Navi Vasahat",
    "stopCode": 3900,
    "stationCode": 2193,
    "stopType": "MUNICIPAL_BUS",
    "shortStopName": null,
    "Position": {
      "stopLongitude": "72.62523",
      "stopLatitude": "22.974631"
    },
    "RouteCodes": null,
    "Sequence": 24,
    "routeFlow": null
  },
  {
    "stopName": "Vitthalnagar Tekro (Ghodasar Rly. Crossing)",
    "stopCode": 3902,
    "stationCode": 3075,
    "stopType": "MUNICIPAL_BUS",
    "shortStopName": null,
    "Position": {
      "stopLongitude": "72.622146",
      "stopLatitude": "22.97714"
    },
    "RouteCodes": null,
    "Sequence": 26,
    "routeFlow": null
  },
  {
    "stopName": "Hari Krishna Park",
    "stopCode": 3903,
    "stationCode": 1653,
    "stopType": "MUNICIPAL_BUS",
    "shortStopName": null,
    "Position": {
      "stopLongitude": "72.620433",
      "stopLatitude": "22.978166"
    },
    "RouteCodes": null,
    "Sequence": 27,
    "routeFlow": null
  },
  {
    "stopName": "Jagdish Society",
    "stopCode": 3904,
    "stationCode": 1739,
    "stopType": "MUNICIPAL_BUS",
    "shortStopName": null,
    "Position": {
      "stopLongitude": "72.618933",
      "stopLatitude": "22.979728"
    },
    "RouteCodes": null,
    "Sequence": 28,
    "routeFlow": null
  },
  {
    "stopName": "Cadila Laboratories",
    "stopCode": 3905,
    "stationCode": 1328,
    "stopType": "MUNICIPAL_BUS",
    "shortStopName": null,
    "Position": {
      "stopLongitude": "72.615455",
      "stopLatitude": "22.982068"
    },
    "RouteCodes": null,
    "Sequence": 29,
    "routeFlow": null
  },
  {
    "stopName": "Shree vallabhacharyaji chowk",
    "stopCode": 3906,
    "stationCode": 2733,
    "stopType": "MUNICIPAL_BUS",
    "shortStopName": null,
    "Position": {
      "stopLongitude": "72.607285",
      "stopLatitude": "22.997141"
    },
    "RouteCodes": null,
    "Sequence": 40,
    "routeFlow": null
  },
  {
    "stopName": "Somnath Mahadev",
    "stopCode": 3907,
    "stationCode": 5090,
    "stopType": "MUNICIPAL_BUS",
    "shortStopName": null,
    "Position": {
      "stopLongitude": "72.591533",
      "stopLatitude": "23.002013"
    },
    "RouteCodes": null,
    "Sequence": 47,
    "routeFlow": null
  },
  {
    "stopName": "S.T. Stand",
    "stopCode": 3908,
    "stationCode": 2526,
    "stopType": "MUNICIPAL_BUS",
    "shortStopName": null,
    "Position": {
      "stopLongitude": "72.5913",
      "stopLatitude": "23.013236"
    },
    "RouteCodes": null,
    "Sequence": 52,
    "routeFlow": null
  },
  {
    "stopName": "Shyamal Char Rasta",
    "stopCode": 3909,
    "stationCode": 2781,
    "stopType": "MUNICIPAL_BUS",
    "shortStopName": null,
    "Position": {
      "stopLongitude": "72.52949",
      "stopLatitude": "23.014361"
    },
    "RouteCodes": null,
    "Sequence": 72,
    "routeFlow": null
  },
  {
    "stopName": "Sanjay Tower",
    "stopCode": 3910,
    "stationCode": 2579,
    "stopType": "MUNICIPAL_BUS",
    "shortStopName": null,
    "Position": {
      "stopLongitude": "72.52696",
      "stopLatitude": "23.013763"
    },
    "RouteCodes": null,
    "Sequence": 73,
    "routeFlow": null
  },
  {
    "stopName": "Aditraj Complex",
    "stopCode": 3911,
    "stationCode": 1075,
    "stopType": "MUNICIPAL_BUS",
    "shortStopName": null,
    "Position": {
      "stopLongitude": "72.522946",
      "stopLatitude": "23.013155"
    },
    "RouteCodes": null,
    "Sequence": 75,
    "routeFlow": null
  },
  {
    "stopName": "Kanakkala Flats (Seema Hall)",
    "stopCode": 3912,
    "stationCode": 1850,
    "stopType": "MUNICIPAL_BUS",
    "shortStopName": null,
    "Position": {
      "stopLongitude": "72.51916",
      "stopLatitude": "23.012853"
    },
    "RouteCodes": null,
    "Sequence": 76,
    "routeFlow": null
  },
  {
    "stopName": "Sarjan Complex (Madhur Hall)",
    "stopCode": 3913,
    "stationCode": 2617,
    "stopType": "MUNICIPAL_BUS",
    "shortStopName": null,
    "Position": {
      "stopLongitude": "72.515305",
      "stopLatitude": "23.012635"
    },
    "RouteCodes": null,
    "Sequence": 77,
    "routeFlow": null
  },
  {
    "stopName": "Anandnagar (Madhur Hall)",
    "stopCode": 3914,
    "stationCode": 1130,
    "stopType": "MUNICIPAL_BUS",
    "shortStopName": null,
    "Position": {
      "stopLongitude": "72.51358",
      "stopLatitude": "23.012506"
    },
    "RouteCodes": null,
    "Sequence": 78,
    "routeFlow": null
  },
  {
    "stopName": "Nilkanth Bunglows",
    "stopCode": 3915,
    "stationCode": 2227,
    "stopType": "MUNICIPAL_BUS",
    "shortStopName": null,
    "Position": {
      "stopLongitude": "72.509941",
      "stopLatitude": "23.011951"
    },
    "RouteCodes": null,
    "Sequence": 79,
    "routeFlow": null
  },
  {
    "stopName": "Prahladnagar Garden",
    "stopCode": 3916,
    "stationCode": 2363,
    "stopType": "MUNICIPAL_BUS",
    "shortStopName": null,
    "Position": {
      "stopLongitude": "72.506401",
      "stopLatitude": "23.011843"
    },
    "RouteCodes": null,
    "Sequence": 80,
    "routeFlow": null
  },
  {
    "stopName": "Prahladnagar Cross Road",
    "stopCode": 3917,
    "stationCode": 2362,
    "stopType": "MUNICIPAL_BUS",
    "shortStopName": null,
    "Position": {
      "stopLongitude": "72.5041",
      "stopLatitude": "23.011756"
    },
    "RouteCodes": null,
    "Sequence": 81,
    "routeFlow": null
  },
  {
    "stopName": "Iskon Mandir",
    "stopCode": 3918,
    "stationCode": 1731,
    "stopType": "MUNICIPAL_BUS",
    "shortStopName": null,
    "Position": {
      "stopLongitude": "72.506798",
      "stopLatitude": "23.025965"
    },
    "RouteCodes": null,
    "Sequence": 85,
    "routeFlow": null
  },
  {
    "stopName": "Devima seles corporate",
    "stopCode": 5672,
    "stationCode": 1434,
    "stopType": "MUNICIPAL_BUS",
    "shortStopName": null,
    "Position": {
      "stopLongitude": "72.623643",
      "stopLatitude": "22.976118"
    },
    "RouteCodes": null,
    "Sequence": 25,
    "routeFlow": null
  },
  {
    "stopName": "Kalgi Apartment",
    "stopCode": 5954,
    "stationCode": 6537,
    "stopType": "MUNICIPAL_BUS",
    "shortStopName": null,
    "Position": {
      "stopLongitude": "72.609294",
      "stopLatitude": "22.99271"
    },
    "RouteCodes": null,
    "Sequence": 34,
    "routeFlow": null
  },
  {
    "stopName": "Doon School",
    "stopCode": 5956,
    "stationCode": 6538,
    "stopType": "MUNICIPAL_BUS",
    "shortStopName": null,
    "Position": {
      "stopLongitude": "72.607326",
      "stopLatitude": "22.994024"
    },
    "RouteCodes": null,
    "Sequence": 35,
    "routeFlow": null
  },
  {
    "stopName": "Radhavallabh Mandir",
    "stopCode": 5958,
    "stationCode": 2420,
    "stopType": "MUNICIPAL_BUS",
    "shortStopName": null,
    "Position": {
      "stopLongitude": "72.607894",
      "stopLatitude": "22.995229"
    },
    "RouteCodes": null,
    "Sequence": 36,
    "routeFlow": null
  },
  {
    "stopName": "Dhananjay Tower",
    "stopCode": 7091,
    "stationCode": 1453,
    "stopType": "MUNICIPAL_BUS",
    "shortStopName": null,
    "Position": {
      "stopLongitude": "72.526057",
      "stopLatitude": "23.013477"
    },
    "RouteCodes": null,
    "Sequence": 74,
    "routeFlow": null
  },
  {
    "stopName": "F' Road",
    "stopCode": 7961,
    "stationCode": 1493,
    "stopType": "MUNICIPAL_BUS",
    "shortStopName": null,
    "Position": {
      "stopLongitude": "72.630891",
      "stopLatitude": "22.975303"
    },
    "RouteCodes": null,
    "Sequence": 14,
    "routeFlow": null
  },
  {
    "stopName": "Commet Chemicals",
    "stopCode": 7962,
    "stationCode": 1404,
    "stopType": "MUNICIPAL_BUS",
    "shortStopName": null,
    "Position": {
      "stopLongitude": "72.631563",
      "stopLatitude": "22.973818"
    },
    "RouteCodes": null,
    "Sequence": 15,
    "routeFlow": null
  },
  {
    "stopName": "M/S.K.B.Patel Industries",
    "stopCode": 7963,
    "stationCode": 1979,
    "stopType": "MUNICIPAL_BUS",
    "shortStopName": null,
    "Position": {
      "stopLongitude": "72.634",
      "stopLatitude": "22.968768"
    },
    "RouteCodes": null,
    "Sequence": 16,
    "routeFlow": null
  },
  {
    "stopName": "Coronation Floor Factory",
    "stopCode": 7964,
    "stationCode": 1406,
    "stopType": "MUNICIPAL_BUS",
    "shortStopName": null,
    "Position": {
      "stopLongitude": "72.636203",
      "stopLatitude": "22.964066"
    },
    "RouteCodes": null,
    "Sequence": 17,
    "routeFlow": null
  },
  {
    "stopName": "Vatva Railway Station",
    "stopCode": 8729,
    "stationCode": 6112,
    "stopType": "MUNICIPAL_BUS",
    "shortStopName": null,
    "Position": {
      "stopLongitude": "72.62907",
      "stopLatitude": "22.95886"
    },
    "RouteCodes": null,
    "Sequence": 19,
    "routeFlow": null
  }
]