[
  {
    "stopName": "Sanyas Ashram",
    "stopCode": 1073,
    "stationCode": 2588,
    "stopType": "MUNICIPAL_BUS",
    "shortStopName": null,
    "Position": {
      "stopLongitude": "72.571266",
      "stopLatitude": "23.024094"
    },
    "RouteCodes": null,
    "Sequence": 44,
    "routeFlow": "LINESTRING (72.47165 23.05389, 72.47183 23.05384, 72.47235 23.05326, 72.47252 23.05293, 72.47261 23.05275, 72.4727 23.05262, 72.47279 23.05255, 72.47295 23.05246, 72.4731 23.0524, 72.47352 23.05227, 72.47382 23.05232, 72.47382 23.05232, 72.47421 23.05238, 72.47468 23.0525, 72.47521 23.05276, 72.47549 23.05291, 72.47581 23.05315, 72.47645 23.05372, 72.47645 23.05372, 72.47678 23.054, 72.47697 23.05411, 72.4772 23.05415, 72.47769 23.0542, 72.47787 23.0542, 72.47801 23.05414, 72.47815 23.05407, 72.4789 23.05376, 72.47935 23.05363, 72.47974 23.05355, 72.47974 23.05354, 72.47997 23.05349, 72.48008 23.05344, 72.4801 23.05344, 72.48015 23.05344, 72.48021 23.05342, 72.48026 23.05337, 72.4803 23.0533, 72.4803 23.0532, 72.48023 23.05311, 72.48015 23.05308, 72.48002 23.05286, 72.47999 23.05276, 72.4798 23.05198, 72.47976 23.05158, 72.47975 23.05107, 72.47981 23.04997, 72.47989 23.04927, 72.47989 23.04927, 72.48006 23.04763, 72.48019 23.04613, 72.48025 23.04527, 72.48026 23.04464, 72.48024 23.04431, 72.48018 23.04376, 72.48009 23.04313, 72.4803 23.04312, 72.48036 23.04313, 72.48036 23.04313, 72.48091 23.04316, 72.48177 23.04323, 72.48263 23.04329, 72.48271 23.04329, 72.48322 23.04319, 72.48322 23.04319, 72.48636 23.04257, 72.48636 23.04258, 72.48779 23.04226, 72.48979 23.04186, 72.48979 23.04186, 72.4911 23.04168, 72.49201 23.04159, 72.49202 23.04165, 72.49202 23.04165, 72.49201 23.04159, 72.49272 23.04152, 72.49342 23.04145, 72.49446 23.04133, 72.4957 23.04121, 72.49605 23.04119, 72.49605 23.04119, 72.49747 23.04108, 72.49852 23.04102, 72.49931 23.04096, 72.49933 23.04096, 72.50193 23.04074, 72.50195 23.04084, 72.50195 23.04084, 72.50194 23.0408, 72.50193 23.04074, 72.5028 23.04069, 72.50396 23.04062, 72.50396 23.0406, 72.50505 23.04055, 72.50663 23.0404, 72.50717 23.04035, 72.50717 23.04035, 72.50744 23.04028, 72.5089 23.03978, 72.5103 23.03927, 72.5103 23.03927, 72.51164 23.03881, 72.51199 23.03867, 72.51227 23.03853, 72.51271 23.03835, 72.51271 23.03835, 72.51425 23.03769, 72.51425 23.03769, 72.51602 23.03694, 72.51602 23.03694, 72.51637 23.03681, 72.51639 23.03682, 72.51642 23.03682, 72.51649 23.0368, 72.51651 23.03677, 72.51652 23.03675, 72.51821 23.03603, 72.51894 23.03573, 72.52014 23.03522, 72.52014 23.03522, 72.52151 23.03463, 72.52329 23.03377, 72.52329 23.03377, 72.52361 23.03363, 72.52396 23.03342, 72.52424 23.03325, 72.5244 23.03311, 72.52466 23.03286, 72.52502 23.03247, 72.52513 23.0323, 72.52529 23.03205, 72.52554 23.0318, 72.52606 23.03143, 72.52606 23.03143, 72.5268 23.03091, 72.52782 23.03024, 72.52782 23.03024, 72.5284 23.02987, 72.53091 23.02861, 72.53091 23.02861, 72.53168 23.02824, 72.53174 23.02822, 72.53168 23.02808, 72.53159 23.02785, 72.53159 23.02785, 72.5314 23.02737, 72.53127 23.02701, 72.53129 23.02695, 72.5313 23.02692, 72.5312 23.02664, 72.53092 23.02593, 72.53066 23.02533, 72.53056 23.02503, 72.53047 23.02474, 72.53046 23.02455, 72.53046 23.02446, 72.5311 23.0244, 72.53154 23.02439, 72.53154 23.02439, 72.53213 23.02438, 72.53234 23.02435, 72.53242 23.02435, 72.53267 23.02426, 72.53305 23.02408, 72.53303 23.02404, 72.53355 23.0238, 72.53386 23.02369, 72.53446 23.02353, 72.53462 23.02401, 72.53462 23.02401, 72.53492 23.02503, 72.53539 23.02653, 72.53554 23.02696, 72.5357 23.02739, 72.53571 23.02749, 72.5358 23.02767, 72.5358 23.02767, 72.53589 23.02785, 72.53603 23.02812, 72.53666 23.02784, 72.53673 23.02784, 72.53694 23.02774, 72.53694 23.02774, 72.53804 23.02722, 72.53858 23.02699, 72.53902 23.02678, 72.53965 23.02644, 72.53965 23.02644, 72.54028 23.02616, 72.54067 23.02603, 72.542 23.02558, 72.54297 23.02528, 72.54313 23.02524, 72.54318 23.02533, 72.54348 23.0257, 72.54348 23.0257, 72.54469 23.02711, 72.54474 23.02718, 72.54478 23.02715, 72.54493 23.02704, 72.54584 23.02651, 72.5462 23.02629, 72.5462 23.02629, 72.5465 23.02606, 72.54723 23.02541, 72.54737 23.02528, 72.54737 23.02528, 72.54887 23.02402, 72.54887 23.02402, 72.54948 23.02351, 72.54999 23.02313, 72.55054 23.02267, 72.55063 23.02262, 72.55065 23.02261, 72.5507 23.02259, 72.55074 23.02256, 72.55075 23.02252, 72.55075 23.0225, 72.55089 23.02241, 72.55132 23.02217, 72.55132 23.02217, 72.5528 23.02124, 72.5528 23.02124, 72.5533 23.02096, 72.55374 23.02088, 72.55376 23.02089, 72.55381 23.02089, 72.55382 23.02089, 72.55421 23.02118, 72.55493 23.02166, 72.55583 23.02236, 72.55608 23.02252, 72.55608 23.02253, 72.55608 23.02254, 72.55608 23.02258, 72.55611 23.02262, 72.55618 23.02266, 72.55627 23.02264, 72.55628 23.02263, 72.55742 23.02335, 72.55742 23.02335, 72.5579 23.02366, 72.55813 23.02378, 72.55839 23.02394, 72.55851 23.02396, 72.55859 23.024, 72.55923 23.02397, 72.55968 23.02395, 72.55968 23.02385, 72.55977 23.02342, 72.55977 23.02342, 72.56015 23.02194, 72.56037 23.02122, 72.56057 23.02065, 72.56057 23.02065, 72.56065 23.02044, 72.56075 23.02038, 72.56095 23.02029, 72.56108 23.02023, 72.56178 23.02033, 72.56339 23.02067, 72.56416 23.02085, 72.56416 23.02085, 72.56541 23.02121, 72.5664 23.02153, 72.5664 23.02153, 72.56748 23.02189, 72.56769 23.02193, 72.5681 23.022, 72.56843 23.02201, 72.56985 23.02208, 72.57018 23.02213, 72.57066 23.02219, 72.57066 23.02219, 72.57078 23.0222, 72.57088 23.02226, 72.57105 23.02232, 72.57128 23.02247, 72.57125 23.02299, 72.57124 23.02334, 72.57126 23.02409, 72.57126 23.02409, 72.57125 23.025, 72.57123 23.025, 72.57115 23.02616, 72.57111 23.02667, 72.57251 23.02678, 72.57841 23.02725, 72.57865 23.02727, 72.57869 23.02727, 72.58005 23.02736, 72.58111 23.02732, 72.5813 23.02725, 72.58135 23.02722, 72.58136 23.02709, 72.5814 23.02643, 72.58107 23.0264, 72.58082 23.02643, 72.58059 23.02624, 72.58062 23.02571, 72.58064 23.02532, 72.58064 23.02532, 72.58064 23.02493, 72.58062 23.02472, 72.58065 23.0245, 72.58064 23.02448, 72.58054 23.02425, 72.58044 23.02405, 72.58038 23.02398, 72.58018 23.02386, 72.5797 23.02365, 72.57949 23.02352, 72.57923 23.02351, 72.57914 23.02354, 72.57906 23.0237, 72.57906 23.02401, 72.57904 23.02434, 72.57864 23.02437, 72.5786 23.02437, 72.5786 23.02437, 72.5788 23.02436, 72.57904 23.02434, 72.57904 23.02503, 72.5796 23.02504, 72.57976 23.02504, 72.58002 23.02499, 72.5801 23.02491, 72.58033 23.02478, 72.58042 23.02472, 72.58051 23.02462, 72.58059 23.02439, 72.58049 23.02415, 72.58041 23.02401, 72.58031 23.02393, 72.57974 23.02367, 72.57949 23.02352, 72.57956 23.023, 72.57959 23.02218, 72.58023 23.02209, 72.58079 23.02199, 72.580795 23.022007, 72.58198 23.02181, 72.58305 23.02162, 72.58365 23.0215, 72.58365 23.0215, 72.5841 23.02141, 72.5845 23.02126, 72.58474 23.02112, 72.58512 23.02084, 72.58542 23.02055, 72.58613 23.01988, 72.58622 23.01977, 72.58622 23.01977, 72.58649 23.01954, 72.58665 23.01943, 72.58719 23.01919, 72.58857 23.0187, 72.58857 23.0187, 72.58902 23.01854, 72.5894 23.01832, 72.58957 23.01813, 72.58976 23.01768, 72.58998 23.0173, 72.59014 23.01713, 72.59046 23.01694, 72.59064 23.01691, 72.59084 23.01692, 72.59091 23.01696, 72.59099 23.01696, 72.59106 23.01693, 72.5911 23.0169, 72.59139 23.01685, 72.5922 23.0169, 72.59285 23.01694, 72.59329 23.017, 72.59329 23.017, 72.59467 23.01725, 72.59484 23.01728, 72.59484 23.01721, 72.59502 23.0162, 72.59502 23.0162, 72.59509 23.0159, 72.59529 23.01542, 72.59578 23.01445, 72.59578 23.01445, 72.59594 23.0141, 72.59609 23.01361, 72.59609 23.01361, 72.59612 23.01352, 72.59644 23.01306, 72.59742 23.01185, 72.59742 23.01185, 72.59893 23.00997, 72.59908 23.0098, 72.59908 23.0098, 72.59928 23.00956, 72.59933 23.0095, 72.59926 23.00945, 72.5987 23.0089, 72.5987 23.0089, 72.59849 23.00866, 72.59818 23.00824, 72.59796 23.00813, 72.5977 23.00801, 72.59754 23.00791, 72.59731 23.00775, 72.59718 23.00763, 72.59694 23.00736, 72.59694 23.00736, 72.59669 23.00708, 72.59632 23.00674, 72.59698 23.00577, 72.59742 23.00498, 72.59766 23.00449, 72.59778 23.0042, 72.59797 23.00363, 72.59814 23.0032, 72.59824 23.00304, 72.59837 23.00296, 72.59877 23.00282, 72.59877 23.00282, 72.59914 23.00269, 72.59918 23.00267, 72.59931 23.00246, 72.59949 23.00203, 72.59955 23.00191, 72.59987 23.00127, 72.60036 23.00044, 72.60051 23.0002, 72.60051 23.0002, 72.60098 22.99953, 72.60131 22.99914, 72.6015 22.99889, 72.60153 22.99886, 72.60153 22.99885, 72.60186 22.99858, 72.60231 22.99828, 72.60317 22.99783, 72.60388 22.99756, 72.60388 22.99756, 72.60457 22.99738, 72.60481 22.99735, 72.60581 22.99728, 72.60677 22.99727, 72.60771 22.99728, 72.60796 22.9973, 72.60796 22.9973, 72.60834 22.99733, 72.60882 22.99745, 72.60937 22.99761, 72.61005 22.99787, 72.61066 22.99814, 72.61127 22.99846, 72.61151 22.99791, 72.61161 22.99772, 72.61161 22.99772, 72.61184 22.99721, 72.61191 22.99716, 72.61224 22.99645, 72.61289 22.99505, 72.61299 22.99484, 72.61299 22.99481, 72.61292 22.99479, 72.61262 22.99478, 72.61198 22.9948, 72.61198 22.9948, 72.61141 22.99483, 72.61088 22.99492, 72.61058 22.99498, 72.61058 22.99498, 72.61018 22.99504, 72.60965 22.99507, 72.60852 22.99507, 72.60777 22.9951, 72.60774 22.99502, 72.60774 22.99502, 72.60767 22.99476, 72.60756 22.99445, 72.60738 22.99407, 72.60738 22.99407, 72.6073 22.99389, 72.60764 22.99368, 72.60773 22.99358, 72.60795 22.99342, 72.60826 22.99322, 72.60838 22.99314, 72.60903 22.99288, 72.6092 22.99278, 72.6092 22.99278, 72.60981 22.99243, 72.61029 22.99217, 72.61163 22.99157, 72.61154 22.99128, 72.61154 22.99128, 72.61125 22.99036, 72.61118 22.99, 72.61116 22.98971, 72.61123 22.98969, 72.61123 22.98969, 72.61116 22.98971, 72.61112 22.98921, 72.61101 22.98883, 72.61095 22.98859, 72.61089 22.9883, 72.61105 22.98819, 72.61116 22.98808, 72.61121 22.98801, 72.61133 22.98783, 72.61135 22.98781, 72.61136 22.9878, 72.61137 22.98776, 72.61135 22.98772, 72.6113 22.98752, 72.6113 22.98752, 72.61126 22.9869, 72.61128 22.98679, 72.61133 22.98668, 72.61141 22.98649, 72.61147 22.98645, 72.61153 22.98635, 72.61159 22.9862, 72.61189 22.98534, 72.61197 22.98518, 72.61208 22.98493, 72.61222 22.98472, 72.61231 22.98464, 72.6125 22.98453, 72.6125 22.98453, 72.61275 22.98439, 72.61311 22.98425, 72.61319 22.9842, 72.61383 22.98351, 72.61481 22.98262, 72.61535 22.98216, 72.61535 22.98216, 72.61589 22.98172, 72.61666 22.98116, 72.61743 22.98068, 72.61757 22.98058, 72.61871 22.97987, 72.61871 22.97987, 72.61912 22.97961, 72.61981 22.97906, 72.62002 22.97891, 72.62014 22.9788, 72.62024 22.97868, 72.62037 22.97834, 72.62044 22.97818, 72.62044 22.97818, 72.62072 22.97751, 72.62059 22.97746, 72.62059 22.97746, 72.61993 22.97722, 72.61879 22.9768, 72.61764 22.97639, 72.61764 22.9764, 72.61688 22.97611, 72.61635 22.97588, 72.61621 22.97581, 72.6161 22.97576, 72.6161 22.97576, 72.6155 22.97546, 72.61531 22.97534, 72.61513 22.9752, 72.61495 22.97501, 72.61481 22.97483, 72.61448 22.97432, 72.61436 22.97398, 72.61412 22.97343, 72.6139 22.97296, 72.61393 22.97295, 72.61388 22.97296, 72.6138 22.97273, 72.61362 22.97231, 72.61445 22.97169, 72.61461 22.97161, 72.61461 22.97161, 72.615 22.97143, 72.6151 22.97143, 72.61535 22.97139, 72.61613 22.97128, 72.61619 22.97128, 72.61619 22.97125, 72.61765 22.97117, 72.61909 22.97114, 72.61982 22.97113)"
  },
  {
    "stopName": "Gandhigram Railway Station",
    "stopCode": 1074,
    "stationCode": 1522,
    "stopType": "MUNICIPAL_BUS",
    "shortStopName": null,
    "Position": {
      "stopLongitude": "72.571216",
      "stopLatitude": "23.024998"
    },
    "RouteCodes": null,
    "Sequence": 45,
    "routeFlow": null
  },
  {
    "stopName": "Sardarbag",
    "stopCode": 1075,
    "stationCode": 2611,
    "stopType": "MUNICIPAL_BUS",
    "shortStopName": null,
    "Position": {
      "stopLongitude": "72.578645",
      "stopLatitude": "23.027351"
    },
    "RouteCodes": null,
    "Sequence": 46,
    "routeFlow": null
  },
  {
    "stopName": "Apna Bazar",
    "stopCode": 1076,
    "stationCode": 1150,
    "stopType": "MUNICIPAL_BUS",
    "shortStopName": null,
    "Position": {
      "stopLongitude": "72.580705",
      "stopLatitude": "23.025321"
    },
    "RouteCodes": null,
    "Sequence": 47,
    "routeFlow": null
  },
  {
    "stopName": "Lal Darwaja",
    "stopCode": 1125,
    "stationCode": 1961,
    "stopType": "MUNICIPAL_BUS",
    "shortStopName": null,
    "Position": {
      "stopLongitude": "72.578605",
      "stopLatitude": "23.024376"
    },
    "RouteCodes": null,
    "Sequence": 48,
    "routeFlow": null
  },
  {
    "stopName": "Astodiya Darwaja",
    "stopCode": 1299,
    "stationCode": 1197,
    "stopType": "MUNICIPAL_BUS",
    "shortStopName": null,
    "Position": {
      "stopLongitude": "72.593273",
      "stopLatitude": "23.01708"
    },
    "RouteCodes": null,
    "Sequence": 53,
    "routeFlow": null
  },
  {
    "stopName": "Raipur Darwaja",
    "stopCode": 1300,
    "stationCode": 2497,
    "stopType": "MUNICIPAL_BUS",
    "shortStopName": null,
    "Position": {
      "stopLongitude": "72.595075",
      "stopLatitude": "23.01621"
    },
    "RouteCodes": null,
    "Sequence": 54,
    "routeFlow": null
  },
  {
    "stopName": "Parsi Agiyari",
    "stopCode": 1303,
    "stationCode": 2318,
    "stopType": "MUNICIPAL_BUS",
    "shortStopName": null,
    "Position": {
      "stopLongitude": "72.597448",
      "stopLatitude": "23.011873"
    },
    "RouteCodes": null,
    "Sequence": 57,
    "routeFlow": null
  },
  {
    "stopName": "The Arena (Abad Dairy)",
    "stopCode": 1304,
    "stationCode": 1054,
    "stopType": "MUNICIPAL_BUS",
    "shortStopName": null,
    "Position": {
      "stopLongitude": "72.599133",
      "stopLatitude": "23.009843"
    },
    "RouteCodes": null,
    "Sequence": 58,
    "routeFlow": null
  },
  {
    "stopName": "Aradhana Society",
    "stopCode": 1313,
    "stationCode": 1153,
    "stopType": "MUNICIPAL_BUS",
    "shortStopName": null,
    "Position": {
      "stopLongitude": "72.611558",
      "stopLatitude": "22.991276"
    },
    "RouteCodes": null,
    "Sequence": 72,
    "routeFlow": null
  },
  {
    "stopName": "Kumbhanath Society",
    "stopCode": 1314,
    "stationCode": 1935,
    "stopType": "MUNICIPAL_BUS",
    "shortStopName": null,
    "Position": {
      "stopLongitude": "72.611231",
      "stopLatitude": "22.989675"
    },
    "RouteCodes": null,
    "Sequence": 73,
    "routeFlow": null
  },
  {
    "stopName": "Sanghmitra Society",
    "stopCode": 1410,
    "stationCode": 2576,
    "stopType": "MUNICIPAL_BUS",
    "shortStopName": null,
    "Position": {
      "stopLongitude": "72.531633",
      "stopLatitude": "23.027835"
    },
    "RouteCodes": null,
    "Sequence": 25,
    "routeFlow": null
  },
  {
    "stopName": "Satkar Society",
    "stopCode": 1571,
    "stationCode": 2648,
    "stopType": "MUNICIPAL_BUS",
    "shortStopName": null,
    "Position": {
      "stopLongitude": "72.535786",
      "stopLatitude": "23.027675"
    },
    "RouteCodes": null,
    "Sequence": 29,
    "routeFlow": null
  },
  {
    "stopName": "Azad Apartment",
    "stopCode": 1572,
    "stationCode": 1207,
    "stopType": "MUNICIPAL_BUS",
    "shortStopName": null,
    "Position": {
      "stopLongitude": "72.536965",
      "stopLatitude": "23.027776"
    },
    "RouteCodes": null,
    "Sequence": 30,
    "routeFlow": null
  },
  {
    "stopName": "Azad Society",
    "stopCode": 1573,
    "stationCode": 1208,
    "stopType": "MUNICIPAL_BUS",
    "shortStopName": null,
    "Position": {
      "stopLongitude": "72.53966",
      "stopLatitude": "23.026456"
    },
    "RouteCodes": null,
    "Sequence": 31,
    "routeFlow": null
  },
  {
    "stopName": "Tilakbag",
    "stopCode": 2223,
    "stationCode": 2941,
    "stopType": "MUNICIPAL_BUS",
    "shortStopName": null,
    "Position": {
      "stopLongitude": "72.580798",
      "stopLatitude": "23.022018"
    },
    "RouteCodes": null,
    "Sequence": 49,
    "routeFlow": null
  },
  {
    "stopName": "Khamasa",
    "stopCode": 2224,
    "stationCode": 1879,
    "stopType": "MUNICIPAL_BUS",
    "shortStopName": null,
    "Position": {
      "stopLongitude": "72.583653",
      "stopLatitude": "23.021513"
    },
    "RouteCodes": null,
    "Sequence": 50,
    "routeFlow": null
  },
  {
    "stopName": "Sardar Bhavan (Gol Limda)",
    "stopCode": 2225,
    "stationCode": 2601,
    "stopType": "MUNICIPAL_BUS",
    "shortStopName": null,
    "Position": {
      "stopLongitude": "72.58625",
      "stopLatitude": "23.01979"
    },
    "RouteCodes": null,
    "Sequence": 51,
    "routeFlow": null
  },
  {
    "stopName": "Astodiya Chakla",
    "stopCode": 2226,
    "stationCode": 1195,
    "stopType": "MUNICIPAL_BUS",
    "shortStopName": null,
    "Position": {
      "stopLongitude": "72.588583",
      "stopLatitude": "23.018735"
    },
    "RouteCodes": null,
    "Sequence": 52,
    "routeFlow": null
  },
  {
    "stopName": "Pushpakunj-Shukladada Chowk",
    "stopCode": 2235,
    "stationCode": 2400,
    "stopType": "MUNICIPAL_BUS",
    "shortStopName": null,
    "Position": {
      "stopLongitude": "72.598783",
      "stopLatitude": "23.002841"
    },
    "RouteCodes": null,
    "Sequence": 61,
    "routeFlow": null
  },
  {
    "stopName": "Shelat Bhuvan",
    "stopCode": 2236,
    "stationCode": 2712,
    "stopType": "MUNICIPAL_BUS",
    "shortStopName": null,
    "Position": {
      "stopLongitude": "72.600586",
      "stopLatitude": "23.000241"
    },
    "RouteCodes": null,
    "Sequence": 62,
    "routeFlow": null
  },
  {
    "stopName": "Rambag",
    "stopCode": 2237,
    "stationCode": 2464,
    "stopType": "MUNICIPAL_BUS",
    "shortStopName": null,
    "Position": {
      "stopLongitude": "72.60157",
      "stopLatitude": "22.99889"
    },
    "RouteCodes": null,
    "Sequence": 63,
    "routeFlow": null
  },
  {
    "stopName": "Krushna bag",
    "stopCode": 2238,
    "stationCode": 1924,
    "stopType": "MUNICIPAL_BUS",
    "shortStopName": null,
    "Position": {
      "stopLongitude": "72.603876",
      "stopLatitude": "22.997546"
    },
    "RouteCodes": null,
    "Sequence": 64,
    "routeFlow": null
  },
  {
    "stopName": "Umiya Vijay Society",
    "stopCode": 2662,
    "stationCode": 2968,
    "stopType": "MUNICIPAL_BUS",
    "shortStopName": null,
    "Position": {
      "stopLongitude": "72.533051",
      "stopLatitude": "23.024086"
    },
    "RouteCodes": null,
    "Sequence": 27,
    "routeFlow": null
  },
  {
    "stopName": "Exise Chowki (Cn)",
    "stopCode": 2667,
    "stationCode": 1490,
    "stopType": "MUNICIPAL_BUS",
    "shortStopName": null,
    "Position": {
      "stopLongitude": "72.551321",
      "stopLatitude": "23.022176"
    },
    "RouteCodes": null,
    "Sequence": 36,
    "routeFlow": null
  },
  {
    "stopName": "C.N. Vidyalay",
    "stopCode": 2668,
    "stationCode": 1324,
    "stopType": "MUNICIPAL_BUS",
    "shortStopName": null,
    "Position": {
      "stopLongitude": "72.552826",
      "stopLatitude": "23.021271"
    },
    "RouteCodes": null,
    "Sequence": 37,
    "routeFlow": null
  },
  {
    "stopName": "Panchvati",
    "stopCode": 2669,
    "stationCode": 2294,
    "stopType": "MUNICIPAL_BUS",
    "shortStopName": null,
    "Position": {
      "stopLongitude": "72.55742",
      "stopLatitude": "23.023346"
    },
    "RouteCodes": null,
    "Sequence": 38,
    "routeFlow": null
  },
  {
    "stopName": "Law College",
    "stopCode": 2670,
    "stationCode": 1967,
    "stopType": "MUNICIPAL_BUS",
    "shortStopName": null,
    "Position": {
      "stopLongitude": "72.559796",
      "stopLatitude": "23.023426"
    },
    "RouteCodes": null,
    "Sequence": 39,
    "routeFlow": null
  },
  {
    "stopName": "University Granth Nirman Board",
    "stopCode": 2671,
    "stationCode": 2973,
    "stopType": "MUNICIPAL_BUS",
    "shortStopName": null,
    "Position": {
      "stopLongitude": "72.560603",
      "stopLatitude": "23.02066"
    },
    "RouteCodes": null,
    "Sequence": 40,
    "routeFlow": null
  },
  {
    "stopName": "Hope Nuro Care Hospital",
    "stopCode": 2672,
    "stationCode": 1691,
    "stopType": "MUNICIPAL_BUS",
    "shortStopName": null,
    "Position": {
      "stopLongitude": "72.564141",
      "stopLatitude": "23.020933"
    },
    "RouteCodes": null,
    "Sequence": 41,
    "routeFlow": null
  },
  {
    "stopName": "Gujarat College",
    "stopCode": 2673,
    "stationCode": 1614,
    "stopType": "MUNICIPAL_BUS",
    "shortStopName": null,
    "Position": {
      "stopLongitude": "72.566376",
      "stopLatitude": "23.021593"
    },
    "RouteCodes": null,
    "Sequence": 42,
    "routeFlow": null
  },
  {
    "stopName": "Madalpur (Town Hall)",
    "stopCode": 2674,
    "stationCode": 1982,
    "stopType": "MUNICIPAL_BUS",
    "shortStopName": null,
    "Position": {
      "stopLongitude": "72.570651",
      "stopLatitude": "23.022258"
    },
    "RouteCodes": null,
    "Sequence": 43,
    "routeFlow": null
  },
  {
    "stopName": "Maninagar Railway Crossing",
    "stopCode": 2876,
    "stationCode": 2044,
    "stopType": "MUNICIPAL_BUS",
    "shortStopName": null,
    "Position": {
      "stopLongitude": "72.611976",
      "stopLatitude": "22.994785"
    },
    "RouteCodes": null,
    "Sequence": 67,
    "routeFlow": null
  },
  {
    "stopName": "Swaminarayan Mandir (Maninagar)",
    "stopCode": 2877,
    "stationCode": 2891,
    "stopType": "MUNICIPAL_BUS",
    "shortStopName": null,
    "Position": {
      "stopLongitude": "72.61057",
      "stopLatitude": "22.994919"
    },
    "RouteCodes": null,
    "Sequence": 68,
    "routeFlow": null
  },
  {
    "stopName": "Maninagar Char Rasta",
    "stopCode": 2945,
    "stationCode": 2043,
    "stopType": "MUNICIPAL_BUS",
    "shortStopName": null,
    "Position": {
      "stopLongitude": "72.607961",
      "stopLatitude": "22.997288"
    },
    "RouteCodes": null,
    "Sequence": 65,
    "routeFlow": null
  },
  {
    "stopName": "Shilaj Gam",
    "stopCode": 3005,
    "stationCode": 2715,
    "stopType": "MUNICIPAL_BUS",
    "shortStopName": null,
    "Position": {
      "stopLongitude": "72.471651",
      "stopLatitude": "23.053922"
    },
    "RouteCodes": null,
    "Sequence": 1,
    "routeFlow": null
  },
  {
    "stopName": "S.P.Ring Road (Shilaj Circle)",
    "stopCode": 3007,
    "stationCode": 1386,
    "stopType": "MUNICIPAL_BUS",
    "shortStopName": null,
    "Position": {
      "stopLongitude": "72.47974",
      "stopLatitude": "23.053545"
    },
    "RouteCodes": null,
    "Sequence": 4,
    "routeFlow": null
  },
  {
    "stopName": "Parijat Bunglows",
    "stopCode": 3182,
    "stationCode": 2309,
    "stopType": "MUNICIPAL_BUS",
    "shortStopName": null,
    "Position": {
      "stopLongitude": "72.514278",
      "stopLatitude": "23.037743"
    },
    "RouteCodes": null,
    "Sequence": 18,
    "routeFlow": null
  },
  {
    "stopName": "Judges Bunglows",
    "stopCode": 3183,
    "stationCode": 1800,
    "stopType": "MUNICIPAL_BUS",
    "shortStopName": null,
    "Position": {
      "stopLongitude": "72.516046",
      "stopLatitude": "23.036995"
    },
    "RouteCodes": null,
    "Sequence": 19,
    "routeFlow": null
  },
  {
    "stopName": "Premchandnagar",
    "stopCode": 3184,
    "stationCode": 2381,
    "stopType": "MUNICIPAL_BUS",
    "shortStopName": null,
    "Position": {
      "stopLongitude": "72.520143",
      "stopLatitude": "23.035226"
    },
    "RouteCodes": null,
    "Sequence": 20,
    "routeFlow": null
  },
  {
    "stopName": "Goyal Park",
    "stopCode": 3185,
    "stationCode": 1600,
    "stopType": "MUNICIPAL_BUS",
    "shortStopName": null,
    "Position": {
      "stopLongitude": "72.523308",
      "stopLatitude": "23.033801"
    },
    "RouteCodes": null,
    "Sequence": 21,
    "routeFlow": null
  },
  {
    "stopName": "Mansi Complex",
    "stopCode": 3186,
    "stationCode": 2053,
    "stopType": "MUNICIPAL_BUS",
    "shortStopName": null,
    "Position": {
      "stopLongitude": "72.52609",
      "stopLatitude": "23.031471"
    },
    "RouteCodes": null,
    "Sequence": 22,
    "routeFlow": null
  },
  {
    "stopName": "Sudarshan Bunglows",
    "stopCode": 3187,
    "stationCode": 2853,
    "stopType": "MUNICIPAL_BUS",
    "shortStopName": null,
    "Position": {
      "stopLongitude": "72.527833",
      "stopLatitude": "23.030253"
    },
    "RouteCodes": null,
    "Sequence": 23,
    "routeFlow": null
  },
  {
    "stopName": "Archana Farm",
    "stopCode": 3188,
    "stationCode": 1155,
    "stopType": "MUNICIPAL_BUS",
    "shortStopName": null,
    "Position": {
      "stopLongitude": "72.530921",
      "stopLatitude": "23.028625"
    },
    "RouteCodes": null,
    "Sequence": 24,
    "routeFlow": null
  },
  {
    "stopName": "Shivranjni Society",
    "stopCode": 3189,
    "stationCode": 2729,
    "stopType": "MUNICIPAL_BUS",
    "shortStopName": null,
    "Position": {
      "stopLongitude": "72.531539",
      "stopLatitude": "23.024408"
    },
    "RouteCodes": null,
    "Sequence": 26,
    "routeFlow": null
  },
  {
    "stopName": "Bimanagar",
    "stopCode": 3190,
    "stationCode": 1314,
    "stopType": "MUNICIPAL_BUS",
    "shortStopName": null,
    "Position": {
      "stopLongitude": "72.534625",
      "stopLatitude": "23.02401"
    },
    "RouteCodes": null,
    "Sequence": 28,
    "routeFlow": null
  },
  {
    "stopName": "Sahajanand College",
    "stopCode": 3191,
    "stationCode": 2543,
    "stopType": "MUNICIPAL_BUS",
    "shortStopName": null,
    "Position": {
      "stopLongitude": "72.543465",
      "stopLatitude": "23.025715"
    },
    "RouteCodes": null,
    "Sequence": 32,
    "routeFlow": null
  },
  {
    "stopName": "Panjarapol",
    "stopCode": 3192,
    "stationCode": 2297,
    "stopType": "MUNICIPAL_BUS",
    "shortStopName": null,
    "Position": {
      "stopLongitude": "72.546213",
      "stopLatitude": "23.026313"
    },
    "RouteCodes": null,
    "Sequence": 33,
    "routeFlow": null
  },
  {
    "stopName": "Polytechnic",
    "stopCode": 3193,
    "stationCode": 2349,
    "stopType": "MUNICIPAL_BUS",
    "shortStopName": null,
    "Position": {
      "stopLongitude": "72.547401",
      "stopLatitude": "23.025305"
    },
    "RouteCodes": null,
    "Sequence": 34,
    "routeFlow": null
  },
  {
    "stopName": "Government Quarters (Cn)",
    "stopCode": 3194,
    "stationCode": 1595,
    "stopType": "MUNICIPAL_BUS",
    "shortStopName": null,
    "Position": {
      "stopLongitude": "72.548895",
      "stopLatitude": "23.024041"
    },
    "RouteCodes": null,
    "Sequence": 35,
    "routeFlow": null
  },
  {
    "stopName": "Football Ground",
    "stopCode": 3214,
    "stationCode": 1499,
    "stopType": "MUNICIPAL_BUS",
    "shortStopName": null,
    "Position": {
      "stopLongitude": "72.596965",
      "stopLatitude": "23.007338"
    },
    "RouteCodes": null,
    "Sequence": 60,
    "routeFlow": null
  },
  {
    "stopName": "Maninagar",
    "stopCode": 3215,
    "stationCode": 2042,
    "stopType": "MUNICIPAL_BUS",
    "shortStopName": null,
    "Position": {
      "stopLongitude": "72.611666",
      "stopLatitude": "22.99774"
    },
    "RouteCodes": null,
    "Sequence": 66,
    "routeFlow": null
  },
  {
    "stopName": "Ashapuri Society (Avkar Hall)",
    "stopCode": 3216,
    "stationCode": 1174,
    "stopType": "MUNICIPAL_BUS",
    "shortStopName": null,
    "Position": {
      "stopLongitude": "72.611373",
      "stopLatitude": "22.98751"
    },
    "RouteCodes": null,
    "Sequence": 74,
    "routeFlow": null
  },
  {
    "stopName": "Ghodasar Gam",
    "stopCode": 3217,
    "stationCode": 1548,
    "stopType": "MUNICIPAL_BUS",
    "shortStopName": null,
    "Position": {
      "stopLongitude": "72.612538",
      "stopLatitude": "22.98459"
    },
    "RouteCodes": null,
    "Sequence": 75,
    "routeFlow": null
  },
  {
    "stopName": "Vandevi Bunglows",
    "stopCode": 3238,
    "stationCode": 2707,
    "stopType": "MUNICIPAL_BUS",
    "shortStopName": null,
    "Position": {
      "stopLongitude": "72.614615",
      "stopLatitude": "22.971628"
    },
    "RouteCodes": null,
    "Sequence": 83,
    "routeFlow": null
  },
  {
    "stopName": "Keshavnagar (Nigam)",
    "stopCode": 3239,
    "stationCode": 1875,
    "stopType": "MUNICIPAL_BUS",
    "shortStopName": null,
    "Position": {
      "stopLongitude": "72.616188",
      "stopLatitude": "22.97129"
    },
    "RouteCodes": null,
    "Sequence": 84,
    "routeFlow": null
  },
  {
    "stopName": "Nigam Society",
    "stopCode": 3240,
    "stationCode": 2218,
    "stopType": "MUNICIPAL_BUS",
    "shortStopName": null,
    "Position": {
      "stopLongitude": "72.619805",
      "stopLatitude": "22.97113"
    },
    "RouteCodes": null,
    "Sequence": 85,
    "routeFlow": null
  },
  {
    "stopName": "Cadila Laboratories",
    "stopCode": 3815,
    "stationCode": 1328,
    "stopType": "MUNICIPAL_BUS",
    "shortStopName": null,
    "Position": {
      "stopLongitude": "72.615363",
      "stopLatitude": "22.982168"
    },
    "RouteCodes": null,
    "Sequence": 76,
    "routeFlow": null
  },
  {
    "stopName": "Jagdish Society",
    "stopCode": 3816,
    "stationCode": 1739,
    "stopType": "MUNICIPAL_BUS",
    "shortStopName": null,
    "Position": {
      "stopLongitude": "72.618726",
      "stopLatitude": "22.979893"
    },
    "RouteCodes": null,
    "Sequence": 77,
    "routeFlow": null
  },
  {
    "stopName": "Hari Krishna Park",
    "stopCode": 3869,
    "stationCode": 1653,
    "stopType": "MUNICIPAL_BUS",
    "shortStopName": null,
    "Position": {
      "stopLongitude": "72.620468",
      "stopLatitude": "22.978186"
    },
    "RouteCodes": null,
    "Sequence": 78,
    "routeFlow": null
  },
  {
    "stopName": "Kamnath Mahadev",
    "stopCode": 4865,
    "stationCode": 1848,
    "stopType": "MUNICIPAL_BUS",
    "shortStopName": null,
    "Position": {
      "stopLongitude": "72.59579",
      "stopLatitude": "23.01446"
    },
    "RouteCodes": null,
    "Sequence": 55,
    "routeFlow": null
  },
  {
    "stopName": "Adam Sahebni Dargah",
    "stopCode": 4866,
    "stationCode": 1066,
    "stopType": "MUNICIPAL_BUS",
    "shortStopName": null,
    "Position": {
      "stopLongitude": "72.596147",
      "stopLatitude": "23.013627"
    },
    "RouteCodes": null,
    "Sequence": 56,
    "routeFlow": null
  },
  {
    "stopName": "Vyayam Vidyalay",
    "stopCode": 4869,
    "stationCode": 3085,
    "stopType": "MUNICIPAL_BUS",
    "shortStopName": null,
    "Position": {
      "stopLongitude": "72.59873",
      "stopLatitude": "23.008873"
    },
    "RouteCodes": null,
    "Sequence": 59,
    "routeFlow": null
  },
  {
    "stopName": "Punitnagar Cross Road",
    "stopCode": 4884,
    "stationCode": 2395,
    "stopType": "MUNICIPAL_BUS",
    "shortStopName": null,
    "Position": {
      "stopLongitude": "72.6206",
      "stopLatitude": "22.977424"
    },
    "RouteCodes": null,
    "Sequence": 79,
    "routeFlow": null
  },
  {
    "stopName": "Yash Bunglows",
    "stopCode": 4885,
    "stationCode": 3093,
    "stopType": "MUNICIPAL_BUS",
    "shortStopName": null,
    "Position": {
      "stopLongitude": "72.617648",
      "stopLatitude": "22.976371"
    },
    "RouteCodes": null,
    "Sequence": 80,
    "routeFlow": null
  },
  {
    "stopName": "Hariomnagar",
    "stopCode": 4886,
    "stationCode": 1661,
    "stopType": "MUNICIPAL_BUS",
    "shortStopName": null,
    "Position": {
      "stopLongitude": "72.616108",
      "stopLatitude": "22.975742"
    },
    "RouteCodes": null,
    "Sequence": 81,
    "routeFlow": null
  },
  {
    "stopName": "Shyam Bunglows",
    "stopCode": 4887,
    "stationCode": 2776,
    "stopType": "MUNICIPAL_BUS",
    "shortStopName": null,
    "Position": {
      "stopLongitude": "72.613922",
      "stopLatitude": "22.972931"
    },
    "RouteCodes": null,
    "Sequence": 82,
    "routeFlow": null
  },
  {
    "stopName": "K.K.Farm",
    "stopCode": 4980,
    "stationCode": 1809,
    "stopType": "MUNICIPAL_BUS",
    "shortStopName": null,
    "Position": {
      "stopLongitude": "72.503966",
      "stopLatitude": "23.040655"
    },
    "RouteCodes": null,
    "Sequence": 14,
    "routeFlow": null
  },
  {
    "stopName": "Friends Avenue",
    "stopCode": 4981,
    "stationCode": 1500,
    "stopType": "MUNICIPAL_BUS",
    "shortStopName": null,
    "Position": {
      "stopLongitude": "72.507178",
      "stopLatitude": "23.040408"
    },
    "RouteCodes": null,
    "Sequence": 15,
    "routeFlow": null
  },
  {
    "stopName": "Mahisagar Kathiyawadi Hotel",
    "stopCode": 4982,
    "stationCode": 2013,
    "stopType": "MUNICIPAL_BUS",
    "shortStopName": null,
    "Position": {
      "stopLongitude": "72.51034",
      "stopLatitude": "23.039373"
    },
    "RouteCodes": null,
    "Sequence": 16,
    "routeFlow": null
  },
  {
    "stopName": "Pakwan",
    "stopCode": 4983,
    "stationCode": 2282,
    "stopType": "MUNICIPAL_BUS",
    "shortStopName": null,
    "Position": {
      "stopLongitude": "72.512713",
      "stopLatitude": "23.038361"
    },
    "RouteCodes": null,
    "Sequence": 17,
    "routeFlow": null
  },
  {
    "stopName": "Sindhu Bhavan",
    "stopCode": 5266,
    "stationCode": 2803,
    "stopType": "MUNICIPAL_BUS",
    "shortStopName": null,
    "Position": {
      "stopLongitude": "72.502026",
      "stopLatitude": "23.040826"
    },
    "RouteCodes": null,
    "Sequence": 13,
    "routeFlow": null
  },
  {
    "stopName": "Garnalu (Shilaj)",
    "stopCode": 5469,
    "stationCode": 1532,
    "stopType": "MUNICIPAL_BUS",
    "shortStopName": null,
    "Position": {
      "stopLongitude": "72.473813",
      "stopLatitude": "23.052354"
    },
    "RouteCodes": null,
    "Sequence": 2,
    "routeFlow": null
  },
  {
    "stopName": "Shan banglows",
    "stopCode": 5719,
    "stationCode": 5045,
    "stopType": "MUNICIPAL_BUS",
    "shortStopName": null,
    "Position": {
      "stopLongitude": "72.47642",
      "stopLatitude": "23.053745"
    },
    "RouteCodes": null,
    "Sequence": 3,
    "routeFlow": null
  },
  {
    "stopName": "Time Square Grand",
    "stopCode": 5936,
    "stationCode": 6528,
    "stopType": "MUNICIPAL_BUS",
    "shortStopName": null,
    "Position": {
      "stopLongitude": "72.499309",
      "stopLatitude": "23.040928"
    },
    "RouteCodes": null,
    "Sequence": 12,
    "routeFlow": null
  },
  {
    "stopName": "Satva Vikas School",
    "stopCode": 5938,
    "stationCode": 6529,
    "stopType": "MUNICIPAL_BUS",
    "shortStopName": null,
    "Position": {
      "stopLongitude": "72.496047",
      "stopLatitude": "23.041175"
    },
    "RouteCodes": null,
    "Sequence": 11,
    "routeFlow": null
  },
  {
    "stopName": "Sport Sankul (Ashvila)",
    "stopCode": 5940,
    "stationCode": 6530,
    "stopType": "MUNICIPAL_BUS",
    "shortStopName": null,
    "Position": {
      "stopLongitude": "72.492056",
      "stopLatitude": "23.041649"
    },
    "RouteCodes": null,
    "Sequence": 10,
    "routeFlow": null
  },
  {
    "stopName": "Ornet Park(Oxyzen Park)",
    "stopCode": 5942,
    "stationCode": 6531,
    "stopType": "MUNICIPAL_BUS",
    "shortStopName": null,
    "Position": {
      "stopLongitude": "72.486378",
      "stopLatitude": "23.042635"
    },
    "RouteCodes": null,
    "Sequence": 8,
    "routeFlow": null
  },
  {
    "stopName": "Sanket Bunglows(Taz Hotel)",
    "stopCode": 5944,
    "stationCode": 6532,
    "stopType": "MUNICIPAL_BUS",
    "shortStopName": null,
    "Position": {
      "stopLongitude": "72.483247",
      "stopLatitude": "23.043285"
    },
    "RouteCodes": null,
    "Sequence": 7,
    "routeFlow": null
  },
  {
    "stopName": "Soham Vistara",
    "stopCode": 5946,
    "stationCode": 6533,
    "stopType": "MUNICIPAL_BUS",
    "shortStopName": null,
    "Position": {
      "stopLongitude": "72.47994",
      "stopLatitude": "23.049271"
    },
    "RouteCodes": null,
    "Sequence": 5,
    "routeFlow": null
  },
  {
    "stopName": "Kalgi Apartment",
    "stopCode": 5955,
    "stationCode": 6537,
    "stopType": "MUNICIPAL_BUS",
    "shortStopName": null,
    "Position": {
      "stopLongitude": "72.609225",
      "stopLatitude": "22.992819"
    },
    "RouteCodes": null,
    "Sequence": 71,
    "routeFlow": null
  },
  {
    "stopName": "Doon School",
    "stopCode": 5957,
    "stationCode": 6538,
    "stopType": "MUNICIPAL_BUS",
    "shortStopName": null,
    "Position": {
      "stopLongitude": "72.60739",
      "stopLatitude": "22.994063"
    },
    "RouteCodes": null,
    "Sequence": 70,
    "routeFlow": null
  },
  {
    "stopName": "Radhavallabh Mandir",
    "stopCode": 5959,
    "stationCode": 2420,
    "stopType": "MUNICIPAL_BUS",
    "shortStopName": null,
    "Position": {
      "stopLongitude": "72.60776",
      "stopLatitude": "22.995016"
    },
    "RouteCodes": null,
    "Sequence": 69,
    "routeFlow": null
  },
  {
    "stopName": "Shakti Bunglows",
    "stopCode": 8672,
    "stationCode": 6101,
    "stopType": "MUNICIPAL_BUS",
    "shortStopName": null,
    "Position": {
      "stopLongitude": "72.489791",
      "stopLatitude": "23.041836"
    },
    "RouteCodes": null,
    "Sequence": 9,
    "routeFlow": null
  },
  {
    "stopName": "Ambli Cross Road",
    "stopCode": 8674,
    "stationCode": 6102,
    "stopType": "MUNICIPAL_BUS",
    "shortStopName": null,
    "Position": {
      "stopLongitude": "72.480358",
      "stopLatitude": "23.043132"
    },
    "RouteCodes": null,
    "Sequence": 6,
    "routeFlow": null
  }
]