[
  {
    "stopName": "Lal Darwaja",
    "stopCode": 1077,
    "stationCode": 1961,
    "stopType": "MUNICIPAL_BUS",
    "shortStopName": null,
    "Position": {
      "stopLongitude": "72.578186",
      "stopLatitude": "23.025053"
    },
    "RouteCodes": null,
    "Sequence": 1,
    "routeFlow": "LINESTRING (72.57818 23.02502, 72.57916 23.02504, 72.57974 23.02504, 72.58001 23.025, 72.58014 23.02489, 72.58036 23.02476, 72.58047 23.02467, 72.58052 23.02458, 72.58055 23.0245, 72.58059 23.02439, 72.58054 23.02425, 72.58044 23.02405, 72.58038 23.02398, 72.58018 23.02386, 72.5797 23.02365, 72.57949 23.02352, 72.57956 23.02302, 72.57959 23.02226, 72.57959 23.02218, 72.57997 23.02214, 72.58033 23.02207, 72.58079 23.02199, 72.580795 23.022007, 72.58198 23.02181, 72.58305 23.02162, 72.58365 23.0215, 72.58365 23.0215, 72.5841 23.02141, 72.5845 23.02126, 72.58474 23.02112, 72.58512 23.02084, 72.58542 23.02055, 72.58613 23.01988, 72.58622 23.01977, 72.58622 23.01977, 72.58649 23.01954, 72.58665 23.01943, 72.58719 23.01919, 72.58857 23.0187, 72.58857 23.0187, 72.58902 23.01854, 72.5894 23.01832, 72.58957 23.01813, 72.58976 23.01768, 72.58998 23.0173, 72.59014 23.01713, 72.59046 23.01694, 72.59064 23.01691, 72.59084 23.01692, 72.59091 23.01696, 72.59099 23.01696, 72.59106 23.01693, 72.5911 23.0169, 72.59139 23.01685, 72.5922 23.0169, 72.59285 23.01694, 72.59329 23.017, 72.59329 23.017, 72.59467 23.01725, 72.59484 23.01728, 72.59484 23.01721, 72.59502 23.0162, 72.59502 23.0162, 72.59509 23.0159, 72.59529 23.01542, 72.59578 23.01445, 72.59578 23.01445, 72.59594 23.0141, 72.59609 23.01361, 72.59609 23.01361, 72.59612 23.01352, 72.59644 23.01306, 72.59742 23.01185, 72.59742 23.01185, 72.59893 23.00997, 72.59908 23.0098, 72.59908 23.0098, 72.59928 23.00956, 72.59933 23.0095, 72.59926 23.00945, 72.5987 23.0089, 72.5987 23.0089, 72.59849 23.00866, 72.59818 23.00824, 72.59796 23.00813, 72.5977 23.00801, 72.59754 23.00791, 72.59731 23.00775, 72.59718 23.00763, 72.59694 23.00736, 72.59694 23.00736, 72.59669 23.00708, 72.59632 23.00674, 72.59698 23.00577, 72.59742 23.00498, 72.59766 23.00449, 72.59778 23.0042, 72.59797 23.00363, 72.59814 23.0032, 72.59824 23.00304, 72.59837 23.00296, 72.59877 23.00282, 72.59877 23.00282, 72.59914 23.00269, 72.59918 23.00267, 72.59931 23.00246, 72.59949 23.00203, 72.59955 23.00191, 72.59987 23.00127, 72.60036 23.00044, 72.60051 23.0002, 72.60051 23.0002, 72.60098 22.99953, 72.60131 22.99914, 72.6015 22.99889, 72.60153 22.99886, 72.60153 22.99885, 72.60186 22.99858, 72.60231 22.99828, 72.60317 22.99783, 72.60388 22.99756, 72.60388 22.99756, 72.60457 22.99738, 72.60481 22.99735, 72.60581 22.99728, 72.60677 22.99727, 72.60771 22.99728, 72.60796 22.9973, 72.60796 22.9973, 72.60834 22.99733, 72.60882 22.99745, 72.60937 22.99761, 72.61005 22.99787, 72.61066 22.99814, 72.61127 22.99846, 72.61151 22.99791, 72.61161 22.99772, 72.61161 22.99772, 72.61184 22.99721, 72.61191 22.99716, 72.61224 22.99645, 72.61289 22.99505, 72.61299 22.99484, 72.61299 22.99481, 72.61292 22.99479, 72.61262 22.99478, 72.61198 22.9948, 72.61198 22.9948, 72.61141 22.99483, 72.61088 22.99492, 72.61058 22.99498, 72.61058 22.99498, 72.61018 22.99504, 72.60965 22.99507, 72.60852 22.99507, 72.60777 22.9951, 72.60774 22.99502, 72.60774 22.99502, 72.60767 22.99476, 72.60756 22.99445, 72.60738 22.99407, 72.60738 22.99407, 72.6073 22.99389, 72.60764 22.99368, 72.60773 22.99358, 72.60795 22.99342, 72.60826 22.99322, 72.60838 22.99314, 72.60903 22.99288, 72.6092 22.99278, 72.6092 22.99278, 72.60981 22.99243, 72.61029 22.99217, 72.61163 22.99157, 72.61154 22.99128, 72.61154 22.99128, 72.61125 22.99036, 72.61118 22.99, 72.61116 22.98971, 72.61123 22.98969, 72.61123 22.98969, 72.61116 22.98971, 72.61112 22.98921, 72.61101 22.98883, 72.61095 22.98859, 72.61089 22.9883, 72.61105 22.98819, 72.61116 22.98808, 72.61121 22.98801, 72.61133 22.98783, 72.61135 22.98781, 72.61136 22.9878, 72.61137 22.98776, 72.61135 22.98772, 72.6113 22.98752, 72.6113 22.98752, 72.61126 22.9869, 72.61128 22.98679, 72.61133 22.98668, 72.61141 22.98649, 72.61147 22.98645, 72.61153 22.98635, 72.61159 22.9862, 72.61189 22.98534, 72.61197 22.98518, 72.61208 22.98493, 72.61222 22.98472, 72.61231 22.98464, 72.6125 22.98453, 72.6125 22.98453, 72.61275 22.98439, 72.61311 22.98425, 72.61319 22.9842, 72.61383 22.98351, 72.61481 22.98262, 72.61535 22.98216, 72.61535 22.98216, 72.61589 22.98172, 72.61666 22.98116, 72.61743 22.98068, 72.61757 22.98058, 72.61871 22.97987, 72.61871 22.97987, 72.61912 22.97961, 72.61981 22.97906, 72.62002 22.97891, 72.62014 22.9788, 72.62024 22.97868, 72.62037 22.97834, 72.62044 22.97818, 72.62044 22.97818, 72.62072 22.97751, 72.62059 22.97746, 72.62059 22.97746, 72.61993 22.97722, 72.61879 22.9768, 72.61764 22.97639, 72.61764 22.9764, 72.61688 22.97611, 72.61635 22.97588, 72.61621 22.97581, 72.6161 22.97576, 72.6161 22.97576, 72.6155 22.97546, 72.61531 22.97534, 72.61513 22.9752, 72.61495 22.97501, 72.61481 22.97483, 72.61448 22.97432, 72.61436 22.97398, 72.61412 22.97343, 72.6139 22.97296, 72.61393 22.97295, 72.61388 22.97296, 72.6138 22.97273, 72.61362 22.97231, 72.61445 22.97169, 72.61461 22.97161, 72.61461 22.97161, 72.615 22.97143, 72.6151 22.97143, 72.61535 22.97139, 72.61613 22.97128, 72.61619 22.97128, 72.61619 22.97125, 72.61765 22.97117, 72.61909 22.97114, 72.61982 22.97113)"
  },
  {
    "stopName": "Astodiya Darwaja",
    "stopCode": 1299,
    "stationCode": 1197,
    "stopType": "MUNICIPAL_BUS",
    "shortStopName": null,
    "Position": {
      "stopLongitude": "72.593273",
      "stopLatitude": "23.01708"
    },
    "RouteCodes": null,
    "Sequence": 6,
    "routeFlow": null
  },
  {
    "stopName": "Raipur Darwaja",
    "stopCode": 1300,
    "stationCode": 2497,
    "stopType": "MUNICIPAL_BUS",
    "shortStopName": null,
    "Position": {
      "stopLongitude": "72.595075",
      "stopLatitude": "23.01621"
    },
    "RouteCodes": null,
    "Sequence": 7,
    "routeFlow": null
  },
  {
    "stopName": "Parsi Agiyari",
    "stopCode": 1303,
    "stationCode": 2318,
    "stopType": "MUNICIPAL_BUS",
    "shortStopName": null,
    "Position": {
      "stopLongitude": "72.597448",
      "stopLatitude": "23.011873"
    },
    "RouteCodes": null,
    "Sequence": 10,
    "routeFlow": null
  },
  {
    "stopName": "The Arena (Abad Dairy)",
    "stopCode": 1304,
    "stationCode": 1054,
    "stopType": "MUNICIPAL_BUS",
    "shortStopName": null,
    "Position": {
      "stopLongitude": "72.599133",
      "stopLatitude": "23.009843"
    },
    "RouteCodes": null,
    "Sequence": 11,
    "routeFlow": null
  },
  {
    "stopName": "Aradhana Society",
    "stopCode": 1313,
    "stationCode": 1153,
    "stopType": "MUNICIPAL_BUS",
    "shortStopName": null,
    "Position": {
      "stopLongitude": "72.611558",
      "stopLatitude": "22.991276"
    },
    "RouteCodes": null,
    "Sequence": 25,
    "routeFlow": null
  },
  {
    "stopName": "Kumbhanath Society",
    "stopCode": 1314,
    "stationCode": 1935,
    "stopType": "MUNICIPAL_BUS",
    "shortStopName": null,
    "Position": {
      "stopLongitude": "72.611231",
      "stopLatitude": "22.989675"
    },
    "RouteCodes": null,
    "Sequence": 26,
    "routeFlow": null
  },
  {
    "stopName": "Tilakbag",
    "stopCode": 2223,
    "stationCode": 2941,
    "stopType": "MUNICIPAL_BUS",
    "shortStopName": null,
    "Position": {
      "stopLongitude": "72.580798",
      "stopLatitude": "23.022018"
    },
    "RouteCodes": null,
    "Sequence": 2,
    "routeFlow": null
  },
  {
    "stopName": "Khamasa",
    "stopCode": 2224,
    "stationCode": 1879,
    "stopType": "MUNICIPAL_BUS",
    "shortStopName": null,
    "Position": {
      "stopLongitude": "72.583653",
      "stopLatitude": "23.021513"
    },
    "RouteCodes": null,
    "Sequence": 3,
    "routeFlow": null
  },
  {
    "stopName": "Sardar Bhavan (Gol Limda)",
    "stopCode": 2225,
    "stationCode": 2601,
    "stopType": "MUNICIPAL_BUS",
    "shortStopName": null,
    "Position": {
      "stopLongitude": "72.58625",
      "stopLatitude": "23.01979"
    },
    "RouteCodes": null,
    "Sequence": 4,
    "routeFlow": null
  },
  {
    "stopName": "Astodiya Chakla",
    "stopCode": 2226,
    "stationCode": 1195,
    "stopType": "MUNICIPAL_BUS",
    "shortStopName": null,
    "Position": {
      "stopLongitude": "72.588583",
      "stopLatitude": "23.018735"
    },
    "RouteCodes": null,
    "Sequence": 5,
    "routeFlow": null
  },
  {
    "stopName": "Pushpakunj-Shukladada Chowk",
    "stopCode": 2235,
    "stationCode": 2400,
    "stopType": "MUNICIPAL_BUS",
    "shortStopName": null,
    "Position": {
      "stopLongitude": "72.598783",
      "stopLatitude": "23.002841"
    },
    "RouteCodes": null,
    "Sequence": 14,
    "routeFlow": null
  },
  {
    "stopName": "Shelat Bhuvan",
    "stopCode": 2236,
    "stationCode": 2712,
    "stopType": "MUNICIPAL_BUS",
    "shortStopName": null,
    "Position": {
      "stopLongitude": "72.600586",
      "stopLatitude": "23.000241"
    },
    "RouteCodes": null,
    "Sequence": 15,
    "routeFlow": null
  },
  {
    "stopName": "Rambag",
    "stopCode": 2237,
    "stationCode": 2464,
    "stopType": "MUNICIPAL_BUS",
    "shortStopName": null,
    "Position": {
      "stopLongitude": "72.60157",
      "stopLatitude": "22.99889"
    },
    "RouteCodes": null,
    "Sequence": 16,
    "routeFlow": null
  },
  {
    "stopName": "Krushna bag",
    "stopCode": 2238,
    "stationCode": 1924,
    "stopType": "MUNICIPAL_BUS",
    "shortStopName": null,
    "Position": {
      "stopLongitude": "72.603876",
      "stopLatitude": "22.997546"
    },
    "RouteCodes": null,
    "Sequence": 17,
    "routeFlow": null
  },
  {
    "stopName": "Maninagar Railway Crossing",
    "stopCode": 2876,
    "stationCode": 2044,
    "stopType": "MUNICIPAL_BUS",
    "shortStopName": null,
    "Position": {
      "stopLongitude": "72.611976",
      "stopLatitude": "22.994785"
    },
    "RouteCodes": null,
    "Sequence": 20,
    "routeFlow": null
  },
  {
    "stopName": "Swaminarayan Mandir (Maninagar)",
    "stopCode": 2877,
    "stationCode": 2891,
    "stopType": "MUNICIPAL_BUS",
    "shortStopName": null,
    "Position": {
      "stopLongitude": "72.61057",
      "stopLatitude": "22.994919"
    },
    "RouteCodes": null,
    "Sequence": 21,
    "routeFlow": null
  },
  {
    "stopName": "Maninagar Char Rasta",
    "stopCode": 2945,
    "stationCode": 2043,
    "stopType": "MUNICIPAL_BUS",
    "shortStopName": null,
    "Position": {
      "stopLongitude": "72.607961",
      "stopLatitude": "22.997288"
    },
    "RouteCodes": null,
    "Sequence": 18,
    "routeFlow": null
  },
  {
    "stopName": "Football Ground",
    "stopCode": 3214,
    "stationCode": 1499,
    "stopType": "MUNICIPAL_BUS",
    "shortStopName": null,
    "Position": {
      "stopLongitude": "72.596965",
      "stopLatitude": "23.007338"
    },
    "RouteCodes": null,
    "Sequence": 13,
    "routeFlow": null
  },
  {
    "stopName": "Maninagar",
    "stopCode": 3215,
    "stationCode": 2042,
    "stopType": "MUNICIPAL_BUS",
    "shortStopName": null,
    "Position": {
      "stopLongitude": "72.611666",
      "stopLatitude": "22.99774"
    },
    "RouteCodes": null,
    "Sequence": 19,
    "routeFlow": null
  },
  {
    "stopName": "Ashapuri Society (Avkar Hall)",
    "stopCode": 3216,
    "stationCode": 1174,
    "stopType": "MUNICIPAL_BUS",
    "shortStopName": null,
    "Position": {
      "stopLongitude": "72.611373",
      "stopLatitude": "22.98751"
    },
    "RouteCodes": null,
    "Sequence": 27,
    "routeFlow": null
  },
  {
    "stopName": "Ghodasar Gam",
    "stopCode": 3217,
    "stationCode": 1548,
    "stopType": "MUNICIPAL_BUS",
    "shortStopName": null,
    "Position": {
      "stopLongitude": "72.612538",
      "stopLatitude": "22.98459"
    },
    "RouteCodes": null,
    "Sequence": 28,
    "routeFlow": null
  },
  {
    "stopName": "Vandevi Bunglows",
    "stopCode": 3238,
    "stationCode": 2707,
    "stopType": "MUNICIPAL_BUS",
    "shortStopName": null,
    "Position": {
      "stopLongitude": "72.614615",
      "stopLatitude": "22.971628"
    },
    "RouteCodes": null,
    "Sequence": 36,
    "routeFlow": null
  },
  {
    "stopName": "Keshavnagar (Nigam)",
    "stopCode": 3239,
    "stationCode": 1875,
    "stopType": "MUNICIPAL_BUS",
    "shortStopName": null,
    "Position": {
      "stopLongitude": "72.616188",
      "stopLatitude": "22.97129"
    },
    "RouteCodes": null,
    "Sequence": 37,
    "routeFlow": null
  },
  {
    "stopName": "Nigam Society",
    "stopCode": 3240,
    "stationCode": 2218,
    "stopType": "MUNICIPAL_BUS",
    "shortStopName": null,
    "Position": {
      "stopLongitude": "72.619805",
      "stopLatitude": "22.97113"
    },
    "RouteCodes": null,
    "Sequence": 38,
    "routeFlow": null
  },
  {
    "stopName": "Cadila Laboratories",
    "stopCode": 3815,
    "stationCode": 1328,
    "stopType": "MUNICIPAL_BUS",
    "shortStopName": null,
    "Position": {
      "stopLongitude": "72.615363",
      "stopLatitude": "22.982168"
    },
    "RouteCodes": null,
    "Sequence": 29,
    "routeFlow": null
  },
  {
    "stopName": "Jagdish Society",
    "stopCode": 3816,
    "stationCode": 1739,
    "stopType": "MUNICIPAL_BUS",
    "shortStopName": null,
    "Position": {
      "stopLongitude": "72.618726",
      "stopLatitude": "22.979893"
    },
    "RouteCodes": null,
    "Sequence": 30,
    "routeFlow": null
  },
  {
    "stopName": "Hari Krishna Park",
    "stopCode": 3869,
    "stationCode": 1653,
    "stopType": "MUNICIPAL_BUS",
    "shortStopName": null,
    "Position": {
      "stopLongitude": "72.620468",
      "stopLatitude": "22.978186"
    },
    "RouteCodes": null,
    "Sequence": 31,
    "routeFlow": null
  },
  {
    "stopName": "Kamnath Mahadev",
    "stopCode": 4865,
    "stationCode": 1848,
    "stopType": "MUNICIPAL_BUS",
    "shortStopName": null,
    "Position": {
      "stopLongitude": "72.59579",
      "stopLatitude": "23.01446"
    },
    "RouteCodes": null,
    "Sequence": 8,
    "routeFlow": null
  },
  {
    "stopName": "Adam Sahebni Dargah",
    "stopCode": 4866,
    "stationCode": 1066,
    "stopType": "MUNICIPAL_BUS",
    "shortStopName": null,
    "Position": {
      "stopLongitude": "72.596147",
      "stopLatitude": "23.013627"
    },
    "RouteCodes": null,
    "Sequence": 9,
    "routeFlow": null
  },
  {
    "stopName": "Vyayam Vidyalay",
    "stopCode": 4869,
    "stationCode": 3085,
    "stopType": "MUNICIPAL_BUS",
    "shortStopName": null,
    "Position": {
      "stopLongitude": "72.59873",
      "stopLatitude": "23.008873"
    },
    "RouteCodes": null,
    "Sequence": 12,
    "routeFlow": null
  },
  {
    "stopName": "Punitnagar Cross Road",
    "stopCode": 4884,
    "stationCode": 2395,
    "stopType": "MUNICIPAL_BUS",
    "shortStopName": null,
    "Position": {
      "stopLongitude": "72.6206",
      "stopLatitude": "22.977424"
    },
    "RouteCodes": null,
    "Sequence": 32,
    "routeFlow": null
  },
  {
    "stopName": "Yash Bunglows",
    "stopCode": 4885,
    "stationCode": 3093,
    "stopType": "MUNICIPAL_BUS",
    "shortStopName": null,
    "Position": {
      "stopLongitude": "72.617648",
      "stopLatitude": "22.976371"
    },
    "RouteCodes": null,
    "Sequence": 33,
    "routeFlow": null
  },
  {
    "stopName": "Hariomnagar",
    "stopCode": 4886,
    "stationCode": 1661,
    "stopType": "MUNICIPAL_BUS",
    "shortStopName": null,
    "Position": {
      "stopLongitude": "72.616108",
      "stopLatitude": "22.975742"
    },
    "RouteCodes": null,
    "Sequence": 34,
    "routeFlow": null
  },
  {
    "stopName": "Shyam Bunglows",
    "stopCode": 4887,
    "stationCode": 2776,
    "stopType": "MUNICIPAL_BUS",
    "shortStopName": null,
    "Position": {
      "stopLongitude": "72.613922",
      "stopLatitude": "22.972931"
    },
    "RouteCodes": null,
    "Sequence": 35,
    "routeFlow": null
  },
  {
    "stopName": "Kalgi Apartment",
    "stopCode": 5955,
    "stationCode": 6537,
    "stopType": "MUNICIPAL_BUS",
    "shortStopName": null,
    "Position": {
      "stopLongitude": "72.609225",
      "stopLatitude": "22.992819"
    },
    "RouteCodes": null,
    "Sequence": 24,
    "routeFlow": null
  },
  {
    "stopName": "Doon School",
    "stopCode": 5957,
    "stationCode": 6538,
    "stopType": "MUNICIPAL_BUS",
    "shortStopName": null,
    "Position": {
      "stopLongitude": "72.60739",
      "stopLatitude": "22.994063"
    },
    "RouteCodes": null,
    "Sequence": 23,
    "routeFlow": null
  },
  {
    "stopName": "Radhavallabh Mandir",
    "stopCode": 5959,
    "stationCode": 2420,
    "stopType": "MUNICIPAL_BUS",
    "shortStopName": null,
    "Position": {
      "stopLongitude": "72.60776",
      "stopLatitude": "22.995016"
    },
    "RouteCodes": null,
    "Sequence": 22,
    "routeFlow": null
  }
]