[
  {
    "stopName": "Nutan Society",
    "stopCode": 1068,
    "stationCode": 2250,
    "stopType": "MUNICIPAL_BUS",
    "shortStopName": null,
    "Position": {
      "stopLongitude": "72.559683",
      "stopLatitude": "23.014221"
    },
    "RouteCodes": null,
    "Sequence": 34,
    "routeFlow": "LINESTRING (72.5033 23.01178, 72.50625 23.01193, 72.50625 23.01193, 72.50677 23.01194, 72.50683 23.01029, 72.50692 23.0088, 72.50695 23.00856, 72.50695 23.00856, 72.50699 23.00811, 72.50638 23.0072, 72.50638 23.0072, 72.50577 23.00631, 72.50496 23.00509, 72.50495 23.00507, 72.50495 23.00507, 72.50463 23.00463, 72.50447 23.00442, 72.50344 23.00293, 72.50286 23.00206, 72.5025 23.0015, 72.50233 23.00124, 72.50233 23.00124, 72.50139 22.99984, 72.50092 22.99911, 72.5015 22.99876, 72.50151 22.99877, 72.50193 22.99854, 72.50198 22.99856, 72.50357 22.99982, 72.50357 22.99982, 72.50541 23.00128, 72.50541 23.00128, 72.50739 23.00283, 72.5074 23.00281, 72.50871 23.00386, 72.50871 23.00386, 72.5109 23.00561, 72.5109 23.00561, 72.51219 23.00662, 72.51224 23.00664, 72.51227 23.00664, 72.51257 23.00686, 72.51311 23.00719, 72.51392 23.00758, 72.51396 23.0076, 72.51396 23.0076, 72.51442 23.00773, 72.51461 23.00778, 72.51525 23.00787, 72.51659 23.008, 72.51659 23.008, 72.51686 23.00803, 72.51689 23.00818, 72.51697 23.00853, 72.51707 23.0089, 72.51707 23.0089, 72.51724 23.00946, 72.51726 23.00952, 72.51733 23.00952, 72.51848 23.00968, 72.51952 23.00977, 72.51952 23.00977, 72.52074 23.0098, 72.52181 23.00983, 72.52181 23.00983, 72.52362 23.0099, 72.52362 23.0099, 72.52451 23.00994, 72.52499 23.00999, 72.52674 23.01015, 72.52735 23.01021, 72.52735 23.01021, 72.52976 23.01053, 72.53123 23.0107, 72.53123 23.0107, 72.53158 23.01074, 72.53167 23.01071, 72.53322 23.01085, 72.53322 23.01085, 72.53373 23.0109, 72.53373 23.01162, 72.53376 23.01228, 72.53377 23.01254, 72.53377 23.01254, 72.53378 23.01371, 72.53377 23.01424, 72.53377 23.01473, 72.53377 23.01516, 72.53367 23.01527, 72.53365 23.01536, 72.53374 23.01537, 72.53387 23.01535, 72.53406 23.0154, 72.53435 23.01546, 72.53448 23.01546, 72.53448 23.01546, 72.53504 23.01546, 72.53538 23.0155, 72.53569 23.01557, 72.53675 23.01592, 72.53713 23.01609, 72.53803 23.01656, 72.53818 23.01662, 72.53851 23.01668, 72.53853 23.01668, 72.53853 23.01668, 72.53973 23.01676, 72.5408 23.01692, 72.54148 23.01699, 72.54249 23.01713, 72.54256 23.01692, 72.54256 23.01692, 72.54273 23.01643, 72.54278 23.01617, 72.54279 23.01587, 72.54279 23.01568, 72.54279 23.01568, 72.54273 23.01439, 72.54273 23.01439, 72.54268 23.01339, 72.54365 23.01366, 72.54417 23.01376, 72.54502 23.01402, 72.54564 23.01419, 72.54564 23.01419, 72.54662 23.01445, 72.54715 23.01464, 72.54734 23.01476, 72.54768 23.01521, 72.54801 23.01553, 72.54801 23.01553, 72.54876 23.01619, 72.54957 23.01675, 72.54959 23.01677, 72.55066 23.01758, 72.5516 23.01841, 72.55192 23.01871, 72.55207 23.01882, 72.5521 23.01884, 72.55279 23.01927, 72.55296 23.01934, 72.55311 23.01938, 72.55429 23.01962, 72.5545 23.0197, 72.55464 23.01979, 72.55469 23.01975, 72.5548 23.01969, 72.55493 23.01968, 72.55508 23.01962, 72.5552 23.01957, 72.5552 23.01957, 72.55548 23.01945, 72.55599 23.01929, 72.55602 23.01929, 72.55629 23.01924, 72.55645 23.01925, 72.5566 23.01929, 72.55695 23.01944, 72.55739 23.01967, 72.55749 23.01972, 72.5575 23.01963, 72.55764 23.01905, 72.55805 23.01738, 72.55823 23.01675, 72.55824 23.01672, 72.55844 23.01609, 72.55856 23.0158, 72.55882 23.01531, 72.559 23.01501, 72.55909 23.01489, 72.55938 23.01451, 72.55964 23.01419, 72.55964 23.01419, 72.5602 23.01361, 72.56048 23.01333, 72.56118 23.01272, 72.56141 23.01251, 72.56141 23.01251, 72.56208 23.01194, 72.56285 23.01132, 72.56294 23.01127, 72.56301 23.01123, 72.56318 23.01156, 72.56318 23.01156, 72.5632 23.01161, 72.5632 23.01161, 72.56353 23.01218, 72.56387 23.01269, 72.56467 23.01383, 72.56467 23.01383, 72.565 23.01427, 72.56594 23.01541, 72.56707 23.01677, 72.56746 23.01726, 72.56746 23.01726, 72.56814 23.0181, 72.56814 23.0181, 72.56903 23.01915, 72.56903 23.01915, 72.56954 23.01975, 72.57032 23.02072, 72.57027 23.02074, 72.57029 23.02069, 72.57045 23.02089, 72.57097 23.02137, 72.57116 23.0216, 72.57125 23.02181, 72.57128 23.02193, 72.57129 23.02207, 72.57125 23.02306, 72.57124 23.02347, 72.57126 23.02409, 72.57126 23.02409, 72.57125 23.025, 72.57123 23.025, 72.57115 23.02616, 72.57111 23.02667, 72.57251 23.02678, 72.57841 23.02725, 72.57865 23.02727, 72.57869 23.02727, 72.58005 23.02736, 72.58111 23.02732, 72.5813 23.02725, 72.58135 23.02722, 72.58136 23.02709, 72.5814 23.02643, 72.58107 23.0264, 72.58082 23.02643, 72.58059 23.02624, 72.58062 23.02571, 72.58064 23.02532, 72.58064 23.02532, 72.58064 23.02493, 72.58062 23.02472, 72.58065 23.0245, 72.58064 23.02448, 72.58054 23.02425, 72.58044 23.02405, 72.58038 23.02398, 72.58018 23.02386, 72.5797 23.02365, 72.57949 23.02352, 72.57923 23.02351, 72.57914 23.02354, 72.57906 23.0237, 72.57906 23.02401, 72.57904 23.02434, 72.57864 23.02437, 72.57827 23.02436, 72.57802 23.02438, 72.57798 23.02441, 72.57795 23.0245, 72.57792 23.02493, 72.5779 23.02502, 72.5781 23.02502, 72.57818 23.02502)"
  },
  {
    "stopName": "Tolaknagar",
    "stopCode": 1069,
    "stationCode": 2944,
    "stopType": "MUNICIPAL_BUS",
    "shortStopName": null,
    "Position": {
      "stopLongitude": "72.561428",
      "stopLatitude": "23.012528"
    },
    "RouteCodes": null,
    "Sequence": 35,
    "routeFlow": null
  },
  {
    "stopName": "Pritamnagar",
    "stopCode": 1070,
    "stationCode": 2389,
    "stopType": "MUNICIPAL_BUS",
    "shortStopName": null,
    "Position": {
      "stopLongitude": "72.567445",
      "stopLatitude": "23.017276"
    },
    "RouteCodes": null,
    "Sequence": 39,
    "routeFlow": null
  },
  {
    "stopName": "Arvind Sales Emporium",
    "stopCode": 1071,
    "stationCode": 1167,
    "stopType": "MUNICIPAL_BUS",
    "shortStopName": null,
    "Position": {
      "stopLongitude": "72.568106",
      "stopLatitude": "23.018118"
    },
    "RouteCodes": null,
    "Sequence": 40,
    "routeFlow": null
  },
  {
    "stopName": "V.S. Hospital",
    "stopCode": 1072,
    "stationCode": 2977,
    "stopType": "MUNICIPAL_BUS",
    "shortStopName": null,
    "Position": {
      "stopLongitude": "72.570281",
      "stopLatitude": "23.020746"
    },
    "RouteCodes": null,
    "Sequence": 42,
    "routeFlow": null
  },
  {
    "stopName": "Sanyas Ashram",
    "stopCode": 1073,
    "stationCode": 2588,
    "stopType": "MUNICIPAL_BUS",
    "shortStopName": null,
    "Position": {
      "stopLongitude": "72.571266",
      "stopLatitude": "23.024094"
    },
    "RouteCodes": null,
    "Sequence": 43,
    "routeFlow": null
  },
  {
    "stopName": "Gandhigram Railway Station",
    "stopCode": 1074,
    "stationCode": 1522,
    "stopType": "MUNICIPAL_BUS",
    "shortStopName": null,
    "Position": {
      "stopLongitude": "72.571216",
      "stopLatitude": "23.024998"
    },
    "RouteCodes": null,
    "Sequence": 44,
    "routeFlow": null
  },
  {
    "stopName": "Sardarbag",
    "stopCode": 1075,
    "stationCode": 2611,
    "stopType": "MUNICIPAL_BUS",
    "shortStopName": null,
    "Position": {
      "stopLongitude": "72.578645",
      "stopLatitude": "23.027351"
    },
    "RouteCodes": null,
    "Sequence": 45,
    "routeFlow": null
  },
  {
    "stopName": "Apna Bazar",
    "stopCode": 1076,
    "stationCode": 1150,
    "stopType": "MUNICIPAL_BUS",
    "shortStopName": null,
    "Position": {
      "stopLongitude": "72.580705",
      "stopLatitude": "23.025321"
    },
    "RouteCodes": null,
    "Sequence": 46,
    "routeFlow": null
  },
  {
    "stopName": "Lal Darwaja",
    "stopCode": 1077,
    "stationCode": 1961,
    "stopType": "MUNICIPAL_BUS",
    "shortStopName": null,
    "Position": {
      "stopLongitude": "72.578186",
      "stopLatitude": "23.025053"
    },
    "RouteCodes": null,
    "Sequence": 47,
    "routeFlow": null
  },
  {
    "stopName": "Mahalakshmi Society",
    "stopCode": 1292,
    "stationCode": 2000,
    "stopType": "MUNICIPAL_BUS",
    "shortStopName": null,
    "Position": {
      "stopLongitude": "72.563213",
      "stopLatitude": "23.011543"
    },
    "RouteCodes": null,
    "Sequence": 36,
    "routeFlow": null
  },
  {
    "stopName": "Paldi",
    "stopCode": 1293,
    "stationCode": 2284,
    "stopType": "MUNICIPAL_BUS",
    "shortStopName": null,
    "Position": {
      "stopLongitude": "72.564703",
      "stopLatitude": "23.013808"
    },
    "RouteCodes": null,
    "Sequence": 38,
    "routeFlow": null
  },
  {
    "stopName": "Congress Bhavan",
    "stopCode": 1725,
    "stationCode": 1405,
    "stopType": "MUNICIPAL_BUS",
    "shortStopName": null,
    "Position": {
      "stopLongitude": "72.568988",
      "stopLatitude": "23.019175"
    },
    "RouteCodes": null,
    "Sequence": 41,
    "routeFlow": null
  },
  {
    "stopName": "Kameshwar Twins Bunglows",
    "stopCode": 2024,
    "stationCode": 1847,
    "stopType": "MUNICIPAL_BUS",
    "shortStopName": null,
    "Position": {
      "stopLongitude": "72.53448",
      "stopLatitude": "23.015518"
    },
    "RouteCodes": null,
    "Sequence": 23,
    "routeFlow": null
  },
  {
    "stopName": "Prahladnagar Cross Road",
    "stopCode": 3736,
    "stationCode": 2362,
    "stopType": "MUNICIPAL_BUS",
    "shortStopName": null,
    "Position": {
      "stopLongitude": "72.503296",
      "stopLatitude": "23.011835"
    },
    "RouteCodes": null,
    "Sequence": 1,
    "routeFlow": null
  },
  {
    "stopName": "Prahladnagar Garden",
    "stopCode": 3802,
    "stationCode": 2363,
    "stopType": "MUNICIPAL_BUS",
    "shortStopName": null,
    "Position": {
      "stopLongitude": "72.506243",
      "stopLatitude": "23.011975"
    },
    "RouteCodes": null,
    "Sequence": 2,
    "routeFlow": null
  },
  {
    "stopName": "Parshwanath Square",
    "stopCode": 5408,
    "stationCode": 2315,
    "stopType": "MUNICIPAL_BUS",
    "shortStopName": null,
    "Position": {
      "stopLongitude": "72.50696",
      "stopLatitude": "23.008561"
    },
    "RouteCodes": null,
    "Sequence": 3,
    "routeFlow": null
  },
  {
    "stopName": "Shalin Bunglows",
    "stopCode": 5409,
    "stationCode": 2695,
    "stopType": "MUNICIPAL_BUS",
    "shortStopName": null,
    "Position": {
      "stopLongitude": "72.504956",
      "stopLatitude": "23.00507"
    },
    "RouteCodes": null,
    "Sequence": 5,
    "routeFlow": null
  },
  {
    "stopName": "Vodafon Office",
    "stopCode": 5410,
    "stationCode": 3078,
    "stopType": "MUNICIPAL_BUS",
    "shortStopName": null,
    "Position": {
      "stopLongitude": "72.502298",
      "stopLatitude": "23.001256"
    },
    "RouteCodes": null,
    "Sequence": 6,
    "routeFlow": null
  },
  {
    "stopName": "Dev Prime",
    "stopCode": 5411,
    "stationCode": 5042,
    "stopType": "MUNICIPAL_BUS",
    "shortStopName": null,
    "Position": {
      "stopLongitude": "72.501541",
      "stopLatitude": "22.998816"
    },
    "RouteCodes": null,
    "Sequence": 7,
    "routeFlow": null
  },
  {
    "stopName": "Makarba Torrent Power Station",
    "stopCode": 5412,
    "stationCode": 2019,
    "stopType": "MUNICIPAL_BUS",
    "shortStopName": null,
    "Position": {
      "stopLongitude": "72.507381",
      "stopLatitude": "23.002833"
    },
    "RouteCodes": null,
    "Sequence": 10,
    "routeFlow": null
  },
  {
    "stopName": "Krushna Dham-1",
    "stopCode": 5413,
    "stationCode": 1920,
    "stopType": "MUNICIPAL_BUS",
    "shortStopName": null,
    "Position": {
      "stopLongitude": "72.508711",
      "stopLatitude": "23.003863"
    },
    "RouteCodes": null,
    "Sequence": 11,
    "routeFlow": null
  },
  {
    "stopName": "Krushna Dham-3",
    "stopCode": 5414,
    "stationCode": 1921,
    "stopType": "MUNICIPAL_BUS",
    "shortStopName": null,
    "Position": {
      "stopLongitude": "72.510911",
      "stopLatitude": "23.005596"
    },
    "RouteCodes": null,
    "Sequence": 12,
    "routeFlow": null
  },
  {
    "stopName": "Shaktinilay Society",
    "stopCode": 5415,
    "stationCode": 2692,
    "stopType": "MUNICIPAL_BUS",
    "shortStopName": null,
    "Position": {
      "stopLongitude": "72.513961",
      "stopLatitude": "23.007601"
    },
    "RouteCodes": null,
    "Sequence": 13,
    "routeFlow": null
  },
  {
    "stopName": "Vastrapur Railway Crossing",
    "stopCode": 5416,
    "stationCode": 3022,
    "stopType": "MUNICIPAL_BUS",
    "shortStopName": null,
    "Position": {
      "stopLongitude": "72.516581",
      "stopLatitude": "23.008051"
    },
    "RouteCodes": null,
    "Sequence": 14,
    "routeFlow": null
  },
  {
    "stopName": "P&T Quarters (Vastrapur)",
    "stopCode": 5417,
    "stationCode": 2273,
    "stopType": "MUNICIPAL_BUS",
    "shortStopName": null,
    "Position": {
      "stopLongitude": "72.517048",
      "stopLatitude": "23.008905"
    },
    "RouteCodes": null,
    "Sequence": 15,
    "routeFlow": null
  },
  {
    "stopName": "Mira Mangal",
    "stopCode": 5418,
    "stationCode": 2085,
    "stopType": "MUNICIPAL_BUS",
    "shortStopName": null,
    "Position": {
      "stopLongitude": "72.519521",
      "stopLatitude": "23.009766"
    },
    "RouteCodes": null,
    "Sequence": 16,
    "routeFlow": null
  },
  {
    "stopName": "Chandranagar",
    "stopCode": 5419,
    "stationCode": 1368,
    "stopType": "MUNICIPAL_BUS",
    "shortStopName": null,
    "Position": {
      "stopLongitude": "72.521809",
      "stopLatitude": "23.009871"
    },
    "RouteCodes": null,
    "Sequence": 17,
    "routeFlow": null
  },
  {
    "stopName": "Madahav Mangal",
    "stopCode": 5420,
    "stationCode": 1981,
    "stopType": "MUNICIPAL_BUS",
    "shortStopName": null,
    "Position": {
      "stopLongitude": "72.523623",
      "stopLatitude": "23.009923"
    },
    "RouteCodes": null,
    "Sequence": 18,
    "routeFlow": null
  },
  {
    "stopName": "Kaivalya Dham (Radio Mirchi)",
    "stopCode": 5421,
    "stationCode": 1824,
    "stopType": "MUNICIPAL_BUS",
    "shortStopName": null,
    "Position": {
      "stopLongitude": "72.527345",
      "stopLatitude": "23.010251"
    },
    "RouteCodes": null,
    "Sequence": 19,
    "routeFlow": null
  },
  {
    "stopName": "Silp Siddhi Flats",
    "stopCode": 5422,
    "stationCode": 2791,
    "stopType": "MUNICIPAL_BUS",
    "shortStopName": null,
    "Position": {
      "stopLongitude": "72.531233",
      "stopLatitude": "23.010698"
    },
    "RouteCodes": null,
    "Sequence": 20,
    "routeFlow": null
  },
  {
    "stopName": "Shakti Vidyalay",
    "stopCode": 5423,
    "stationCode": 5085,
    "stopType": "MUNICIPAL_BUS",
    "shortStopName": null,
    "Position": {
      "stopLongitude": "72.533218",
      "stopLatitude": "23.0109"
    },
    "RouteCodes": null,
    "Sequence": 21,
    "routeFlow": null
  },
  {
    "stopName": "Bal Gayatri Society",
    "stopCode": 5424,
    "stationCode": 1225,
    "stopType": "MUNICIPAL_BUS",
    "shortStopName": null,
    "Position": {
      "stopLongitude": "72.533773",
      "stopLatitude": "23.012535"
    },
    "RouteCodes": null,
    "Sequence": 22,
    "routeFlow": null
  },
  {
    "stopName": "Sanyojan Society",
    "stopCode": 5425,
    "stationCode": 2589,
    "stopType": "MUNICIPAL_BUS",
    "shortStopName": null,
    "Position": {
      "stopLongitude": "72.538525",
      "stopLatitude": "23.016725"
    },
    "RouteCodes": null,
    "Sequence": 24,
    "routeFlow": null
  },
  {
    "stopName": "Manekbag Hall",
    "stopCode": 5426,
    "stationCode": 2027,
    "stopType": "MUNICIPAL_BUS",
    "shortStopName": null,
    "Position": {
      "stopLongitude": "72.542586",
      "stopLatitude": "23.016928"
    },
    "RouteCodes": null,
    "Sequence": 25,
    "routeFlow": null
  },
  {
    "stopName": "Manekbag Post Office",
    "stopCode": 5427,
    "stationCode": 2028,
    "stopType": "MUNICIPAL_BUS",
    "shortStopName": null,
    "Position": {
      "stopLongitude": "72.542845",
      "stopLatitude": "23.01568"
    },
    "RouteCodes": null,
    "Sequence": 26,
    "routeFlow": null
  },
  {
    "stopName": "Shreyas Foundation (Shreyas Railway Obridge)",
    "stopCode": 5428,
    "stationCode": 2735,
    "stopType": "MUNICIPAL_BUS",
    "shortStopName": null,
    "Position": {
      "stopLongitude": "72.542765",
      "stopLatitude": "23.014385"
    },
    "RouteCodes": null,
    "Sequence": 27,
    "routeFlow": null
  },
  {
    "stopName": "Mahatma Gandhikunj Society",
    "stopCode": 5429,
    "stationCode": 2005,
    "stopType": "MUNICIPAL_BUS",
    "shortStopName": null,
    "Position": {
      "stopLongitude": "72.545636",
      "stopLatitude": "23.01421"
    },
    "RouteCodes": null,
    "Sequence": 28,
    "routeFlow": null
  },
  {
    "stopName": "Bhudarpura",
    "stopCode": 5430,
    "stationCode": 1301,
    "stopType": "MUNICIPAL_BUS",
    "shortStopName": null,
    "Position": {
      "stopLongitude": "72.547986",
      "stopLatitude": "23.01555"
    },
    "RouteCodes": null,
    "Sequence": 29,
    "routeFlow": null
  },
  {
    "stopName": "Gokul Apartment",
    "stopCode": 5431,
    "stationCode": 1567,
    "stopType": "MUNICIPAL_BUS",
    "shortStopName": null,
    "Position": {
      "stopLongitude": "72.549551",
      "stopLatitude": "23.016816"
    },
    "RouteCodes": null,
    "Sequence": 30,
    "routeFlow": null
  },
  {
    "stopName": "Saurashtra Society",
    "stopCode": 5432,
    "stationCode": 2664,
    "stopType": "MUNICIPAL_BUS",
    "shortStopName": null,
    "Position": {
      "stopLongitude": "72.552071",
      "stopLatitude": "23.018881"
    },
    "RouteCodes": null,
    "Sequence": 31,
    "routeFlow": null
  },
  {
    "stopName": "Chhadawad Police Chowki",
    "stopCode": 5433,
    "stationCode": 1376,
    "stopType": "MUNICIPAL_BUS",
    "shortStopName": null,
    "Position": {
      "stopLongitude": "72.555233",
      "stopLatitude": "23.019626"
    },
    "RouteCodes": null,
    "Sequence": 32,
    "routeFlow": null
  },
  {
    "stopName": "Parimal Garden",
    "stopCode": 5434,
    "stationCode": 2311,
    "stopType": "MUNICIPAL_BUS",
    "shortStopName": null,
    "Position": {
      "stopLongitude": "72.556035",
      "stopLatitude": "23.019328"
    },
    "RouteCodes": null,
    "Sequence": 33,
    "routeFlow": null
  },
  {
    "stopName": "Mahalakshmi Char Rasta",
    "stopCode": 5435,
    "stationCode": 1998,
    "stopType": "MUNICIPAL_BUS",
    "shortStopName": null,
    "Position": {
      "stopLongitude": "72.563196",
      "stopLatitude": "23.01161"
    },
    "RouteCodes": null,
    "Sequence": 37,
    "routeFlow": null
  },
  {
    "stopName": "Anvaya",
    "stopCode": 9361,
    "stationCode": 6412,
    "stopType": "MUNICIPAL_BUS",
    "shortStopName": null,
    "Position": {
      "stopLongitude": "72.505368",
      "stopLatitude": "23.001321"
    },
    "RouteCodes": null,
    "Sequence": 9,
    "routeFlow": null
  },
  {
    "stopName": "White Field",
    "stopCode": 9363,
    "stationCode": 6413,
    "stopType": "MUNICIPAL_BUS",
    "shortStopName": null,
    "Position": {
      "stopLongitude": "72.503555",
      "stopLatitude": "22.99984"
    },
    "RouteCodes": null,
    "Sequence": 8,
    "routeFlow": null
  },
  {
    "stopName": "Pradeshik Talim Kendra(Spipa)",
    "stopCode": 9365,
    "stationCode": 6414,
    "stopType": "MUNICIPAL_BUS",
    "shortStopName": null,
    "Position": {
      "stopLongitude": "72.506377",
      "stopLatitude": "23.007197"
    },
    "RouteCodes": null,
    "Sequence": 4,
    "routeFlow": null
  }
]