[
  {
    "stopName": "Sanyas Ashram",
    "stopCode": 1073,
    "stationCode": 2588,
    "stopType": "MUNICIPAL_BUS",
    "shortStopName": null,
    "Position": {
      "stopLongitude": "72.571266",
      "stopLatitude": "23.024094"
    },
    "RouteCodes": null,
    "Sequence": 28,
    "routeFlow": "LINESTRING (72.49016 23.01517, 72.4902 23.015, 72.49041 23.01496, 72.49053 23.01496, 72.49075 23.01498, 72.49101 23.01504, 72.49123 23.01514, 72.49132 23.01521, 72.49178 23.01573, 72.49213 23.01603, 72.49228 23.0163, 72.49239 23.01643, 72.49323 23.01708, 72.49346 23.01724, 72.49346 23.01724, 72.49392 23.01756, 72.49435 23.01791, 72.4945 23.01807, 72.49455 23.01817, 72.49506 23.01853, 72.49526 23.01864, 72.49555 23.01875, 72.49588 23.01883, 72.49588 23.01883, 72.49624 23.01892, 72.49686 23.01901, 72.4977 23.0191, 72.49809 23.01911, 72.4994 23.0192, 72.4994 23.0192, 72.50054 23.01928, 72.50106 23.01934, 72.50128 23.01935, 72.5018 23.01931, 72.50237 23.01928, 72.50254 23.01924, 72.50297 23.01908, 72.5032 23.01902, 72.50371 23.01905, 72.50444 23.01912, 72.50463 23.01911, 72.50493 23.01903, 72.50516 23.01896, 72.50527 23.01926, 72.50543 23.01969, 72.50573 23.01975, 72.50573 23.01975, 72.50705 23.01999, 72.50752 23.02007, 72.50909 23.02033, 72.51008 23.0205, 72.51008 23.0205, 72.51142 23.02069, 72.51159 23.02071, 72.51159 23.02071, 72.51308 23.0209, 72.51426 23.02098, 72.51578 23.02109, 72.51578 23.02109, 72.51641 23.02114, 72.5185 23.02131, 72.51865 23.0213, 72.51874 23.02126, 72.51964 23.02129, 72.51982 23.02187, 72.51982 23.02187, 72.52002 23.02251, 72.52014 23.02288, 72.52027 23.02347, 72.52044 23.024, 72.52054 23.02436, 72.52054 23.02436, 72.52087 23.02536, 72.52092 23.02543, 72.52103 23.02548, 72.52201 23.02539, 72.52299 23.02528, 72.52306 23.02532, 72.52309 23.02539, 72.5232 23.02605, 72.5232 23.02605, 72.52323 23.02625, 72.5233 23.02635, 72.52339 23.02648, 72.52375 23.02634, 72.52424 23.0262, 72.52442 23.02616, 72.52442 23.026219, 72.525115 23.026023, 72.52581 23.0259, 72.52635 23.0258, 72.52664 23.02573, 72.52749 23.02523, 72.52761 23.02517, 72.52761 23.02517, 72.52836 23.02485, 72.52902 23.02465, 72.52902 23.02465, 72.52955 23.02454, 72.53015 23.02442, 72.53052 23.02441, 72.53225 23.02433, 72.53242 23.0243, 72.53303 23.02404, 72.53303 23.02404, 72.53355 23.0238, 72.53386 23.02369, 72.53446 23.02353, 72.53656 23.02306, 72.53656 23.02306, 72.53775 23.02283, 72.53852 23.02272, 72.53908 23.02267, 72.54028 23.02259, 72.54063 23.02259, 72.54063 23.02259, 72.5415 23.0226, 72.54202 23.02257, 72.54266 23.02247, 72.54268 23.02249, 72.54271 23.02251, 72.54282 23.02252, 72.54292 23.02249, 72.54304 23.02242, 72.54309 23.02233, 72.54347 23.02221, 72.54384 23.02213, 72.54384 23.02213, 72.54459 23.02204, 72.54559 23.02195, 72.54634 23.02192, 72.54705 23.02193, 72.5481 23.0221, 72.5481 23.0221, 72.54947 23.02238, 72.55033 23.02252, 72.55051 23.02254, 72.55052 23.02255, 72.55053 23.02257, 72.55057 23.0226, 72.55062 23.02262, 72.55071 23.02259, 72.55075 23.0225, 72.55089 23.02241, 72.55112 23.02228, 72.55132 23.02217, 72.55132 23.02217, 72.5528 23.02124, 72.5528 23.02124, 72.5533 23.02096, 72.55374 23.02088, 72.55376 23.02089, 72.55381 23.02089, 72.55382 23.02089, 72.55421 23.02118, 72.55493 23.02166, 72.55583 23.02236, 72.55608 23.02252, 72.55608 23.02253, 72.55608 23.02254, 72.55608 23.02258, 72.55611 23.02262, 72.55618 23.02266, 72.55627 23.02264, 72.55628 23.02263, 72.55742 23.02335, 72.55742 23.02335, 72.5579 23.02366, 72.55813 23.02378, 72.55839 23.02394, 72.55851 23.02396, 72.55859 23.024, 72.55923 23.02397, 72.55968 23.02395, 72.55968 23.02385, 72.55977 23.02342, 72.55977 23.02342, 72.56015 23.02194, 72.56037 23.02122, 72.56057 23.02065, 72.56057 23.02065, 72.56065 23.02044, 72.56075 23.02038, 72.56095 23.02029, 72.56108 23.02023, 72.56178 23.02033, 72.56339 23.02067, 72.56416 23.02085, 72.56416 23.02085, 72.56541 23.02121, 72.5664 23.02153, 72.5664 23.02153, 72.56748 23.02189, 72.56769 23.02193, 72.5681 23.022, 72.56843 23.02201, 72.56985 23.02208, 72.57018 23.02213, 72.57066 23.02219, 72.57066 23.02219, 72.57078 23.0222, 72.57088 23.02226, 72.57105 23.02232, 72.57128 23.02247, 72.57125 23.02299, 72.57124 23.02334, 72.57126 23.02409, 72.57126 23.02409, 72.57125 23.025, 72.57123 23.025, 72.57115 23.02616, 72.57111 23.02667, 72.57251 23.02678, 72.57841 23.02725, 72.57865 23.02727, 72.57869 23.02727, 72.58005 23.02736, 72.58111 23.02732, 72.5813 23.02725, 72.58135 23.02722, 72.58136 23.02709, 72.5814 23.02643, 72.58107 23.0264, 72.58082 23.02643, 72.58059 23.02624, 72.58062 23.02571, 72.58064 23.02532, 72.58064 23.02532, 72.58064 23.02493, 72.58062 23.02472, 72.58065 23.0245, 72.58064 23.02448, 72.58054 23.02425, 72.58044 23.02405, 72.58038 23.02398, 72.58018 23.02386, 72.5797 23.02365, 72.57949 23.02352, 72.57923 23.02351, 72.57914 23.02354, 72.57906 23.0237, 72.57906 23.02401, 72.57904 23.02434, 72.57864 23.02437, 72.57827 23.02436, 72.57802 23.02438, 72.57798 23.02441, 72.57795 23.0245, 72.57792 23.02493, 72.5779 23.02502, 72.5781 23.02502, 72.57818 23.02502)"
  },
  {
    "stopName": "Gandhigram Railway Station",
    "stopCode": 1074,
    "stationCode": 1522,
    "stopType": "MUNICIPAL_BUS",
    "shortStopName": null,
    "Position": {
      "stopLongitude": "72.571216",
      "stopLatitude": "23.024998"
    },
    "RouteCodes": null,
    "Sequence": 29,
    "routeFlow": null
  },
  {
    "stopName": "Sardarbag",
    "stopCode": 1075,
    "stationCode": 2611,
    "stopType": "MUNICIPAL_BUS",
    "shortStopName": null,
    "Position": {
      "stopLongitude": "72.578645",
      "stopLatitude": "23.027351"
    },
    "RouteCodes": null,
    "Sequence": 30,
    "routeFlow": null
  },
  {
    "stopName": "Apna Bazar",
    "stopCode": 1076,
    "stationCode": 1150,
    "stopType": "MUNICIPAL_BUS",
    "shortStopName": null,
    "Position": {
      "stopLongitude": "72.580705",
      "stopLatitude": "23.025321"
    },
    "RouteCodes": null,
    "Sequence": 31,
    "routeFlow": null
  },
  {
    "stopName": "Lal Darwaja",
    "stopCode": 1077,
    "stationCode": 1961,
    "stopType": "MUNICIPAL_BUS",
    "shortStopName": null,
    "Position": {
      "stopLongitude": "72.578186",
      "stopLatitude": "23.025053"
    },
    "RouteCodes": null,
    "Sequence": 32,
    "routeFlow": null
  },
  {
    "stopName": "Harisiddh Society",
    "stopCode": 1567,
    "stationCode": 1665,
    "stopType": "MUNICIPAL_BUS",
    "shortStopName": null,
    "Position": {
      "stopLongitude": "72.524435",
      "stopLatitude": "23.02622"
    },
    "RouteCodes": null,
    "Sequence": 12,
    "routeFlow": null
  },
  {
    "stopName": "Jodhpur Road",
    "stopCode": 1568,
    "stationCode": 1795,
    "stopType": "MUNICIPAL_BUS",
    "shortStopName": null,
    "Position": {
      "stopLongitude": "72.527635",
      "stopLatitude": "23.025205"
    },
    "RouteCodes": null,
    "Sequence": 13,
    "routeFlow": null
  },
  {
    "stopName": "Shivranjni Society",
    "stopCode": 1569,
    "stationCode": 2729,
    "stopType": "MUNICIPAL_BUS",
    "shortStopName": null,
    "Position": {
      "stopLongitude": "72.52903",
      "stopLatitude": "23.024683"
    },
    "RouteCodes": null,
    "Sequence": 14,
    "routeFlow": null
  },
  {
    "stopName": "Umiya Vijay Society",
    "stopCode": 2662,
    "stationCode": 2968,
    "stopType": "MUNICIPAL_BUS",
    "shortStopName": null,
    "Position": {
      "stopLongitude": "72.533051",
      "stopLatitude": "23.024086"
    },
    "RouteCodes": null,
    "Sequence": 15,
    "routeFlow": null
  },
  {
    "stopName": "Haridas Park",
    "stopCode": 2663,
    "stationCode": 1655,
    "stopType": "MUNICIPAL_BUS",
    "shortStopName": null,
    "Position": {
      "stopLongitude": "72.53657",
      "stopLatitude": "23.023115"
    },
    "RouteCodes": null,
    "Sequence": 16,
    "routeFlow": null
  },
  {
    "stopName": "Satyakam Society",
    "stopCode": 2664,
    "stationCode": 2654,
    "stopType": "MUNICIPAL_BUS",
    "shortStopName": null,
    "Position": {
      "stopLongitude": "72.540626",
      "stopLatitude": "23.022673"
    },
    "RouteCodes": null,
    "Sequence": 17,
    "routeFlow": null
  },
  {
    "stopName": "Government Quarters (Nehrunagar)",
    "stopCode": 2665,
    "stationCode": 1597,
    "stopType": "MUNICIPAL_BUS",
    "shortStopName": null,
    "Position": {
      "stopLongitude": "72.543851",
      "stopLatitude": "23.022185"
    },
    "RouteCodes": null,
    "Sequence": 18,
    "routeFlow": null
  },
  {
    "stopName": "Snehkunj",
    "stopCode": 2666,
    "stationCode": 2812,
    "stopType": "MUNICIPAL_BUS",
    "shortStopName": null,
    "Position": {
      "stopLongitude": "72.548083",
      "stopLatitude": "23.02217"
    },
    "RouteCodes": null,
    "Sequence": 19,
    "routeFlow": null
  },
  {
    "stopName": "Exise Chowki (Cn)",
    "stopCode": 2667,
    "stationCode": 1490,
    "stopType": "MUNICIPAL_BUS",
    "shortStopName": null,
    "Position": {
      "stopLongitude": "72.551321",
      "stopLatitude": "23.022176"
    },
    "RouteCodes": null,
    "Sequence": 20,
    "routeFlow": null
  },
  {
    "stopName": "C.N. Vidyalay",
    "stopCode": 2668,
    "stationCode": 1324,
    "stopType": "MUNICIPAL_BUS",
    "shortStopName": null,
    "Position": {
      "stopLongitude": "72.552826",
      "stopLatitude": "23.021271"
    },
    "RouteCodes": null,
    "Sequence": 21,
    "routeFlow": null
  },
  {
    "stopName": "Panchvati",
    "stopCode": 2669,
    "stationCode": 2294,
    "stopType": "MUNICIPAL_BUS",
    "shortStopName": null,
    "Position": {
      "stopLongitude": "72.55742",
      "stopLatitude": "23.023346"
    },
    "RouteCodes": null,
    "Sequence": 22,
    "routeFlow": null
  },
  {
    "stopName": "Law College",
    "stopCode": 2670,
    "stationCode": 1967,
    "stopType": "MUNICIPAL_BUS",
    "shortStopName": null,
    "Position": {
      "stopLongitude": "72.559796",
      "stopLatitude": "23.023426"
    },
    "RouteCodes": null,
    "Sequence": 23,
    "routeFlow": null
  },
  {
    "stopName": "University Granth Nirman Board",
    "stopCode": 2671,
    "stationCode": 2973,
    "stopType": "MUNICIPAL_BUS",
    "shortStopName": null,
    "Position": {
      "stopLongitude": "72.560603",
      "stopLatitude": "23.02066"
    },
    "RouteCodes": null,
    "Sequence": 24,
    "routeFlow": null
  },
  {
    "stopName": "Hope Nuro Care Hospital",
    "stopCode": 2672,
    "stationCode": 1691,
    "stopType": "MUNICIPAL_BUS",
    "shortStopName": null,
    "Position": {
      "stopLongitude": "72.564141",
      "stopLatitude": "23.020933"
    },
    "RouteCodes": null,
    "Sequence": 25,
    "routeFlow": null
  },
  {
    "stopName": "Gujarat College",
    "stopCode": 2673,
    "stationCode": 1614,
    "stopType": "MUNICIPAL_BUS",
    "shortStopName": null,
    "Position": {
      "stopLongitude": "72.566376",
      "stopLatitude": "23.021593"
    },
    "RouteCodes": null,
    "Sequence": 26,
    "routeFlow": null
  },
  {
    "stopName": "Madalpur (Town Hall)",
    "stopCode": 2674,
    "stationCode": 1982,
    "stopType": "MUNICIPAL_BUS",
    "shortStopName": null,
    "Position": {
      "stopLongitude": "72.570651",
      "stopLatitude": "23.022258"
    },
    "RouteCodes": null,
    "Sequence": 27,
    "routeFlow": null
  },
  {
    "stopName": "Prerana Tirth Derasar",
    "stopCode": 3521,
    "stationCode": 2384,
    "stopType": "MUNICIPAL_BUS",
    "shortStopName": null,
    "Position": {
      "stopLongitude": "72.519825",
      "stopLatitude": "23.021873"
    },
    "RouteCodes": null,
    "Sequence": 9,
    "routeFlow": null
  },
  {
    "stopName": "Ashoknagar",
    "stopCode": 3522,
    "stationCode": 1182,
    "stopType": "MUNICIPAL_BUS",
    "shortStopName": null,
    "Position": {
      "stopLongitude": "72.52055",
      "stopLatitude": "23.024357"
    },
    "RouteCodes": null,
    "Sequence": 10,
    "routeFlow": null
  },
  {
    "stopName": "Abhishri Complex",
    "stopCode": 3523,
    "stationCode": 1058,
    "stopType": "MUNICIPAL_BUS",
    "shortStopName": null,
    "Position": {
      "stopLongitude": "72.523196",
      "stopLatitude": "23.026052"
    },
    "RouteCodes": null,
    "Sequence": 11,
    "routeFlow": null
  },
  {
    "stopName": "Mumatpura Gam",
    "stopCode": 5448,
    "stationCode": 2113,
    "stopType": "MUNICIPAL_BUS",
    "shortStopName": null,
    "Position": {
      "stopLongitude": "72.490164",
      "stopLatitude": "23.015172"
    },
    "RouteCodes": null,
    "Sequence": 1,
    "routeFlow": null
  },
  {
    "stopName": "Goghabapanu Mandir",
    "stopCode": 5449,
    "stationCode": 1566,
    "stopType": "MUNICIPAL_BUS",
    "shortStopName": null,
    "Position": {
      "stopLongitude": "72.493408",
      "stopLatitude": "23.017295"
    },
    "RouteCodes": null,
    "Sequence": 2,
    "routeFlow": null
  },
  {
    "stopName": "Mb Farm",
    "stopCode": 5450,
    "stationCode": 2068,
    "stopType": "MUNICIPAL_BUS",
    "shortStopName": null,
    "Position": {
      "stopLongitude": "72.495838",
      "stopLatitude": "23.01896"
    },
    "RouteCodes": null,
    "Sequence": 3,
    "routeFlow": null
  },
  {
    "stopName": "Shivdharm Farm",
    "stopCode": 5451,
    "stationCode": 1839,
    "stopType": "MUNICIPAL_BUS",
    "shortStopName": null,
    "Position": {
      "stopLongitude": "72.499391",
      "stopLatitude": "23.019256"
    },
    "RouteCodes": null,
    "Sequence": 4,
    "routeFlow": null
  },
  {
    "stopName": "Karnavati Club (Chimanbhai Patel Inst.)",
    "stopCode": 5452,
    "stationCode": 1385,
    "stopType": "MUNICIPAL_BUS",
    "shortStopName": null,
    "Position": {
      "stopLongitude": "72.505716",
      "stopLatitude": "23.019828"
    },
    "RouteCodes": null,
    "Sequence": 5,
    "routeFlow": null
  },
  {
    "stopName": "Anjani Tower",
    "stopCode": 5453,
    "stationCode": 3107,
    "stopType": "MUNICIPAL_BUS",
    "shortStopName": null,
    "Position": {
      "stopLongitude": "72.510071",
      "stopLatitude": "23.02056"
    },
    "RouteCodes": null,
    "Sequence": 6,
    "routeFlow": null
  },
  {
    "stopName": "Super Society",
    "stopCode": 5454,
    "stationCode": 3105,
    "stopType": "MUNICIPAL_BUS",
    "shortStopName": null,
    "Position": {
      "stopLongitude": "72.511581",
      "stopLatitude": "23.020748"
    },
    "RouteCodes": null,
    "Sequence": 7,
    "routeFlow": null
  },
  {
    "stopName": "Shreyaspark Society",
    "stopCode": 5455,
    "stationCode": 3104,
    "stopType": "MUNICIPAL_BUS",
    "shortStopName": null,
    "Position": {
      "stopLongitude": "72.51578",
      "stopLatitude": "23.021111"
    },
    "RouteCodes": null,
    "Sequence": 8,
    "routeFlow": null
  }
]