[
  {
    "stopName": "Sarangpur",
    "stopCode": 1204,
    "stationCode": 2593,
    "stopType": "MUNICIPAL_BUS",
    "shortStopName": null,
    "Position": {
      "stopLongitude": "72.598497",
      "stopLatitude": "23.022515"
    },
    "RouteCodes": null,
    "Sequence": 26,
    "routeFlow": "LINESTRING (72.66835 23.00987, 72.66816 23.01078, 72.6679 23.01187, 72.66763 23.01279, 72.66763 23.01279, 72.66737 23.01371, 72.66729 23.014, 72.66719 23.01459, 72.66706 23.01527, 72.66701 23.01539, 72.66688 23.01535, 72.66688 23.01535, 72.66657 23.01526, 72.66617 23.01517, 72.66582 23.01504, 72.66556 23.01501, 72.66541 23.01499, 72.66467 23.01494, 72.66432 23.01492, 72.66366 23.0149, 72.66366 23.0149, 72.66342 23.01489, 72.66317 23.01494, 72.66281 23.01495, 72.66256 23.01491, 72.66188 23.0149, 72.66179 23.01489, 72.66183 23.01502, 72.66184 23.01504, 72.66177 23.01625, 72.66167 23.01738, 72.66167 23.01738, 72.6616 23.01841, 72.66154 23.01993, 72.66154 23.01993, 72.6616 23.02065, 72.66156 23.02074, 72.66156 23.02081, 72.66159 23.02109, 72.66122 23.0211, 72.65985 23.02107, 72.65971 23.02105, 72.65956 23.02105, 72.65956 23.02106, 72.65802 23.02101, 72.65717 23.02102, 72.65665 23.02101, 72.65665 23.02101, 72.65427 23.02095, 72.65423 23.02095, 72.65423 23.02095, 72.65344 23.02097, 72.65343 23.02101, 72.65336 23.02145, 72.65318 23.02263, 72.65301 23.02261, 72.65301 23.02261, 72.65186 23.02245, 72.65023 23.0222, 72.64901 23.02201, 72.64901 23.02201, 72.64882 23.02198, 72.64838 23.02193, 72.64808 23.02193, 72.64792 23.02184, 72.64777 23.02181, 72.64703 23.02172, 72.64598 23.02157, 72.64592 23.02156, 72.64592 23.02156, 72.6416 23.02094, 72.6416 23.02094, 72.64125 23.02093, 72.63934 23.02062, 72.63876 23.02056, 72.63847 23.02052, 72.63836 23.0205, 72.63836 23.0205, 72.63723 23.02035, 72.63592 23.02014, 72.63503 23.02, 72.63418 23.02, 72.63318 23.02002, 72.63318 23.02002, 72.63276 23.02002, 72.63275 23.02, 72.63271 23.01995, 72.63265 23.01993, 72.63259 23.01993, 72.63253 23.01996, 72.6325 23.02, 72.63226 23.02002, 72.63118 23.02003, 72.62938 23.02007, 72.62938 23.02007, 72.6288 23.02008, 72.62843 23.02011, 72.62797 23.02016, 72.62742 23.02025, 72.62704 23.02034, 72.62643 23.02053, 72.62628 23.02058, 72.62628 23.02058, 72.62435 23.02112, 72.62378 23.02132, 72.62246 23.02172, 72.62083 23.02214, 72.62052 23.02218, 72.62019 23.02218, 72.61987 23.02217, 72.61986 23.0221, 72.61986 23.0221, 72.61987 23.02217, 72.61977 23.02216, 72.61891 23.02216, 72.61832 23.02215, 72.61832 23.02213, 72.61792 23.02212, 72.61675 23.02214, 72.61602 23.02212, 72.61602 23.02212, 72.61419 23.02211, 72.61389 23.02209, 72.61346 23.02201, 72.61346 23.02201, 72.61247 23.02184, 72.60954 23.0212, 72.60954 23.0212, 72.609233 23.021118, 72.60841 23.02092, 72.60841 23.02092, 72.60823 23.02094, 72.60794 23.02088, 72.60777 23.02085, 72.60742 23.02079, 72.607 23.02067, 72.6062 23.02057, 72.60604 23.02057, 72.60595 23.02056, 72.60602 23.02031, 72.60562 23.02032, 72.60553 23.02034, 72.605527 23.020362, 72.60513 23.02047, 72.60311 23.02052, 72.6028 23.02054, 72.60251 23.0206, 72.60186 23.02079, 72.60148 23.02093, 72.60111 23.02112, 72.59906 23.02226, 72.59896 23.0223, 72.59881 23.02232, 72.5987 23.02233, 72.59864 23.02237, 72.598473 23.022551)"
  },
  {
    "stopName": "Bhikshuk Gruh",
    "stopCode": 1473,
    "stationCode": 1297,
    "stopType": "MUNICIPAL_BUS",
    "shortStopName": null,
    "Position": {
      "stopLongitude": "72.653008",
      "stopLatitude": "23.022628"
    },
    "RouteCodes": null,
    "Sequence": 11,
    "routeFlow": null
  },
  {
    "stopName": "Rabari Vasahat",
    "stopCode": 1474,
    "stationCode": 2413,
    "stopType": "MUNICIPAL_BUS",
    "shortStopName": null,
    "Position": {
      "stopLongitude": "72.64901",
      "stopLatitude": "23.022008"
    },
    "RouteCodes": null,
    "Sequence": 12,
    "routeFlow": null
  },
  {
    "stopName": "Quick Metal Industries",
    "stopCode": 1475,
    "stationCode": 2403,
    "stopType": "MUNICIPAL_BUS",
    "shortStopName": null,
    "Position": {
      "stopLongitude": "72.645923",
      "stopLatitude": "23.021568"
    },
    "RouteCodes": null,
    "Sequence": 13,
    "routeFlow": null
  },
  {
    "stopName": "Grid Station (C.M.C.)",
    "stopCode": 1476,
    "stationCode": 1609,
    "stopType": "MUNICIPAL_BUS",
    "shortStopName": null,
    "Position": {
      "stopLongitude": "72.641601",
      "stopLatitude": "23.020933"
    },
    "RouteCodes": null,
    "Sequence": 14,
    "routeFlow": null
  },
  {
    "stopName": "Ajit Mills",
    "stopCode": 1478,
    "stationCode": 1084,
    "stopType": "MUNICIPAL_BUS",
    "shortStopName": null,
    "Position": {
      "stopLongitude": "72.633175",
      "stopLatitude": "23.019976"
    },
    "RouteCodes": null,
    "Sequence": 16,
    "routeFlow": null
  },
  {
    "stopName": "Soma Textile (National Mills)",
    "stopCode": 1479,
    "stationCode": 2822,
    "stopType": "MUNICIPAL_BUS",
    "shortStopName": null,
    "Position": {
      "stopLongitude": "72.629376",
      "stopLatitude": "23.020053"
    },
    "RouteCodes": null,
    "Sequence": 17,
    "routeFlow": null
  },
  {
    "stopName": "Anant Mills",
    "stopCode": 1480,
    "stationCode": 1132,
    "stopType": "MUNICIPAL_BUS",
    "shortStopName": null,
    "Position": {
      "stopLongitude": "72.626268",
      "stopLatitude": "23.020535"
    },
    "RouteCodes": null,
    "Sequence": 18,
    "routeFlow": null
  },
  {
    "stopName": "Ganjifarak Mills",
    "stopCode": 1482,
    "stationCode": 1528,
    "stopType": "MUNICIPAL_BUS",
    "shortStopName": null,
    "Position": {
      "stopLongitude": "72.618321",
      "stopLatitude": "23.022143"
    },
    "RouteCodes": null,
    "Sequence": 20,
    "routeFlow": null
  },
  {
    "stopName": "Marsdon Mills",
    "stopCode": 1483,
    "stationCode": 2058,
    "stopType": "MUNICIPAL_BUS",
    "shortStopName": null,
    "Position": {
      "stopLongitude": "72.616021",
      "stopLatitude": "23.022113"
    },
    "RouteCodes": null,
    "Sequence": 21,
    "routeFlow": null
  },
  {
    "stopName": "Patel Mills",
    "stopCode": 1484,
    "stationCode": 2323,
    "stopType": "MUNICIPAL_BUS",
    "shortStopName": null,
    "Position": {
      "stopLongitude": "72.61347",
      "stopLatitude": "23.021983"
    },
    "RouteCodes": null,
    "Sequence": 22,
    "routeFlow": null
  },
  {
    "stopName": "Bombay Housing Police Line",
    "stopCode": 1485,
    "stationCode": 1319,
    "stopType": "MUNICIPAL_BUS",
    "shortStopName": null,
    "Position": {
      "stopLongitude": "72.609546",
      "stopLatitude": "23.021163"
    },
    "RouteCodes": null,
    "Sequence": 23,
    "routeFlow": null
  },
  {
    "stopName": "Hathi Khai",
    "stopCode": 1486,
    "stationCode": 1669,
    "stopType": "MUNICIPAL_BUS",
    "shortStopName": null,
    "Position": {
      "stopLongitude": "72.608411",
      "stopLatitude": "23.020918"
    },
    "RouteCodes": null,
    "Sequence": 24,
    "routeFlow": null
  },
  {
    "stopName": "Kamdar Medan",
    "stopCode": 1487,
    "stationCode": 1845,
    "stopType": "MUNICIPAL_BUS",
    "shortStopName": null,
    "Position": {
      "stopLongitude": "72.605533",
      "stopLatitude": "23.020345"
    },
    "RouteCodes": null,
    "Sequence": 25,
    "routeFlow": null
  },
  {
    "stopName": "Adinathnagar",
    "stopCode": 3206,
    "stationCode": 1073,
    "stopType": "MUNICIPAL_BUS",
    "shortStopName": null,
    "Position": {
      "stopLongitude": "72.661821",
      "stopLatitude": "23.015041"
    },
    "RouteCodes": null,
    "Sequence": 5,
    "routeFlow": null
  },
  {
    "stopName": "Dipalinagar",
    "stopCode": 3207,
    "stationCode": 1464,
    "stopType": "MUNICIPAL_BUS",
    "shortStopName": null,
    "Position": {
      "stopLongitude": "72.661688",
      "stopLatitude": "23.017378"
    },
    "RouteCodes": null,
    "Sequence": 6,
    "routeFlow": null
  },
  {
    "stopName": "L Type Corner",
    "stopCode": 3208,
    "stationCode": 1944,
    "stopType": "MUNICIPAL_BUS",
    "shortStopName": null,
    "Position": {
      "stopLongitude": "72.659561",
      "stopLatitude": "23.021063"
    },
    "RouteCodes": null,
    "Sequence": 8,
    "routeFlow": null
  },
  {
    "stopName": "G.I.D.C. Tanki",
    "stopCode": 3209,
    "stationCode": 1508,
    "stopType": "MUNICIPAL_BUS",
    "shortStopName": null,
    "Position": {
      "stopLongitude": "72.656645",
      "stopLatitude": "23.021016"
    },
    "RouteCodes": null,
    "Sequence": 9,
    "routeFlow": null
  },
  {
    "stopName": "Nari Sanrakshan Gruh",
    "stopCode": 3210,
    "stationCode": 2164,
    "stopType": "MUNICIPAL_BUS",
    "shortStopName": null,
    "Position": {
      "stopLongitude": "72.654233",
      "stopLatitude": "23.020963"
    },
    "RouteCodes": null,
    "Sequence": 10,
    "routeFlow": null
  },
  {
    "stopName": "Sonini Chali",
    "stopCode": 3376,
    "stationCode": 2833,
    "stopType": "MUNICIPAL_BUS",
    "shortStopName": null,
    "Position": {
      "stopLongitude": "72.638358",
      "stopLatitude": "23.020518"
    },
    "RouteCodes": null,
    "Sequence": 15,
    "routeFlow": null
  },
  {
    "stopName": "Odhav Panjarapol",
    "stopCode": 6135,
    "stationCode": 2262,
    "stopType": "MUNICIPAL_BUS",
    "shortStopName": null,
    "Position": {
      "stopLongitude": "72.668351",
      "stopLatitude": "23.009869"
    },
    "RouteCodes": null,
    "Sequence": 1,
    "routeFlow": null
  },
  {
    "stopName": "Rushbhnagar",
    "stopCode": 8797,
    "stationCode": 6146,
    "stopType": "MUNICIPAL_BUS",
    "shortStopName": null,
    "Position": {
      "stopLongitude": "72.661511",
      "stopLatitude": "23.019923"
    },
    "RouteCodes": null,
    "Sequence": 7,
    "routeFlow": null
  },
  {
    "stopName": "Gokul Nagar",
    "stopCode": 8876,
    "stationCode": 6186,
    "stopType": "MUNICIPAL_BUS",
    "shortStopName": null,
    "Position": {
      "stopLongitude": "72.663663",
      "stopLatitude": "23.014932"
    },
    "RouteCodes": null,
    "Sequence": 4,
    "routeFlow": null
  },
  {
    "stopName": "Mangalam",
    "stopCode": 8877,
    "stationCode": 6187,
    "stopType": "MUNICIPAL_BUS",
    "shortStopName": null,
    "Position": {
      "stopLongitude": "72.666863",
      "stopLatitude": "23.015386"
    },
    "RouteCodes": null,
    "Sequence": 3,
    "routeFlow": null
  },
  {
    "stopName": "Takshshila Hebitet",
    "stopCode": 8880,
    "stationCode": 6188,
    "stopType": "MUNICIPAL_BUS",
    "shortStopName": null,
    "Position": {
      "stopLongitude": "72.667666",
      "stopLatitude": "23.012795"
    },
    "RouteCodes": null,
    "Sequence": 2,
    "routeFlow": null
  },
  {
    "stopName": "Rakhiyal",
    "stopCode": 8958,
    "stationCode": 6223,
    "stopType": "MUNICIPAL_BUS",
    "shortStopName": null,
    "Position": {
      "stopLongitude": "72.619907",
      "stopLatitude": "23.022096"
    },
    "RouteCodes": null,
    "Sequence": 19,
    "routeFlow": null
  }
]