[
  {
    "stopName": "Sarangpur",
    "stopCode": 1489,
    "stationCode": 2593,
    "stopType": "MUNICIPAL_BUS",
    "shortStopName": null,
    "Position": {
      "stopLongitude": "72.598729",
      "stopLatitude": "23.022186"
    },
    "RouteCodes": null,
    "Sequence": 1,
    "routeFlow": "LINESTRING (72.59871 23.02223, 72.59882 23.02226, 72.59884 23.02231, 72.59874 23.02244, 72.59858 23.02266, 72.59851 23.02295, 72.59857 23.02322, 72.5986 23.02324, 72.59871 23.02329, 72.59878 23.02331, 72.59887 23.02334, 72.59892 23.02331, 72.59898 23.02325, 72.59902 23.02321, 72.59906 23.02317, 72.59902 23.02311, 72.59896 23.02298, 72.59891 23.02279, 72.59896 23.02277, 72.59899 23.02272, 72.59901 23.0226, 72.59904 23.02245, 72.59908 23.02238, 72.59912 23.02233, 72.59922 23.02228, 72.5994 23.02216, 72.59947 23.02209, 72.59984 23.02187, 72.60113 23.02114, 72.6015 23.02095, 72.60216 23.02073, 72.60282 23.02057, 72.60313 23.02054, 72.60503 23.02049, 72.60533 23.0205, 72.60533 23.02048, 72.60616 23.02056, 72.6062 23.02059, 72.60693 23.02074, 72.60851 23.02106, 72.60851 23.02106, 72.60994 23.02138, 72.60994 23.02138, 72.61244 23.02196, 72.61296 23.02205, 72.61343 23.02212, 72.61346 23.02212, 72.61346 23.02212, 72.61406 23.02217, 72.61612 23.02219, 72.61612 23.02219, 72.61675 23.02219, 72.61849 23.02226, 72.61856 23.02227, 72.61856 23.02227, 72.61976 23.02231, 72.61996 23.02232, 72.61996 23.02232, 72.62051 23.0223, 72.6212 23.02217, 72.62249 23.02185, 72.62389 23.02141, 72.62413 23.0213, 72.62565 23.02088, 72.62618 23.02073, 72.62709 23.02047, 72.62707 23.02044, 72.62776 23.02029, 72.62832 23.02024, 72.62908 23.0202, 72.6294 23.02019, 72.6294 23.02019, 72.63158 23.02014, 72.63223 23.02013, 72.63253 23.02014, 72.63254 23.02015, 72.63256 23.02016, 72.63262 23.02018, 72.63268 23.02017, 72.63272 23.02014, 72.63311 23.02015, 72.63311 23.02015, 72.63441 23.02011, 72.635 23.02012, 72.63543 23.02017, 72.63543 23.02017, 72.63674 23.02036, 72.63829 23.0206, 72.63859 23.02064, 72.64019 23.02083, 72.64103 23.02095, 72.64129 23.02099, 72.64149 23.02105, 72.64206 23.02115, 72.64245 23.0212, 72.64245 23.0212, 72.64611 23.02173, 72.64611 23.02173, 72.6471 23.02188, 72.64769 23.02201, 72.64786 23.02202, 72.64809 23.02201, 72.64839 23.02205, 72.64879 23.02212, 72.6489 23.02214, 72.6489 23.02214, 72.65136 23.02254, 72.65306 23.02278, 72.65306 23.02278, 72.65315 23.0228, 72.65318 23.02263, 72.65344 23.02097, 72.65438 23.02095, 72.65438 23.02095, 72.65655 23.021, 72.65655 23.021, 72.65717 23.02102, 72.65802 23.02101, 72.65966 23.02106, 72.65966 23.02105, 72.65985 23.02107, 72.66122 23.0211, 72.66159 23.02109, 72.66166 23.02107, 72.66163 23.02074, 72.6616 23.02065, 72.66155 23.02013, 72.66155 23.0197, 72.66158 23.01904, 72.66159 23.01902, 72.66165 23.01753, 72.66167 23.01735, 72.66167 23.01735, 72.66177 23.01625, 72.66181 23.01566, 72.66183 23.01502, 72.66188 23.0149, 72.66186 23.0147, 72.66186 23.0147, 72.66188 23.0149, 72.66199 23.01489, 72.66241 23.01492, 72.66256 23.01491, 72.66281 23.01495, 72.66317 23.01494, 72.66342 23.01489, 72.66381 23.01491, 72.66381 23.01491, 72.66432 23.01492, 72.66467 23.01494, 72.66541 23.01499, 72.66556 23.01501, 72.66582 23.01504, 72.66617 23.01517, 72.66657 23.01526, 72.66701 23.01539, 72.66708 23.01517, 72.66709 23.01514, 72.66709 23.01514, 72.66725 23.01424, 72.66735 23.01375, 72.66745 23.01345, 72.66768 23.01261, 72.66768 23.01261, 72.6679 23.01187, 72.66816 23.01078, 72.66835 23.00987)"
  },
  {
    "stopName": "Kamdar Medan",
    "stopCode": 1490,
    "stationCode": 1845,
    "stopType": "MUNICIPAL_BUS",
    "shortStopName": null,
    "Position": {
      "stopLongitude": "72.605328",
      "stopLatitude": "23.02052"
    },
    "RouteCodes": null,
    "Sequence": 2,
    "routeFlow": null
  },
  {
    "stopName": "Hathi Khai",
    "stopCode": 1491,
    "stationCode": 1669,
    "stopType": "MUNICIPAL_BUS",
    "shortStopName": null,
    "Position": {
      "stopLongitude": "72.608518",
      "stopLatitude": "23.021031"
    },
    "RouteCodes": null,
    "Sequence": 3,
    "routeFlow": null
  },
  {
    "stopName": "Bombay Housing Police Line",
    "stopCode": 1492,
    "stationCode": 1319,
    "stopType": "MUNICIPAL_BUS",
    "shortStopName": null,
    "Position": {
      "stopLongitude": "72.609945",
      "stopLatitude": "23.02138"
    },
    "RouteCodes": null,
    "Sequence": 4,
    "routeFlow": null
  },
  {
    "stopName": "Patel Mills",
    "stopCode": 1493,
    "stationCode": 2323,
    "stopType": "MUNICIPAL_BUS",
    "shortStopName": null,
    "Position": {
      "stopLongitude": "72.613465",
      "stopLatitude": "23.022115"
    },
    "RouteCodes": null,
    "Sequence": 5,
    "routeFlow": null
  },
  {
    "stopName": "Marsdon Mills",
    "stopCode": 1494,
    "stationCode": 2058,
    "stopType": "MUNICIPAL_BUS",
    "shortStopName": null,
    "Position": {
      "stopLongitude": "72.616115",
      "stopLatitude": "23.022213"
    },
    "RouteCodes": null,
    "Sequence": 6,
    "routeFlow": null
  },
  {
    "stopName": "Ganjifarak Mills",
    "stopCode": 1495,
    "stationCode": 1528,
    "stopType": "MUNICIPAL_BUS",
    "shortStopName": null,
    "Position": {
      "stopLongitude": "72.618563",
      "stopLatitude": "23.022263"
    },
    "RouteCodes": null,
    "Sequence": 7,
    "routeFlow": null
  },
  {
    "stopName": "Anant Mills",
    "stopCode": 1497,
    "stationCode": 1132,
    "stopType": "MUNICIPAL_BUS",
    "shortStopName": null,
    "Position": {
      "stopLongitude": "72.627066",
      "stopLatitude": "23.020443"
    },
    "RouteCodes": null,
    "Sequence": 9,
    "routeFlow": null
  },
  {
    "stopName": "Soma Textile (National Mills)",
    "stopCode": 1498,
    "stationCode": 2822,
    "stopType": "MUNICIPAL_BUS",
    "shortStopName": null,
    "Position": {
      "stopLongitude": "72.629405",
      "stopLatitude": "23.020225"
    },
    "RouteCodes": null,
    "Sequence": 10,
    "routeFlow": null
  },
  {
    "stopName": "Ajit Mills",
    "stopCode": 1499,
    "stationCode": 1084,
    "stopType": "MUNICIPAL_BUS",
    "shortStopName": null,
    "Position": {
      "stopLongitude": "72.633115",
      "stopLatitude": "23.020173"
    },
    "RouteCodes": null,
    "Sequence": 11,
    "routeFlow": null
  },
  {
    "stopName": "Sonini Chali",
    "stopCode": 1500,
    "stationCode": 2833,
    "stopType": "MUNICIPAL_BUS",
    "shortStopName": null,
    "Position": {
      "stopLongitude": "72.635425",
      "stopLatitude": "23.02018"
    },
    "RouteCodes": null,
    "Sequence": 12,
    "routeFlow": null
  },
  {
    "stopName": "Grid Station (C.M.C.)",
    "stopCode": 1501,
    "stationCode": 1609,
    "stopType": "MUNICIPAL_BUS",
    "shortStopName": null,
    "Position": {
      "stopLongitude": "72.64245",
      "stopLatitude": "23.021211"
    },
    "RouteCodes": null,
    "Sequence": 13,
    "routeFlow": null
  },
  {
    "stopName": "Bhikshuk Gruh",
    "stopCode": 1504,
    "stationCode": 1297,
    "stopType": "MUNICIPAL_BUS",
    "shortStopName": null,
    "Position": {
      "stopLongitude": "72.653061",
      "stopLatitude": "23.022786"
    },
    "RouteCodes": null,
    "Sequence": 16,
    "routeFlow": null
  },
  {
    "stopName": "Nari Sanrakshan Gruh",
    "stopCode": 3201,
    "stationCode": 2164,
    "stopType": "MUNICIPAL_BUS",
    "shortStopName": null,
    "Position": {
      "stopLongitude": "72.654383",
      "stopLatitude": "23.020983"
    },
    "RouteCodes": null,
    "Sequence": 17,
    "routeFlow": null
  },
  {
    "stopName": "G.I.D.C. Tanki",
    "stopCode": 3202,
    "stationCode": 1508,
    "stopType": "MUNICIPAL_BUS",
    "shortStopName": null,
    "Position": {
      "stopLongitude": "72.656546",
      "stopLatitude": "23.021018"
    },
    "RouteCodes": null,
    "Sequence": 18,
    "routeFlow": null
  },
  {
    "stopName": "L Type Corner",
    "stopCode": 3203,
    "stationCode": 1944,
    "stopType": "MUNICIPAL_BUS",
    "shortStopName": null,
    "Position": {
      "stopLongitude": "72.659661",
      "stopLatitude": "23.02107"
    },
    "RouteCodes": null,
    "Sequence": 19,
    "routeFlow": null
  },
  {
    "stopName": "Dipalinagar",
    "stopCode": 3204,
    "stationCode": 1464,
    "stopType": "MUNICIPAL_BUS",
    "shortStopName": null,
    "Position": {
      "stopLongitude": "72.661711",
      "stopLatitude": "23.017353"
    },
    "RouteCodes": null,
    "Sequence": 21,
    "routeFlow": null
  },
  {
    "stopName": "Adinathnagar",
    "stopCode": 3205,
    "stationCode": 1073,
    "stopType": "MUNICIPAL_BUS",
    "shortStopName": null,
    "Position": {
      "stopLongitude": "72.661846",
      "stopLatitude": "23.0147"
    },
    "RouteCodes": null,
    "Sequence": 22,
    "routeFlow": null
  },
  {
    "stopName": "Odhav Panjarapol",
    "stopCode": 6135,
    "stationCode": 2262,
    "stopType": "MUNICIPAL_BUS",
    "shortStopName": null,
    "Position": {
      "stopLongitude": "72.668351",
      "stopLatitude": "23.009869"
    },
    "RouteCodes": null,
    "Sequence": 26,
    "routeFlow": null
  },
  {
    "stopName": "Quick Metal Industries",
    "stopCode": 7532,
    "stationCode": 2403,
    "stopType": "MUNICIPAL_BUS",
    "shortStopName": null,
    "Position": {
      "stopLongitude": "72.646105",
      "stopLatitude": "23.02178"
    },
    "RouteCodes": null,
    "Sequence": 14,
    "routeFlow": null
  },
  {
    "stopName": "Rabari Vasahat",
    "stopCode": 7533,
    "stationCode": 2413,
    "stopType": "MUNICIPAL_BUS",
    "shortStopName": null,
    "Position": {
      "stopLongitude": "72.648876",
      "stopLatitude": "23.022161"
    },
    "RouteCodes": null,
    "Sequence": 15,
    "routeFlow": null
  },
  {
    "stopName": "Rushbhnagar",
    "stopCode": 8798,
    "stationCode": 6146,
    "stopType": "MUNICIPAL_BUS",
    "shortStopName": null,
    "Position": {
      "stopLongitude": "72.661606",
      "stopLatitude": "23.019036"
    },
    "RouteCodes": null,
    "Sequence": 20,
    "routeFlow": null
  },
  {
    "stopName": "Gokul Nagar",
    "stopCode": 8875,
    "stationCode": 6186,
    "stopType": "MUNICIPAL_BUS",
    "shortStopName": null,
    "Position": {
      "stopLongitude": "72.663815",
      "stopLatitude": "23.014784"
    },
    "RouteCodes": null,
    "Sequence": 23,
    "routeFlow": null
  },
  {
    "stopName": "Mangalam",
    "stopCode": 8878,
    "stationCode": 6187,
    "stopType": "MUNICIPAL_BUS",
    "shortStopName": null,
    "Position": {
      "stopLongitude": "72.666986",
      "stopLatitude": "23.015119"
    },
    "RouteCodes": null,
    "Sequence": 24,
    "routeFlow": null
  },
  {
    "stopName": "Takshshila Hebitet",
    "stopCode": 8879,
    "stationCode": 6188,
    "stopType": "MUNICIPAL_BUS",
    "shortStopName": null,
    "Position": {
      "stopLongitude": "72.667467",
      "stopLatitude": "23.012558"
    },
    "RouteCodes": null,
    "Sequence": 25,
    "routeFlow": null
  },
  {
    "stopName": "Rakhiyal",
    "stopCode": 8959,
    "stationCode": 6223,
    "stopType": "MUNICIPAL_BUS",
    "shortStopName": null,
    "Position": {
      "stopLongitude": "72.619962",
      "stopLatitude": "23.022299"
    },
    "RouteCodes": null,
    "Sequence": 8,
    "routeFlow": null
  }
]