[
  {
    "stopName": "Income Tax Office",
    "stopCode": 1212,
    "stationCode": 1705,
    "stopType": "MUNICIPAL_BUS",
    "shortStopName": null,
    "Position": {
      "stopLongitude": "72.569438",
      "stopLatitude": "23.039451"
    },
    "RouteCodes": null,
    "Sequence": 1,
    "routeFlow": "LINESTRING (72.5693 23.03947, 72.56898 23.03736, 72.56892 23.03673, 72.56893 23.03584, 72.56904 23.03528, 72.56912 23.03498, 72.56921 23.03476, 72.56912 23.03473, 72.56904 23.03471, 72.56863 23.03474, 72.56844 23.03473, 72.56844 23.03473, 72.56803 23.03472, 72.56779 23.03468, 72.56768 23.03464, 72.56752 23.03465, 72.56747 23.03467, 72.5673 23.03472, 72.5667 23.03484, 72.56589 23.03496, 72.56471 23.0351, 72.56447 23.03515, 72.56428 23.03521, 72.56372 23.03544, 72.563372 23.035586, 72.56337 23.03558, 72.56031 23.03685, 72.56031 23.03685, 72.55934 23.03727, 72.55841 23.0377, 72.55791 23.03794, 72.55789 23.03795, 72.55689 23.03848, 72.55646 23.03865, 72.55596 23.03876, 72.555713 23.038794, 72.555584 23.038816, 72.55558 23.03882, 72.55511 23.03881, 72.55501 23.03879, 72.55494 23.03888, 72.55491 23.03898, 72.55489 23.03924, 72.55487 23.0394, 72.55479 23.03956, 72.55473 23.03959, 72.55469 23.03963, 72.55467 23.03967, 72.5545 23.03974, 72.55424 23.03991, 72.55397 23.04006, 72.55397 23.04006, 72.55335 23.04045, 72.55292 23.04072, 72.55214 23.04116, 72.55146 23.04146, 72.55017 23.04207, 72.54914 23.04257, 72.54909 23.04237, 72.54909 23.04237, 72.54892 23.04171, 72.54884 23.04121, 72.54877 23.04006, 72.54877 23.03944, 72.54877 23.03944, 72.5488 23.03849, 72.5488 23.03637, 72.54879 23.03578, 72.54884 23.03543, 72.549018 23.034627, 72.549024 23.034622, 72.54908 23.034, 72.54915 23.03372, 72.54948 23.03274, 72.54953 23.0325, 72.54952 23.03224, 72.54943 23.03194, 72.54923 23.03158, 72.54911 23.03139, 72.54874 23.03092, 72.54833 23.03046, 72.54821 23.03034, 72.54821 23.03034, 72.54793 23.03003, 72.54738 23.02949, 72.54693 23.02906, 72.54656 23.02876, 72.54642 23.02861, 72.54642 23.02861, 72.54566 23.02786, 72.54529 23.02749, 72.54529 23.02749, 72.54494 23.02719, 72.5448 23.02704, 72.54422 23.02634, 72.54364 23.02563, 72.542908 23.025214, 72.542864 23.025226, 72.542823 23.025237, 72.542794 23.025246, 72.542766 23.025255, 72.542681 23.02528, 72.54267 23.02528, 72.54172 23.02558, 72.54007 23.02617, 72.53943 23.02649, 72.53919 23.02662, 72.53919 23.02662, 72.53855 23.02692, 72.53722 23.02754, 72.53722 23.02754, 72.53667 23.0278, 72.53664 23.02789, 72.53607 23.02816, 72.53582 23.02766, 72.53582 23.02766, 72.53575 23.02753, 72.53569 23.02749, 72.53566 23.02742, 72.53549 23.02688, 72.53537 23.02654, 72.53516 23.02585, 72.53491 23.02492, 72.53464 23.02401, 72.53464 23.02401, 72.53452 23.02356, 72.53438 23.02359, 72.53435 23.02347, 72.53434 23.02334, 72.53391 23.02347, 72.53328 23.02376, 72.53315 23.02382, 72.53314 23.0238, 72.53279 23.02397, 72.53233 23.02416, 72.53217 23.0242, 72.53201 23.02422, 72.5315 23.02422, 72.530486 23.024297, 72.530217 23.024337, 72.53008 23.024361, 72.52982 23.024411, 72.529391 23.024484, 72.52937 23.02441, 72.529317 23.024495, 72.529169 23.02456, 72.528877 23.024634, 72.528397 23.024784, 72.527931 23.02495, 72.527431 23.025158, 72.52777 23.0249, 72.52739 23.02509, 72.52668 23.02553, 72.52659 23.02556, 72.52599 23.02568, 72.52482 23.02589, 72.52399 23.02613, 72.52399 23.02613, 72.52336 23.02632, 72.52308 23.02648, 72.52204 23.02716, 72.52173 23.02732, 72.52173 23.02732, 72.52122 23.02755, 72.5211 23.02759, 72.52077 23.02763, 72.51958 23.02768, 72.51873 23.02782, 72.5186 23.02781, 72.51778 23.02762, 72.51762 23.02759, 72.51762 23.02759, 72.51733 23.02754, 72.51712 23.02753, 72.51623 23.02767, 72.51576 23.02772, 72.51544 23.02771, 72.51479 23.02763, 72.51479 23.02763, 72.51316 23.02743, 72.51316 23.02743, 72.51162 23.02726, 72.51106 23.02724, 72.51033 23.02724, 72.50998 23.02722, 72.50947 23.02714, 72.50892 23.02702, 72.50847 23.02703)"
  },
  {
    "stopName": "Mount Carmel School",
    "stopCode": 1213,
    "stationCode": 2102,
    "stopType": "MUNICIPAL_BUS",
    "shortStopName": null,
    "Position": {
      "stopLongitude": "72.568438",
      "stopLatitude": "23.034723"
    },
    "RouteCodes": null,
    "Sequence": 2,
    "routeFlow": null
  },
  {
    "stopName": "Navarangpura",
    "stopCode": 1214,
    "stationCode": 2189,
    "stopType": "MUNICIPAL_BUS",
    "shortStopName": null,
    "Position": {
      "stopLongitude": "72.563374",
      "stopLatitude": "23.035586"
    },
    "RouteCodes": null,
    "Sequence": 3,
    "routeFlow": null
  },
  {
    "stopName": "Swastik Society",
    "stopCode": 1215,
    "stationCode": 2903,
    "stopType": "MUNICIPAL_BUS",
    "shortStopName": null,
    "Position": {
      "stopLongitude": "72.560326",
      "stopLatitude": "23.036878"
    },
    "RouteCodes": null,
    "Sequence": 4,
    "routeFlow": null
  },
  {
    "stopName": "Commerce College Hostel",
    "stopCode": 1216,
    "stationCode": 1403,
    "stopType": "MUNICIPAL_BUS",
    "shortStopName": null,
    "Position": {
      "stopLongitude": "72.557906",
      "stopLatitude": "23.037986"
    },
    "RouteCodes": null,
    "Sequence": 5,
    "routeFlow": null
  },
  {
    "stopName": "Commerce College",
    "stopCode": 1217,
    "stationCode": 1402,
    "stopType": "MUNICIPAL_BUS",
    "shortStopName": null,
    "Position": {
      "stopLongitude": "72.555578",
      "stopLatitude": "23.038808"
    },
    "RouteCodes": null,
    "Sequence": 6,
    "routeFlow": null
  },
  {
    "stopName": "Jain Upashray (Hira Panna Flats)",
    "stopCode": 1218,
    "stationCode": 1746,
    "stopType": "MUNICIPAL_BUS",
    "shortStopName": null,
    "Position": {
      "stopLongitude": "72.553986",
      "stopLatitude": "23.040075"
    },
    "RouteCodes": null,
    "Sequence": 7,
    "routeFlow": null
  },
  {
    "stopName": "Suchita Apartment (Vijay Char Rasta)",
    "stopCode": 1220,
    "stationCode": 2852,
    "stopType": "MUNICIPAL_BUS",
    "shortStopName": null,
    "Position": {
      "stopLongitude": "72.549143",
      "stopLatitude": "23.042363"
    },
    "RouteCodes": null,
    "Sequence": 8,
    "routeFlow": null
  },
  {
    "stopName": "Dada Sahebna Pagala",
    "stopCode": 1221,
    "stationCode": 1413,
    "stopType": "MUNICIPAL_BUS",
    "shortStopName": null,
    "Position": {
      "stopLongitude": "72.54884",
      "stopLatitude": "23.03944"
    },
    "RouteCodes": null,
    "Sequence": 9,
    "routeFlow": null
  },
  {
    "stopName": "Gujarat University",
    "stopCode": 1222,
    "stationCode": 1625,
    "stopType": "MUNICIPAL_BUS",
    "shortStopName": null,
    "Position": {
      "stopLongitude": "72.549028",
      "stopLatitude": "23.034608"
    },
    "RouteCodes": null,
    "Sequence": 10,
    "routeFlow": null
  },
  {
    "stopName": "Shaifali Society",
    "stopCode": 1402,
    "stationCode": 2685,
    "stopType": "MUNICIPAL_BUS",
    "shortStopName": null,
    "Position": {
      "stopLongitude": "72.548258",
      "stopLatitude": "23.030305"
    },
    "RouteCodes": null,
    "Sequence": 11,
    "routeFlow": null
  },
  {
    "stopName": "Sahajanand College",
    "stopCode": 1404,
    "stationCode": 2543,
    "stopType": "MUNICIPAL_BUS",
    "shortStopName": null,
    "Position": {
      "stopLongitude": "72.543649",
      "stopLatitude": "23.025621"
    },
    "RouteCodes": null,
    "Sequence": 14,
    "routeFlow": null
  },
  {
    "stopName": "Panjarapol Post Office",
    "stopCode": 1405,
    "stationCode": 2298,
    "stopType": "MUNICIPAL_BUS",
    "shortStopName": null,
    "Position": {
      "stopLongitude": "72.542678",
      "stopLatitude": "23.0253"
    },
    "RouteCodes": null,
    "Sequence": 15,
    "routeFlow": null
  },
  {
    "stopName": "Azad Society",
    "stopCode": 1406,
    "stationCode": 1208,
    "stopType": "MUNICIPAL_BUS",
    "shortStopName": null,
    "Position": {
      "stopLongitude": "72.539178",
      "stopLatitude": "23.026606"
    },
    "RouteCodes": null,
    "Sequence": 16,
    "routeFlow": null
  },
  {
    "stopName": "Azad Apartment",
    "stopCode": 1407,
    "stationCode": 1207,
    "stopType": "MUNICIPAL_BUS",
    "shortStopName": null,
    "Position": {
      "stopLongitude": "72.537213",
      "stopLatitude": "23.027528"
    },
    "RouteCodes": null,
    "Sequence": 17,
    "routeFlow": null
  },
  {
    "stopName": "Shivranjni Society",
    "stopCode": 1411,
    "stationCode": 2729,
    "stopType": "MUNICIPAL_BUS",
    "shortStopName": null,
    "Position": {
      "stopLongitude": "72.529388",
      "stopLatitude": "23.024465"
    },
    "RouteCodes": null,
    "Sequence": 21,
    "routeFlow": null
  },
  {
    "stopName": "Jodhpur Road",
    "stopCode": 1412,
    "stationCode": 1795,
    "stopType": "MUNICIPAL_BUS",
    "shortStopName": null,
    "Position": {
      "stopLongitude": "72.527766",
      "stopLatitude": "23.024896"
    },
    "RouteCodes": null,
    "Sequence": 22,
    "routeFlow": null
  },
  {
    "stopName": "Harisiddh Society",
    "stopCode": 1413,
    "stationCode": 1665,
    "stopType": "MUNICIPAL_BUS",
    "shortStopName": null,
    "Position": {
      "stopLongitude": "72.523983",
      "stopLatitude": "23.026101"
    },
    "RouteCodes": null,
    "Sequence": 23,
    "routeFlow": null
  },
  {
    "stopName": "Satellite Station",
    "stopCode": 1414,
    "stationCode": 2647,
    "stopType": "MUNICIPAL_BUS",
    "shortStopName": null,
    "Position": {
      "stopLongitude": "72.52175",
      "stopLatitude": "23.027355"
    },
    "RouteCodes": null,
    "Sequence": 24,
    "routeFlow": null
  },
  {
    "stopName": "Bhav Nirzar",
    "stopCode": 1415,
    "stationCode": 1290,
    "stopType": "MUNICIPAL_BUS",
    "shortStopName": null,
    "Position": {
      "stopLongitude": "72.517621",
      "stopLatitude": "23.027573"
    },
    "RouteCodes": null,
    "Sequence": 25,
    "routeFlow": null
  },
  {
    "stopName": "Narayan Vidyalay",
    "stopCode": 1416,
    "stationCode": 2159,
    "stopType": "MUNICIPAL_BUS",
    "shortStopName": null,
    "Position": {
      "stopLongitude": "72.514785",
      "stopLatitude": "23.027643"
    },
    "RouteCodes": null,
    "Sequence": 26,
    "routeFlow": null
  },
  {
    "stopName": "Ramdevnagar",
    "stopCode": 1417,
    "stationCode": 2467,
    "stopType": "MUNICIPAL_BUS",
    "shortStopName": null,
    "Position": {
      "stopLongitude": "72.513158",
      "stopLatitude": "23.027453"
    },
    "RouteCodes": null,
    "Sequence": 27,
    "routeFlow": null
  },
  {
    "stopName": "Satkar Society",
    "stopCode": 1571,
    "stationCode": 2648,
    "stopType": "MUNICIPAL_BUS",
    "shortStopName": null,
    "Position": {
      "stopLongitude": "72.535786",
      "stopLatitude": "23.027675"
    },
    "RouteCodes": null,
    "Sequence": 18,
    "routeFlow": null
  },
  {
    "stopName": "Umiya Vijay Society",
    "stopCode": 2617,
    "stationCode": 2968,
    "stopType": "MUNICIPAL_BUS",
    "shortStopName": null,
    "Position": {
      "stopLongitude": "72.533141",
      "stopLatitude": "23.02381"
    },
    "RouteCodes": null,
    "Sequence": 20,
    "routeFlow": null
  },
  {
    "stopName": "Bimanagar",
    "stopCode": 3190,
    "stationCode": 1314,
    "stopType": "MUNICIPAL_BUS",
    "shortStopName": null,
    "Position": {
      "stopLongitude": "72.534625",
      "stopLatitude": "23.02401"
    },
    "RouteCodes": null,
    "Sequence": 19,
    "routeFlow": null
  },
  {
    "stopName": "Iskon Mandir",
    "stopCode": 3213,
    "stationCode": 1731,
    "stopType": "MUNICIPAL_BUS",
    "shortStopName": null,
    "Position": {
      "stopLongitude": "72.508475",
      "stopLatitude": "23.02708"
    },
    "RouteCodes": null,
    "Sequence": 28,
    "routeFlow": null
  },
  {
    "stopName": "Panjarapol",
    "stopCode": 7094,
    "stationCode": 2297,
    "stopType": "MUNICIPAL_BUS",
    "shortStopName": null,
    "Position": {
      "stopLongitude": "72.545299",
      "stopLatitude": "23.027464"
    },
    "RouteCodes": null,
    "Sequence": 13,
    "routeFlow": null
  },
  {
    "stopName": "Gujarati Friend Society",
    "stopCode": 8907,
    "stationCode": 6201,
    "stopType": "MUNICIPAL_BUS",
    "shortStopName": null,
    "Position": {
      "stopLongitude": "72.546441",
      "stopLatitude": "23.028592"
    },
    "RouteCodes": null,
    "Sequence": 12,
    "routeFlow": null
  }
]