[
  {
    "stopName": "Jain Upashray (Hira Panna Flats)",
    "stopCode": 1054,
    "stationCode": 1746,
    "stopType": "MUNICIPAL_BUS",
    "shortStopName": null,
    "Position": {
      "stopLongitude": "72.553938",
      "stopLatitude": "23.040258"
    },
    "RouteCodes": null,
    "Sequence": 46,
    "routeFlow": "LINESTRING (72.57853 23.02437, 72.5788 23.02436, 72.57904 23.02434, 72.57904 23.02503, 72.5796 23.02504, 72.57976 23.02504, 72.58002 23.02499, 72.58037 23.02497, 72.58045 23.02499, 72.58058 23.02506, 72.58064 23.02513, 72.58063 23.02551, 72.58062 23.02571, 72.58059 23.02624, 72.58061 23.02662, 72.58062 23.02679, 72.58064 23.02715, 72.58069 23.02721, 72.58084 23.02734, 72.58119 23.02748, 72.58135 23.02761, 72.58138 23.02785, 72.58141 23.02815, 72.58142 23.0282, 72.58142 23.0282, 72.58159 23.02884, 72.58165 23.0289, 72.58177 23.02898, 72.58204 23.0291, 72.58218 23.02922, 72.58243 23.02958, 72.58263 23.02979, 72.58266 23.02982, 72.58268 23.02992, 72.58276 23.03027, 72.58283 23.03037, 72.58306 23.03044, 72.5832 23.03047, 72.5832 23.03047, 72.58348 23.03053, 72.58354 23.03053, 72.58357 23.03057, 72.58377 23.03091, 72.58409 23.03156, 72.58461 23.03259, 72.58461 23.03259, 72.58484 23.03303, 72.58501 23.0333, 72.58579 23.0343, 72.58579 23.0343, 72.58612 23.03473, 72.58644 23.03505, 72.5868 23.03542, 72.58702 23.03575, 72.58711 23.03584, 72.58714 23.03586, 72.58714 23.03586, 72.58745 23.03608, 72.58761 23.03622, 72.58768 23.03632, 72.58774 23.0366, 72.58776 23.03674, 72.58789 23.03747, 72.58791 23.03756, 72.58788 23.03766, 72.58785 23.03774, 72.58787 23.03793, 72.58506 23.03857, 72.58506 23.03857, 72.5835 23.0389, 72.5835 23.0389, 72.58274 23.03902, 72.58199 23.03912, 72.58086 23.0392, 72.58086 23.0392, 72.58003 23.03928, 72.57966 23.03934, 72.57817 23.0396, 72.57713 23.03973, 72.57713 23.03973, 72.57562 23.03985, 72.57354 23.03997, 72.57147 23.04014, 72.56925 23.04023, 72.56934 23.04138, 72.56945 23.04214, 72.56945 23.04214, 72.56961 23.04307, 72.56961 23.04307, 72.57001 23.0453, 72.57014 23.04614, 72.57024 23.0466, 72.57024 23.04673, 72.5702 23.04688, 72.57014 23.04696, 72.56967 23.04693, 72.56967 23.04693, 72.56856 23.04686, 72.56825 23.04684, 72.56823 23.04691, 72.5677 23.04744, 72.5677 23.04744, 72.56759 23.04756, 72.56695 23.0484, 72.5663 23.04939, 72.5661 23.04974, 72.5661 23.04974, 72.5659 23.05017, 72.56573 23.05061, 72.5657 23.05081, 72.56566 23.05119, 72.56569 23.05148, 72.56569 23.05148, 72.56579 23.05193, 72.56577 23.05194, 72.56522 23.05202, 72.56466 23.05206, 72.56425 23.05212, 72.56406 23.05212, 72.56342 23.05203, 72.56313 23.05203, 72.56301 23.05207, 72.56289 23.0521, 72.56279 23.05208, 72.56246 23.05211, 72.56246 23.05212, 72.56206 23.05216, 72.56139 23.05225, 72.56099 23.0523, 72.56036 23.05234, 72.5599 23.05233, 72.55954 23.05228, 72.55916 23.05224, 72.55909 23.05224, 72.55909 23.05224, 72.55823 23.05228, 72.55775 23.05231, 72.55726 23.05233, 72.55619 23.0523, 72.55586 23.05229, 72.55586 23.05229, 72.55407 23.05216, 72.5538 23.05214, 72.5538 23.05214, 72.55312 23.0521, 72.5526 23.05209, 72.55213 23.05208, 72.55174 23.05202, 72.55159 23.05201, 72.55145 23.05202, 72.55138 23.05203, 72.55138 23.05203, 72.5511 23.05206, 72.55076 23.05208, 72.55011 23.05212, 72.54985 23.05216, 72.5497 23.05221, 72.54969 23.05221, 72.54968 23.0522, 72.54967 23.0522, 72.54965 23.05219, 72.54963 23.0522, 72.5496 23.05223, 72.54943 23.0523, 72.54879 23.05257, 72.54879 23.05257, 72.54684 23.05356, 72.54581 23.0541, 72.54487 23.0546, 72.54487 23.0546, 72.54225 23.05596, 72.54225 23.05596, 72.54174 23.05622, 72.54069 23.05668, 72.54015 23.05692, 72.54015 23.05692, 72.53988 23.05704, 72.53975 23.05712, 72.53956 23.05725, 72.53867 23.0579, 72.53789 23.05835, 72.53658 23.05911, 72.5364 23.05927, 72.53628 23.05944, 72.53599 23.05982, 72.53599 23.05982, 72.53562 23.0603, 72.5351 23.06087, 72.53399 23.06202, 72.53385 23.06215, 72.53358 23.06237, 72.53341 23.06246, 72.53341 23.06246, 72.53287 23.06272, 72.53165 23.06341, 72.53165 23.06341, 72.53079 23.06388, 72.53064 23.06396, 72.53041 23.06396, 72.53007 23.06398, 72.52966 23.06396, 72.52886 23.06393, 72.52886 23.06393, 72.5256 23.06383, 72.52559 23.0637, 72.52559 23.0637, 72.52554 23.06325, 72.52552 23.06316, 72.52546 23.06299, 72.52526 23.06263, 72.5248 23.06175, 72.52476 23.06168, 72.52476 23.06168, 72.52437 23.06088, 72.52548 23.06035, 72.52643 23.0599, 72.52643 23.0599, 72.52696 23.05964, 72.52915 23.05861, 72.52916 23.05862, 72.52918 23.05864, 72.5292 23.05864, 72.52945 23.05906, 72.52945 23.05906, 72.53062 23.0611, 72.53071 23.06125, 72.53081 23.06118, 72.53091 23.06111, 72.53091 23.06111, 72.53166 23.06062, 72.53204 23.0604, 72.53254 23.06011, 72.53254 23.06011, 72.53295 23.05984, 72.53326 23.05968, 72.53349 23.05963, 72.53402 23.05951, 72.5342 23.05949, 72.53416 23.05875, 72.53416 23.05875, 72.53407 23.0568, 72.53407 23.05654, 72.53403 23.05634, 72.53399 23.05579, 72.53397 23.05557, 72.53397 23.05557, 72.53389 23.05434, 72.53375 23.05245, 72.53377 23.05244, 72.53379 23.05239, 72.53378 23.05234, 72.53374 23.05231, 72.53373 23.05202, 72.53373 23.05202, 72.53372 23.05047, 72.5337 23.04964, 72.53367 23.04885, 72.53367 23.04885, 72.53357 23.04677, 72.53356 23.04593, 72.53467 23.04593, 72.53467 23.04596, 72.53678 23.04598, 72.53678 23.04598, 72.53723 23.04598, 72.53759 23.04599, 72.53863 23.04596, 72.53938 23.04594, 72.53938 23.04587, 72.54013 23.04587, 72.54014 23.04588, 72.54018 23.0459, 72.54025 23.04589, 72.5403 23.04584, 72.54058 23.0458, 72.54075 23.04575, 72.54142 23.04547, 72.54172 23.04537, 72.54261 23.04508, 72.54268 23.04506, 72.54268 23.04506, 72.54423 23.04476, 72.54485 23.04468, 72.54543 23.04463, 72.54555 23.04461, 72.54574 23.04458, 72.54574 23.04458, 72.54619 23.04447, 72.54643 23.04438, 72.54698 23.04412, 72.54742 23.04388, 72.54795 23.04352, 72.54795 23.04352, 72.54914 23.04271, 72.5502 23.04214, 72.55153 23.04155, 72.5522 23.04124, 72.55296 23.04082, 72.55322 23.04066, 72.55336 23.04057, 72.55391 23.04022, 72.55391 23.04022, 72.55428 23.03998, 72.55454 23.03988, 72.5547 23.03985, 72.55473 23.03987, 72.55478 23.0399, 72.55483 23.03991, 72.55494 23.0399, 72.55502 23.03983, 72.55505 23.03972, 72.555 23.03961, 72.55516 23.03928, 72.55526 23.0391, 72.55552 23.03896, 72.5558 23.03891, 72.55612 23.03884, 72.55612 23.03883, 72.5566 23.03871, 72.55694 23.03857, 72.55728 23.0384, 72.55776 23.03813, 72.55776 23.03813, 72.55893 23.03755, 72.55993 23.0371, 72.56066 23.0368, 72.56066 23.0368, 72.56123 23.03657, 72.563733 23.035522, 72.56387 23.03555, 72.56409 23.03551, 72.56418 23.03548, 72.56418 23.03548, 72.56445 23.03537, 72.56452 23.03534, 72.5645 23.03524, 72.56447 23.03515, 72.56423 23.03458, 72.56417 23.03436, 72.56409 23.03407, 72.56402 23.03378, 72.56396 23.03309, 72.56396 23.03266, 72.56398 23.03239, 72.56408 23.03182, 72.56409 23.03176, 72.56409 23.03176, 72.56416 23.03157, 72.5642 23.03134, 72.56422 23.03133, 72.56427 23.03129, 72.5643 23.03124, 72.56431 23.03106, 72.56432 23.03103, 72.56441 23.03096, 72.56452 23.03089, 72.56475 23.03083, 72.56497 23.0308, 72.56518 23.03079, 72.56546 23.03072, 72.56579 23.03069, 72.56592 23.03068, 72.56614 23.03068, 72.56614 23.03068, 72.56683 23.03069, 72.56721 23.03075, 72.56781 23.03086, 72.56846 23.03105, 72.56878 23.03108, 72.56932 23.03105, 72.56969 23.03097, 72.57053 23.03075, 72.57066 23.03073, 72.57065 23.03067, 72.57059 23.03014, 72.57057 23.02986, 72.57057 23.02986, 72.57056 23.02966, 72.57057 23.02946, 72.57083 23.02868, 72.57083 23.02868, 72.57102 23.02809, 72.57111 23.02766, 72.57116 23.02732, 72.57121 23.02694, 72.57123 23.02668, 72.57251 23.02678, 72.57808 23.02722, 72.57841 23.02725, 72.57865 23.02727, 72.57869 23.02727, 72.58005 23.02736, 72.58111 23.02732, 72.5813 23.02725, 72.58135 23.02722, 72.58136 23.02709, 72.5814 23.02643, 72.58107 23.0264, 72.58082 23.02643, 72.58059 23.02624, 72.58062 23.02571, 72.58064 23.02532, 72.58064 23.02532, 72.58064 23.02493, 72.58062 23.02472, 72.58065 23.0245, 72.58064 23.02448, 72.58054 23.02425, 72.58044 23.02405, 72.58038 23.02398, 72.58018 23.02386, 72.5797 23.02365, 72.57949 23.02352, 72.57923 23.02351, 72.57914 23.02354, 72.57906 23.0237, 72.57906 23.02401, 72.57904 23.02434, 72.57864 23.02437, 72.5786 23.02437)"
  },
  {
    "stopName": "Sardarbag",
    "stopCode": 1075,
    "stationCode": 2611,
    "stopType": "MUNICIPAL_BUS",
    "shortStopName": null,
    "Position": {
      "stopLongitude": "72.578645",
      "stopLatitude": "23.027351"
    },
    "RouteCodes": null,
    "Sequence": 55,
    "routeFlow": null
  },
  {
    "stopName": "Apna Bazar",
    "stopCode": 1076,
    "stationCode": 1150,
    "stopType": "MUNICIPAL_BUS",
    "shortStopName": null,
    "Position": {
      "stopLongitude": "72.580705",
      "stopLatitude": "23.025321"
    },
    "RouteCodes": null,
    "Sequence": 56,
    "routeFlow": null
  },
  {
    "stopName": "Dinbai Tower",
    "stopCode": 1078,
    "stationCode": 1463,
    "stopType": "MUNICIPAL_BUS",
    "shortStopName": null,
    "Position": {
      "stopLongitude": "72.581381",
      "stopLatitude": "23.028206"
    },
    "RouteCodes": null,
    "Sequence": 2,
    "routeFlow": null
  },
  {
    "stopName": "Jansatta Karyalay",
    "stopCode": 1079,
    "stationCode": 1761,
    "stopType": "MUNICIPAL_BUS",
    "shortStopName": null,
    "Position": {
      "stopLongitude": "72.583185",
      "stopLatitude": "23.030511"
    },
    "RouteCodes": null,
    "Sequence": 3,
    "routeFlow": null
  },
  {
    "stopName": "Ahmedabad Gramya Jilla Nyayalay",
    "stopCode": 1080,
    "stationCode": 1077,
    "stopType": "MUNICIPAL_BUS",
    "shortStopName": null,
    "Position": {
      "stopLongitude": "72.58455",
      "stopLatitude": "23.032603"
    },
    "RouteCodes": null,
    "Sequence": 4,
    "routeFlow": null
  },
  {
    "stopName": "Rentiyawadi",
    "stopCode": 1081,
    "stationCode": 2501,
    "stopType": "MUNICIPAL_BUS",
    "shortStopName": null,
    "Position": {
      "stopLongitude": "72.585701",
      "stopLatitude": "23.03436"
    },
    "RouteCodes": null,
    "Sequence": 5,
    "routeFlow": null
  },
  {
    "stopName": "Commerce College",
    "stopCode": 1107,
    "stationCode": 1402,
    "stopType": "MUNICIPAL_BUS",
    "shortStopName": null,
    "Position": {
      "stopLongitude": "72.556131",
      "stopLatitude": "23.038873"
    },
    "RouteCodes": null,
    "Sequence": 47,
    "routeFlow": null
  },
  {
    "stopName": "Commerce College Hostel",
    "stopCode": 1108,
    "stationCode": 1403,
    "stopType": "MUNICIPAL_BUS",
    "shortStopName": null,
    "Position": {
      "stopLongitude": "72.55777",
      "stopLatitude": "23.038141"
    },
    "RouteCodes": null,
    "Sequence": 48,
    "routeFlow": null
  },
  {
    "stopName": "Swastik Society",
    "stopCode": 1109,
    "stationCode": 2903,
    "stopType": "MUNICIPAL_BUS",
    "shortStopName": null,
    "Position": {
      "stopLongitude": "72.560678",
      "stopLatitude": "23.036845"
    },
    "RouteCodes": null,
    "Sequence": 49,
    "routeFlow": null
  },
  {
    "stopName": "Lal Darwaja",
    "stopCode": 1125,
    "stationCode": 1961,
    "stopType": "MUNICIPAL_BUS",
    "shortStopName": null,
    "Position": {
      "stopLongitude": "72.578605",
      "stopLatitude": "23.024376"
    },
    "RouteCodes": null,
    "Sequence": 57,
    "routeFlow": null
  },
  {
    "stopName": "Navarangpura",
    "stopCode": 1150,
    "stationCode": 2189,
    "stopType": "MUNICIPAL_BUS",
    "shortStopName": null,
    "Position": {
      "stopLongitude": "72.564193",
      "stopLatitude": "23.03552"
    },
    "RouteCodes": null,
    "Sequence": 50,
    "routeFlow": null
  },
  {
    "stopName": "Delhi Darwaja (Rt.77 Stand)",
    "stopCode": 1208,
    "stationCode": 1432,
    "stopType": "MUNICIPAL_BUS",
    "shortStopName": null,
    "Position": {
      "stopLongitude": "72.585037",
      "stopLatitude": "23.038497"
    },
    "RouteCodes": null,
    "Sequence": 7,
    "routeFlow": null
  },
  {
    "stopName": "Halimni Khadki",
    "stopCode": 1209,
    "stationCode": 1646,
    "stopType": "MUNICIPAL_BUS",
    "shortStopName": null,
    "Position": {
      "stopLongitude": "72.583493",
      "stopLatitude": "23.03888"
    },
    "RouteCodes": null,
    "Sequence": 8,
    "routeFlow": null
  },
  {
    "stopName": "Shahpur Darwaja",
    "stopCode": 1210,
    "stationCode": 2683,
    "stopType": "MUNICIPAL_BUS",
    "shortStopName": null,
    "Position": {
      "stopLongitude": "72.58086",
      "stopLatitude": "23.039192"
    },
    "RouteCodes": null,
    "Sequence": 9,
    "routeFlow": null
  },
  {
    "stopName": "Shankar Bhuvan",
    "stopCode": 1211,
    "stationCode": 2696,
    "stopType": "MUNICIPAL_BUS",
    "shortStopName": null,
    "Position": {
      "stopLongitude": "72.57713",
      "stopLatitude": "23.039758"
    },
    "RouteCodes": null,
    "Sequence": 10,
    "routeFlow": null
  },
  {
    "stopName": "Income Tax Office",
    "stopCode": 2030,
    "stationCode": 1705,
    "stopType": "MUNICIPAL_BUS",
    "shortStopName": null,
    "Position": {
      "stopLongitude": "72.569513",
      "stopLatitude": "23.042136"
    },
    "RouteCodes": null,
    "Sequence": 11,
    "routeFlow": null
  },
  {
    "stopName": "Gujarat Vidyapith",
    "stopCode": 2163,
    "stationCode": 1627,
    "stopType": "MUNICIPAL_BUS",
    "shortStopName": null,
    "Position": {
      "stopLongitude": "72.56962",
      "stopLatitude": "23.043068"
    },
    "RouteCodes": null,
    "Sequence": 12,
    "routeFlow": null
  },
  {
    "stopName": "Vallabhsadan",
    "stopCode": 2220,
    "stationCode": 3005,
    "stopType": "MUNICIPAL_BUS",
    "shortStopName": null,
    "Position": {
      "stopLongitude": "72.570603",
      "stopLatitude": "23.029853"
    },
    "RouteCodes": null,
    "Sequence": 53,
    "routeFlow": null
  },
  {
    "stopName": "Nataraj Cinema",
    "stopCode": 2221,
    "stationCode": 2182,
    "stopType": "MUNICIPAL_BUS",
    "shortStopName": null,
    "Position": {
      "stopLongitude": "72.570805",
      "stopLatitude": "23.028671"
    },
    "RouteCodes": null,
    "Sequence": 54,
    "routeFlow": null
  },
  {
    "stopName": "Delhi Chakla",
    "stopCode": 2353,
    "stationCode": 1430,
    "stopType": "MUNICIPAL_BUS",
    "shortStopName": null,
    "Position": {
      "stopLongitude": "72.587115",
      "stopLatitude": "23.035895"
    },
    "RouteCodes": null,
    "Sequence": 6,
    "routeFlow": null
  },
  {
    "stopName": "Shrimali Society",
    "stopCode": 2825,
    "stationCode": 2750,
    "stopType": "MUNICIPAL_BUS",
    "shortStopName": null,
    "Position": {
      "stopLongitude": "72.564168",
      "stopLatitude": "23.031773"
    },
    "RouteCodes": null,
    "Sequence": 51,
    "routeFlow": null
  },
  {
    "stopName": "Usmanpura",
    "stopCode": 2888,
    "stationCode": 2975,
    "stopType": "MUNICIPAL_BUS",
    "shortStopName": null,
    "Position": {
      "stopLongitude": "72.569671",
      "stopLatitude": "23.046948"
    },
    "RouteCodes": null,
    "Sequence": 13,
    "routeFlow": null
  },
  {
    "stopName": "Vidyanagar High School (Usmanpura)",
    "stopCode": 2889,
    "stationCode": 3040,
    "stopType": "MUNICIPAL_BUS",
    "shortStopName": null,
    "Position": {
      "stopLongitude": "72.567671",
      "stopLatitude": "23.047411"
    },
    "RouteCodes": null,
    "Sequence": 14,
    "routeFlow": null
  },
  {
    "stopName": "Panchshil Society",
    "stopCode": 2890,
    "stationCode": 2293,
    "stopType": "MUNICIPAL_BUS",
    "shortStopName": null,
    "Position": {
      "stopLongitude": "72.566093",
      "stopLatitude": "23.049738"
    },
    "RouteCodes": null,
    "Sequence": 15,
    "routeFlow": null
  },
  {
    "stopName": "Shriniketan Society",
    "stopCode": 2891,
    "stationCode": 2759,
    "stopType": "MUNICIPAL_BUS",
    "shortStopName": null,
    "Position": {
      "stopLongitude": "72.565679",
      "stopLatitude": "23.051481"
    },
    "RouteCodes": null,
    "Sequence": 16,
    "routeFlow": null
  },
  {
    "stopName": "Gautamnagar (Naranpura Railway Crossing)",
    "stopCode": 2892,
    "stationCode": 1537,
    "stopType": "MUNICIPAL_BUS",
    "shortStopName": null,
    "Position": {
      "stopLongitude": "72.562461",
      "stopLatitude": "23.052121"
    },
    "RouteCodes": null,
    "Sequence": 17,
    "routeFlow": null
  },
  {
    "stopName": "Naranpura Char Rasta",
    "stopCode": 2893,
    "stationCode": 2155,
    "stopType": "MUNICIPAL_BUS",
    "shortStopName": null,
    "Position": {
      "stopLongitude": "72.559088",
      "stopLatitude": "23.052203"
    },
    "RouteCodes": null,
    "Sequence": 18,
    "routeFlow": null
  },
  {
    "stopName": "Amikunj Society",
    "stopCode": 2894,
    "stationCode": 1117,
    "stopType": "MUNICIPAL_BUS",
    "shortStopName": null,
    "Position": {
      "stopLongitude": "72.555861",
      "stopLatitude": "23.052291"
    },
    "RouteCodes": null,
    "Sequence": 19,
    "routeFlow": null
  },
  {
    "stopName": "Devendra Society",
    "stopCode": 2895,
    "stationCode": 1444,
    "stopType": "MUNICIPAL_BUS",
    "shortStopName": null,
    "Position": {
      "stopLongitude": "72.553803",
      "stopLatitude": "23.052143"
    },
    "RouteCodes": null,
    "Sequence": 20,
    "routeFlow": null
  },
  {
    "stopName": "Naranpura",
    "stopCode": 2962,
    "stationCode": 2154,
    "stopType": "MUNICIPAL_BUS",
    "shortStopName": null,
    "Position": {
      "stopLongitude": "72.55137",
      "stopLatitude": "23.051983"
    },
    "RouteCodes": null,
    "Sequence": 21,
    "routeFlow": null
  },
  {
    "stopName": "A.E.C Zonal Office",
    "stopCode": 2963,
    "stationCode": 1076,
    "stopType": "MUNICIPAL_BUS",
    "shortStopName": null,
    "Position": {
      "stopLongitude": "72.548765",
      "stopLatitude": "23.052528"
    },
    "RouteCodes": null,
    "Sequence": 22,
    "routeFlow": null
  },
  {
    "stopName": "Paras Nagar",
    "stopCode": 2964,
    "stationCode": 2305,
    "stopType": "MUNICIPAL_BUS",
    "shortStopName": null,
    "Position": {
      "stopLongitude": "72.544873",
      "stopLatitude": "23.05461"
    },
    "RouteCodes": null,
    "Sequence": 23,
    "routeFlow": null
  },
  {
    "stopName": "Akashganga",
    "stopCode": 2965,
    "stationCode": 1089,
    "stopType": "MUNICIPAL_BUS",
    "shortStopName": null,
    "Position": {
      "stopLongitude": "72.542251",
      "stopLatitude": "23.055973"
    },
    "RouteCodes": null,
    "Sequence": 24,
    "routeFlow": null
  },
  {
    "stopName": "Sola Housing Complex",
    "stopCode": 2966,
    "stationCode": 2820,
    "stopType": "MUNICIPAL_BUS",
    "shortStopName": null,
    "Position": {
      "stopLongitude": "72.540153",
      "stopLatitude": "23.056921"
    },
    "RouteCodes": null,
    "Sequence": 25,
    "routeFlow": null
  },
  {
    "stopName": "Bhuyangdev Society",
    "stopCode": 2967,
    "stationCode": 1307,
    "stopType": "MUNICIPAL_BUS",
    "shortStopName": null,
    "Position": {
      "stopLongitude": "72.536033",
      "stopLatitude": "23.05985"
    },
    "RouteCodes": null,
    "Sequence": 26,
    "routeFlow": null
  },
  {
    "stopName": "Sarvodaynagar",
    "stopCode": 2968,
    "stationCode": 2645,
    "stopType": "MUNICIPAL_BUS",
    "shortStopName": null,
    "Position": {
      "stopLongitude": "72.533413",
      "stopLatitude": "23.062466"
    },
    "RouteCodes": null,
    "Sequence": 27,
    "routeFlow": null
  },
  {
    "stopName": "Sarthak School (Sattadhar Cross Road)",
    "stopCode": 2969,
    "stationCode": 2638,
    "stopType": "MUNICIPAL_BUS",
    "shortStopName": null,
    "Position": {
      "stopLongitude": "72.53166",
      "stopLatitude": "23.06343"
    },
    "RouteCodes": null,
    "Sequence": 28,
    "routeFlow": null
  },
  {
    "stopName": "Maruti Complex (Subhash Chowk)",
    "stopCode": 2986,
    "stationCode": 2059,
    "stopType": "MUNICIPAL_BUS",
    "shortStopName": null,
    "Position": {
      "stopLongitude": "72.533823",
      "stopLatitude": "23.052001"
    },
    "RouteCodes": null,
    "Sequence": 38,
    "routeFlow": null
  },
  {
    "stopName": "Nand Apartment",
    "stopCode": 2987,
    "stationCode": 2146,
    "stopType": "MUNICIPAL_BUS",
    "shortStopName": null,
    "Position": {
      "stopLongitude": "72.53385",
      "stopLatitude": "23.048845"
    },
    "RouteCodes": null,
    "Sequence": 39,
    "routeFlow": null
  },
  {
    "stopName": "Kailasnagar",
    "stopCode": 3031,
    "stationCode": 1823,
    "stopType": "MUNICIPAL_BUS",
    "shortStopName": null,
    "Position": {
      "stopLongitude": "72.5427",
      "stopLatitude": "23.045131"
    },
    "RouteCodes": null,
    "Sequence": 43,
    "routeFlow": null
  },
  {
    "stopName": "Saurabh Society",
    "stopCode": 3032,
    "stationCode": 2661,
    "stopType": "MUNICIPAL_BUS",
    "shortStopName": null,
    "Position": {
      "stopLongitude": "72.545753",
      "stopLatitude": "23.044628"
    },
    "RouteCodes": null,
    "Sequence": 44,
    "routeFlow": null
  },
  {
    "stopName": "Gurukul",
    "stopCode": 3248,
    "stationCode": 1640,
    "stopType": "MUNICIPAL_BUS",
    "shortStopName": null,
    "Position": {
      "stopLongitude": "72.534668",
      "stopLatitude": "23.045993"
    },
    "RouteCodes": null,
    "Sequence": 40,
    "routeFlow": null
  },
  {
    "stopName": "Niranjan Society",
    "stopCode": 3249,
    "stationCode": 2231,
    "stopType": "MUNICIPAL_BUS",
    "shortStopName": null,
    "Position": {
      "stopLongitude": "72.536783",
      "stopLatitude": "23.045983"
    },
    "RouteCodes": null,
    "Sequence": 41,
    "routeFlow": null
  },
  {
    "stopName": "Manav Mandir",
    "stopCode": 3250,
    "stationCode": 2023,
    "stopType": "MUNICIPAL_BUS",
    "shortStopName": null,
    "Position": {
      "stopLongitude": "72.539385",
      "stopLatitude": "23.045961"
    },
    "RouteCodes": null,
    "Sequence": 42,
    "routeFlow": null
  },
  {
    "stopName": "Mithakhali",
    "stopCode": 3252,
    "stationCode": 2088,
    "stopType": "MUNICIPAL_BUS",
    "shortStopName": null,
    "Position": {
      "stopLongitude": "72.566138",
      "stopLatitude": "23.030716"
    },
    "RouteCodes": null,
    "Sequence": 52,
    "routeFlow": null
  },
  {
    "stopName": "Suchita Apartment (Vijay Char Rasta)",
    "stopCode": 3855,
    "stationCode": 2852,
    "stopType": "MUNICIPAL_BUS",
    "shortStopName": null,
    "Position": {
      "stopLongitude": "72.547983",
      "stopLatitude": "23.04356"
    },
    "RouteCodes": null,
    "Sequence": 45,
    "routeFlow": null
  },
  {
    "stopName": "Nirman Tower (Sattadhar)",
    "stopCode": 4205,
    "stationCode": 2240,
    "stopType": "MUNICIPAL_BUS",
    "shortStopName": null,
    "Position": {
      "stopLongitude": "72.528863",
      "stopLatitude": "23.063933"
    },
    "RouteCodes": null,
    "Sequence": 29,
    "routeFlow": null
  },
  {
    "stopName": "Vaibhav Bunglows",
    "stopCode": 5193,
    "stationCode": 2989,
    "stopType": "MUNICIPAL_BUS",
    "shortStopName": null,
    "Position": {
      "stopLongitude": "72.532553",
      "stopLatitude": "23.060126"
    },
    "RouteCodes": null,
    "Sequence": 35,
    "routeFlow": null
  },
  {
    "stopName": "Income Tax Society",
    "stopCode": 5194,
    "stationCode": 1706,
    "stopType": "MUNICIPAL_BUS",
    "shortStopName": null,
    "Position": {
      "stopLongitude": "72.534235",
      "stopLatitude": "23.058751"
    },
    "RouteCodes": null,
    "Sequence": 36,
    "routeFlow": null
  },
  {
    "stopName": "Vishramnagar",
    "stopCode": 5195,
    "stationCode": 3065,
    "stopType": "MUNICIPAL_BUS",
    "shortStopName": null,
    "Position": {
      "stopLongitude": "72.53408",
      "stopLatitude": "23.055566"
    },
    "RouteCodes": null,
    "Sequence": 37,
    "routeFlow": null
  },
  {
    "stopName": "Someshwar Park",
    "stopCode": 5279,
    "stationCode": 2824,
    "stopType": "MUNICIPAL_BUS",
    "shortStopName": null,
    "Position": {
      "stopLongitude": "72.526466",
      "stopLatitude": "23.059968"
    },
    "RouteCodes": null,
    "Sequence": 32,
    "routeFlow": null
  },
  {
    "stopName": "New Nikita Park",
    "stopCode": 5280,
    "stationCode": 2211,
    "stopType": "MUNICIPAL_BUS",
    "shortStopName": null,
    "Position": {
      "stopLongitude": "72.529406",
      "stopLatitude": "23.059086"
    },
    "RouteCodes": null,
    "Sequence": 33,
    "routeFlow": null
  },
  {
    "stopName": "Sun And Step Club",
    "stopCode": 5281,
    "stationCode": 2866,
    "stopType": "MUNICIPAL_BUS",
    "shortStopName": null,
    "Position": {
      "stopLongitude": "72.530956",
      "stopLatitude": "23.061176"
    },
    "RouteCodes": null,
    "Sequence": 34,
    "routeFlow": null
  },
  {
    "stopName": "Gulab Tower",
    "stopCode": 5472,
    "stationCode": 1631,
    "stopType": "MUNICIPAL_BUS",
    "shortStopName": null,
    "Position": {
      "stopLongitude": "72.52557",
      "stopLatitude": "23.063701"
    },
    "RouteCodes": null,
    "Sequence": 30,
    "routeFlow": null
  },
  {
    "stopName": "Shilpi Residency",
    "stopCode": 5657,
    "stationCode": 2717,
    "stopType": "MUNICIPAL_BUS",
    "shortStopName": null,
    "Position": {
      "stopLongitude": "72.524806",
      "stopLatitude": "23.06166"
    },
    "RouteCodes": null,
    "Sequence": 31,
    "routeFlow": null
  },
  {
    "stopName": "Lal Darwaja",
    "stopCode": 5979,
    "stationCode": 1961,
    "stopType": "MUNICIPAL_BUS",
    "shortStopName": null,
    "Position": {
      "stopLongitude": "72.578551",
      "stopLatitude": "23.024402"
    },
    "RouteCodes": null,
    "Sequence": 1,
    "routeFlow": null
  }
]