[
  {
    "stopName": "Ekta Farm",
    "stopCode": 1683,
    "stationCode": 1483,
    "stopType": "MUNICIPAL_BUS",
    "shortStopName": null,
    "Position": {
      "stopLongitude": "72.530263",
      "stopLatitude": "23.093316"
    },
    "RouteCodes": null,
    "Sequence": 3,
    "routeFlow": "LINESTRING (72.53218 23.09832, 72.53188 23.0986, 72.53141 23.097, 72.53111 23.096, 72.5311 23.09596, 72.53064 23.09439, 72.53049 23.09397, 72.53047 23.09394, 72.53036 23.09387, 72.53034 23.09379, 72.53031 23.09371, 72.53036 23.09365, 72.53037 23.09357, 72.5303 23.09331, 72.530273 23.09334, 72.529748 23.091566, 72.529432 23.090443, 72.529127 23.0893, 72.528927 23.08863, 72.528932 23.088635, 72.528405 23.086962, 72.5282 23.08598, 72.5282 23.08598, 72.52734 23.08298, 72.52734 23.08298, 72.52631 23.07956, 72.52631 23.07956, 72.52597 23.07836, 72.52545 23.07643, 72.52534 23.07612, 72.52485 23.0745, 72.52484 23.07446, 72.52488 23.07445, 72.52423 23.07219, 72.52395 23.07115, 72.52375 23.07032, 72.52358 23.06975, 72.52348 23.06973, 72.52323 23.06875, 72.52283 23.06727, 72.52246 23.06601, 72.52211 23.06495, 72.52212 23.06476, 72.52194 23.06408, 72.52161 23.063, 72.52112 23.06134, 72.52079 23.06027, 72.52079 23.06027, 72.52024 23.05836, 72.51959 23.05617, 72.51957 23.05617, 72.51871 23.0532, 72.51871 23.0532, 72.51842 23.05224, 72.51813 23.05136, 72.51781 23.05054, 72.51759 23.0499, 72.51746 23.04959, 72.51728 23.04919, 72.51728 23.04919, 72.51681 23.04814, 72.51591 23.04629, 72.51576 23.04597, 72.51564 23.04573, 72.51564 23.04573, 72.51478 23.04398, 72.5143 23.043, 72.51389 23.04212, 72.51372 23.04174, 72.51333 23.04102, 72.51326 23.04098, 72.51322 23.0409, 72.51306 23.0406, 72.51299 23.04046, 72.51299 23.04046, 72.51216 23.0388, 72.51216 23.0388, 72.5121 23.03866, 72.51228 23.03858, 72.51252 23.03901, 72.5128 23.03957, 72.51318 23.0403, 72.51386 23.04171, 72.51408 23.04223, 72.51441 23.04288, 72.51457 23.04325, 72.51503 23.04414, 72.51532 23.04468, 72.5157 23.04544, 72.51607 23.04618, 72.5166 23.04723, 72.51698 23.04804, 72.51718 23.04848, 72.51732 23.0487, 72.51762 23.04943, 72.51777 23.04997, 72.5178 23.05007, 72.51814 23.05069, 72.51829 23.05104, 72.51842 23.05138, 72.51844 23.05151, 72.51855 23.05192, 72.51877 23.05276, 72.519 23.05363, 72.51914 23.05403, 72.51958 23.05558, 72.51942 23.05563, 72.51918 23.05477, 72.51876 23.05323, 72.5187 23.0532, 72.51859 23.05289, 72.51853 23.05272, 72.5184 23.0526, 72.51804 23.05153, 72.51764 23.05048, 72.51729 23.04963, 72.51666 23.04812, 72.51611 23.04711, 72.51574 23.04632, 72.51498 23.04474, 72.51406 23.04284, 72.51356 23.04184, 72.51307 23.04087, 72.51259 23.03988, 72.51218 23.03903, 72.51132 23.03732, 72.51022 23.03507, 72.5099 23.03437, 72.50946 23.0333, 72.50944 23.03331, 72.50911 23.03235, 72.50878 23.03133, 72.50881 23.03117, 72.5088 23.03102, 72.5085 23.03, 72.50798 23.02843, 72.50787 23.02809, 72.50787 23.02809, 72.50763 23.02731, 72.50713 23.02574, 72.507 23.02535, 72.507 23.02535, 72.50665 23.02427, 72.50665 23.02427, 72.50605 23.02244, 72.50594 23.02221, 72.50592 23.02219, 72.50587 23.02217, 72.50573 23.02172, 72.505343 23.020254, 72.5053 23.02021, 72.50473 23.01843, 72.5042 23.0167, 72.5042 23.0167, 72.50306 23.01307, 72.50306 23.01307, 72.50267 23.01177, 72.50213 23.01014, 72.50149 23.00817, 72.50073 23.00569, 72.500712 23.005469, 72.500734 23.005424, 72.499398 23.001214, 72.499394 23.001205, 72.49846 22.99839, 72.498339 22.997719, 72.49835 22.99761, 72.49828 22.99738, 72.49824 22.99731, 72.49817 22.99717, 72.49813 22.99697, 72.49801 22.997, 72.49794 22.99675, 72.49743 22.99513, 72.49743 22.99513, 72.49687 22.99344, 72.49639 22.99187, 72.49563 22.98947, 72.49575 22.98943, 72.49583 22.98968, 72.49596 22.9901, 72.49649 22.99177, 72.49681 22.99283, 72.49681 22.99283, 72.49649 22.99177, 72.49612 22.99062, 72.496 22.99065, 72.49513 22.98785, 72.49513 22.98785, 72.49499 22.98733, 72.49502 22.98727, 72.49503 22.98726, 72.49506 22.98723, 72.49511 22.98713, 72.49511 22.987, 72.49504 22.98687, 72.49493 22.9868, 72.49486 22.98679, 72.49481 22.98665, 72.49471 22.98652, 72.4946 22.98619, 72.49394 22.98408, 72.49394 22.98408, 72.49277 22.98028, 72.49273 22.98004, 72.49271 22.97979, 72.49272 22.97978, 72.49273 22.97977, 72.49277 22.9797, 72.49276 22.97961, 72.49271 22.97952, 72.49263 22.97948, 72.49255 22.97936, 72.49214 22.97901, 72.49205 22.97893)"
  },
  {
    "stopName": "Umiya Campus",
    "stopCode": 1684,
    "stationCode": 2965,
    "stopType": "MUNICIPAL_BUS",
    "shortStopName": null,
    "Position": {
      "stopLongitude": "72.528923",
      "stopLatitude": "23.088591"
    },
    "RouteCodes": null,
    "Sequence": 4,
    "routeFlow": null
  },
  {
    "stopName": "Sola Bhagwat Vidyapith",
    "stopCode": 1685,
    "stationCode": 2817,
    "stopType": "MUNICIPAL_BUS",
    "shortStopName": null,
    "Position": {
      "stopLongitude": "72.528245",
      "stopLatitude": "23.085973"
    },
    "RouteCodes": null,
    "Sequence": 5,
    "routeFlow": null
  },
  {
    "stopName": "R.C.Technical",
    "stopCode": 1686,
    "stationCode": 2404,
    "stopType": "MUNICIPAL_BUS",
    "shortStopName": null,
    "Position": {
      "stopLongitude": "72.527288",
      "stopLatitude": "23.08299"
    },
    "RouteCodes": null,
    "Sequence": 6,
    "routeFlow": null
  },
  {
    "stopName": "Gujarat High Court",
    "stopCode": 1687,
    "stationCode": 1617,
    "stopType": "MUNICIPAL_BUS",
    "shortStopName": null,
    "Position": {
      "stopLongitude": "72.526306",
      "stopLatitude": "23.07956"
    },
    "RouteCodes": null,
    "Sequence": 7,
    "routeFlow": null
  },
  {
    "stopName": "Ramdev Masala",
    "stopCode": 1688,
    "stationCode": 2466,
    "stopType": "MUNICIPAL_BUS",
    "shortStopName": null,
    "Position": {
      "stopLongitude": "72.524843",
      "stopLatitude": "23.074458"
    },
    "RouteCodes": null,
    "Sequence": 8,
    "routeFlow": null
  },
  {
    "stopName": "Sola Overbridge",
    "stopCode": 1689,
    "stationCode": 2821,
    "stopType": "MUNICIPAL_BUS",
    "shortStopName": null,
    "Position": {
      "stopLongitude": "72.520796",
      "stopLatitude": "23.060271"
    },
    "RouteCodes": null,
    "Sequence": 9,
    "routeFlow": null
  },
  {
    "stopName": "Raja Palace (Chakshu Bank)",
    "stopCode": 1690,
    "stationCode": 2439,
    "stopType": "MUNICIPAL_BUS",
    "shortStopName": null,
    "Position": {
      "stopLongitude": "72.519635",
      "stopLatitude": "23.056158"
    },
    "RouteCodes": null,
    "Sequence": 10,
    "routeFlow": null
  },
  {
    "stopName": "Vinay Vidya Mandir",
    "stopCode": 1691,
    "stationCode": 3051,
    "stopType": "MUNICIPAL_BUS",
    "shortStopName": null,
    "Position": {
      "stopLongitude": "72.518773",
      "stopLatitude": "23.053188"
    },
    "RouteCodes": null,
    "Sequence": 11,
    "routeFlow": null
  },
  {
    "stopName": "Thaltej Char Rasta",
    "stopCode": 1692,
    "stationCode": 2938,
    "stopType": "MUNICIPAL_BUS",
    "shortStopName": null,
    "Position": {
      "stopLongitude": "72.517265",
      "stopLatitude": "23.049193"
    },
    "RouteCodes": null,
    "Sequence": 12,
    "routeFlow": null
  },
  {
    "stopName": "Guru Govind Dham",
    "stopCode": 1693,
    "stationCode": 1634,
    "stopType": "MUNICIPAL_BUS",
    "shortStopName": null,
    "Position": {
      "stopLongitude": "72.515675",
      "stopLatitude": "23.045713"
    },
    "RouteCodes": null,
    "Sequence": 13,
    "routeFlow": null
  },
  {
    "stopName": "New York Complex",
    "stopCode": 1694,
    "stationCode": 2216,
    "stopType": "MUNICIPAL_BUS",
    "shortStopName": null,
    "Position": {
      "stopLongitude": "72.512986",
      "stopLatitude": "23.040463"
    },
    "RouteCodes": null,
    "Sequence": 14,
    "routeFlow": null
  },
  {
    "stopName": "Pakwan",
    "stopCode": 1754,
    "stationCode": 2282,
    "stopType": "MUNICIPAL_BUS",
    "shortStopName": null,
    "Position": {
      "stopLongitude": "72.512181",
      "stopLatitude": "23.038792"
    },
    "RouteCodes": null,
    "Sequence": 15,
    "routeFlow": null
  },
  {
    "stopName": "Rajpath Club",
    "stopCode": 1755,
    "stationCode": 2454,
    "stopType": "MUNICIPAL_BUS",
    "shortStopName": null,
    "Position": {
      "stopLongitude": "72.509468",
      "stopLatitude": "23.033301"
    },
    "RouteCodes": null,
    "Sequence": 16,
    "routeFlow": null
  },
  {
    "stopName": "Iskon Mandir",
    "stopCode": 1756,
    "stationCode": 1731,
    "stopType": "MUNICIPAL_BUS",
    "shortStopName": null,
    "Position": {
      "stopLongitude": "72.507888",
      "stopLatitude": "23.028088"
    },
    "RouteCodes": null,
    "Sequence": 17,
    "routeFlow": null
  },
  {
    "stopName": "Big Bazar (Iskon Mandir)",
    "stopCode": 1757,
    "stationCode": 1310,
    "stopType": "MUNICIPAL_BUS",
    "shortStopName": null,
    "Position": {
      "stopLongitude": "72.50705",
      "stopLatitude": "23.02534"
    },
    "RouteCodes": null,
    "Sequence": 18,
    "routeFlow": null
  },
  {
    "stopName": "Wide Angle",
    "stopCode": 1758,
    "stationCode": 3088,
    "stopType": "MUNICIPAL_BUS",
    "shortStopName": null,
    "Position": {
      "stopLongitude": "72.506668",
      "stopLatitude": "23.024261"
    },
    "RouteCodes": null,
    "Sequence": 19,
    "routeFlow": null
  },
  {
    "stopName": "Karnavati Club",
    "stopCode": 1759,
    "stationCode": 1023,
    "stopType": "MUNICIPAL_BUS",
    "shortStopName": null,
    "Position": {
      "stopLongitude": "72.505398",
      "stopLatitude": "23.020185"
    },
    "RouteCodes": null,
    "Sequence": 20,
    "routeFlow": null
  },
  {
    "stopName": "Karnavati Club (Chimanbhai Patel Inst.)",
    "stopCode": 1761,
    "stationCode": 1385,
    "stopType": "MUNICIPAL_BUS",
    "shortStopName": null,
    "Position": {
      "stopLongitude": "72.504261",
      "stopLatitude": "23.016686"
    },
    "RouteCodes": null,
    "Sequence": 21,
    "routeFlow": null
  },
  {
    "stopName": "Prahladnagar Cross Road",
    "stopCode": 1762,
    "stationCode": 2362,
    "stopType": "MUNICIPAL_BUS",
    "shortStopName": null,
    "Position": {
      "stopLongitude": "72.503136",
      "stopLatitude": "23.013053"
    },
    "RouteCodes": null,
    "Sequence": 22,
    "routeFlow": null
  },
  {
    "stopName": "Y.M.C.A. Club",
    "stopCode": 1763,
    "stationCode": 3092,
    "stopType": "MUNICIPAL_BUS",
    "shortStopName": null,
    "Position": {
      "stopLongitude": "72.50071",
      "stopLatitude": "23.005386"
    },
    "RouteCodes": null,
    "Sequence": 23,
    "routeFlow": null
  },
  {
    "stopName": "Divya Bhaskar Press",
    "stopCode": 1764,
    "stationCode": 1466,
    "stopType": "MUNICIPAL_BUS",
    "shortStopName": null,
    "Position": {
      "stopLongitude": "72.499391",
      "stopLatitude": "23.001165"
    },
    "RouteCodes": null,
    "Sequence": 24,
    "routeFlow": null
  },
  {
    "stopName": "Makarba Cross Road",
    "stopCode": 1765,
    "stationCode": 2017,
    "stopType": "MUNICIPAL_BUS",
    "shortStopName": null,
    "Position": {
      "stopLongitude": "72.498318",
      "stopLatitude": "22.997623"
    },
    "RouteCodes": null,
    "Sequence": 25,
    "routeFlow": null
  },
  {
    "stopName": "Century Marble",
    "stopCode": 1766,
    "stationCode": 1340,
    "stopType": "MUNICIPAL_BUS",
    "shortStopName": null,
    "Position": {
      "stopLongitude": "72.496773",
      "stopLatitude": "22.992836"
    },
    "RouteCodes": null,
    "Sequence": 27,
    "routeFlow": null
  },
  {
    "stopName": "Sarkhej Sanand Cross Road",
    "stopCode": 1767,
    "stationCode": 2632,
    "stopType": "MUNICIPAL_BUS",
    "shortStopName": null,
    "Position": {
      "stopLongitude": "72.495143",
      "stopLatitude": "22.987846"
    },
    "RouteCodes": null,
    "Sequence": 29,
    "routeFlow": null
  },
  {
    "stopName": "Gokul Hotel",
    "stopCode": 4514,
    "stationCode": 1571,
    "stopType": "MUNICIPAL_BUS",
    "shortStopName": null,
    "Position": {
      "stopLongitude": "72.531168",
      "stopLatitude": "23.095943"
    },
    "RouteCodes": null,
    "Sequence": 2,
    "routeFlow": null
  },
  {
    "stopName": "Sarkhej-Bavla Circle (Ujala Hotel)",
    "stopCode": 4592,
    "stationCode": 2633,
    "stopType": "MUNICIPAL_BUS",
    "shortStopName": null,
    "Position": {
      "stopLongitude": "72.492048",
      "stopLatitude": "22.978935"
    },
    "RouteCodes": null,
    "Sequence": 31,
    "routeFlow": null
  },
  {
    "stopName": "Gota Highway Cross Road",
    "stopCode": 4949,
    "stationCode": 1589,
    "stopType": "MUNICIPAL_BUS",
    "shortStopName": null,
    "Position": {
      "stopLongitude": "72.53218",
      "stopLatitude": "23.098321"
    },
    "RouteCodes": null,
    "Sequence": 1,
    "routeFlow": null
  },
  {
    "stopName": "Vallabh Daining Holl",
    "stopCode": 8622,
    "stationCode": 6092,
    "stopType": "MUNICIPAL_BUS",
    "shortStopName": null,
    "Position": {
      "stopLongitude": "72.494031",
      "stopLatitude": "22.984055"
    },
    "RouteCodes": null,
    "Sequence": 30,
    "routeFlow": null
  },
  {
    "stopName": "L.J. Campus",
    "stopCode": 8624,
    "stationCode": 6093,
    "stopType": "MUNICIPAL_BUS",
    "shortStopName": null,
    "Position": {
      "stopLongitude": "72.496058",
      "stopLatitude": "22.990632"
    },
    "RouteCodes": null,
    "Sequence": 28,
    "routeFlow": null
  },
  {
    "stopName": "Police Adhishak ni kacheri",
    "stopCode": 8626,
    "stationCode": 6094,
    "stopType": "MUNICIPAL_BUS",
    "shortStopName": null,
    "Position": {
      "stopLongitude": "72.497421",
      "stopLatitude": "22.995135"
    },
    "RouteCodes": null,
    "Sequence": 26,
    "routeFlow": null
  }
]