[
  {
    "stopName": "Jain Upashray (Hira Panna Flats)",
    "stopCode": 1054,
    "stationCode": 1746,
    "stopType": "MUNICIPAL_BUS",
    "shortStopName": null,
    "Position": {
      "stopLongitude": "72.553938",
      "stopLatitude": "23.040258"
    },
    "RouteCodes": null,
    "Sequence": 59,
    "routeFlow": "LINESTRING (72.37735 23.1331, 72.37718 23.13367, 72.37714 23.13371, 72.37706 23.13374, 72.37693 23.13374, 72.37492 23.13352, 72.37453 23.13351, 72.37453 23.13351, 72.37448 23.1335, 72.37422 23.1329, 72.37371 23.13183, 72.37346 23.1313, 72.37349 23.13124, 72.37349 23.13124, 72.37356 23.13088, 72.37366 23.13056, 72.37377 23.13037, 72.37384 23.13029, 72.37401 23.13012, 72.37423 23.12996, 72.37483 23.12957, 72.37491 23.12951, 72.37491 23.12951, 72.37515 23.12935, 72.37578 23.12897, 72.37726 23.12809, 72.37879 23.1272, 72.37895 23.12712, 72.37895 23.12712, 72.37955 23.12693, 72.38114 23.12659, 72.38164 23.12645, 72.38199 23.12627, 72.38249 23.12592, 72.38335 23.12531, 72.3844 23.12458, 72.38511 23.12412, 72.38569 23.12375, 72.38569 23.12375, 72.38586 23.12357, 72.38611 23.1231, 72.38653 23.1222, 72.38682 23.1216, 72.38714 23.12114, 72.38733 23.12095, 72.38759 23.12074, 72.38759 23.12074, 72.38776 23.12058, 72.38799 23.12033, 72.38849 23.11964, 72.38875 23.11928, 72.38894 23.11894, 72.38932 23.11827, 72.38949 23.11799, 72.38949 23.11799, 72.39001 23.1172, 72.39048 23.11656, 72.39065 23.11637, 72.39104 23.11606, 72.39151 23.11571, 72.39166 23.11559, 72.39193 23.11532, 72.39225 23.11493, 72.39276 23.11435, 72.39324 23.11375, 72.39361 23.113, 72.39361 23.113, 72.39384 23.11259, 72.39401 23.11237, 72.39422 23.11219, 72.39446 23.11203, 72.39537 23.11154, 72.39573 23.11134, 72.39573 23.11134, 72.39592 23.11124, 72.39623 23.11115, 72.39768 23.11077, 72.39785 23.11068, 72.39801 23.11053, 72.39825 23.11014, 72.39854 23.10977, 72.3988 23.10951, 72.399 23.10935, 72.39956 23.10891, 72.39993 23.10855, 72.4 23.10842, 72.40029 23.10807, 72.40073 23.10756, 72.40079 23.10761, 72.40079 23.10761, 72.40073 23.10756, 72.40079 23.10752, 72.4009 23.10742, 72.40122 23.10706, 72.40158 23.10671, 72.40197 23.1064, 72.40394 23.10497, 72.4044 23.10462, 72.4048 23.10435, 72.40593 23.10373, 72.4063 23.10354, 72.40721 23.10299, 72.40777 23.10259, 72.40829 23.10208, 72.40842 23.10192, 72.40842 23.10192, 72.41028 23.09953, 72.41089 23.0988, 72.41114 23.09859, 72.4119 23.09805, 72.41279 23.09746, 72.41328 23.09714, 72.41376 23.09677, 72.41425 23.09626, 72.41425 23.09626, 72.4156 23.09464, 72.41589 23.09424, 72.4165 23.09328, 72.41702 23.09247, 72.41702 23.09247, 72.41729 23.09215, 72.4178 23.09164, 72.41885 23.09065, 72.4201 23.08951, 72.42189 23.088, 72.42201 23.08788, 72.4222 23.08763, 72.4222 23.08763, 72.42339 23.08607, 72.42399 23.08534, 72.4249 23.08427, 72.4249 23.08427, 72.42542 23.08367, 72.4262 23.08275, 72.42736 23.08128, 72.42736 23.08128, 72.42807 23.0804, 72.4297 23.07836, 72.4303 23.07756, 72.43066 23.07725, 72.43083 23.0771, 72.43083 23.0771, 72.43109 23.07689, 72.43221 23.07588, 72.43319 23.075, 72.43457 23.0737, 72.43516 23.07312, 72.43516 23.07312, 72.43571 23.07253, 72.43721 23.07072, 72.43784 23.07, 72.43784 23.07, 72.43905 23.06859, 72.43905 23.06859, 72.44001 23.06747, 72.4403 23.06718, 72.4403 23.06718, 72.44223 23.06595, 72.44223 23.06595, 72.44281 23.06556, 72.44368 23.0649, 72.44387 23.06478, 72.44401 23.06471, 72.44615 23.064, 72.44724 23.06361, 72.44768 23.06342, 72.44793 23.06327, 72.44811 23.06314, 72.44825 23.063, 72.44825 23.06301, 72.44852 23.06272, 72.44877 23.0624, 72.44893 23.06214, 72.44898 23.06202, 72.44909 23.06161, 72.44915 23.06103, 72.44949 23.05744, 72.44954 23.05661, 72.44965 23.05459, 72.44968 23.0543, 72.44973 23.05409, 72.44977 23.05397, 72.44977 23.05397, 72.44987 23.0538, 72.45008 23.05363, 72.45024 23.05356, 72.45045 23.0535, 72.45118 23.05353, 72.45118 23.05353, 72.45339 23.05374, 72.45414 23.05372, 72.45414 23.05372, 72.45675 23.05356, 72.46112 23.05326, 72.4616 23.0532, 72.46304 23.05294, 72.4651 23.05257, 72.4651 23.05257, 72.46717 23.05221, 72.46872 23.05194, 72.46877 23.05245, 72.46882 23.05286, 72.46884 23.05306, 72.46895 23.05302, 72.46915 23.05294, 72.46937 23.0529, 72.46955 23.05289, 72.46975 23.05289, 72.46977 23.05286, 72.47073 23.05312, 72.471 23.05324, 72.47107 23.05329, 72.47118 23.05338, 72.47126 23.05351, 72.4714 23.0538, 72.47151 23.05387, 72.47165 23.05389, 72.47165 23.05389, 72.47183 23.05384, 72.47235 23.05326, 72.47252 23.05293, 72.47261 23.05275, 72.4727 23.05262, 72.47279 23.05255, 72.47295 23.05246, 72.4731 23.0524, 72.47352 23.05227, 72.47382 23.05232, 72.47382 23.05232, 72.47421 23.05238, 72.47468 23.0525, 72.47521 23.05276, 72.47549 23.05291, 72.47581 23.05315, 72.47645 23.05372, 72.47645 23.05372, 72.47678 23.054, 72.47697 23.05411, 72.4772 23.05415, 72.47769 23.0542, 72.47787 23.0542, 72.47801 23.05414, 72.47815 23.05407, 72.4789 23.05376, 72.47935 23.05363, 72.47974 23.05355, 72.47974 23.05355, 72.47997 23.05349, 72.48008 23.05344, 72.4801 23.05344, 72.48017 23.05343, 72.48027 23.05337, 72.48039 23.05318, 72.48047 23.05313, 72.48062 23.05305, 72.48066 23.05303, 72.48066 23.05303, 72.48159 23.05272, 72.48188 23.05264, 72.48207 23.05262, 72.4822 23.05256, 72.48248 23.0525, 72.48277 23.05243, 72.48297 23.05242, 72.48318 23.05239, 72.48349 23.05233, 72.48696 23.05177, 72.48762 23.05168, 72.48835 23.05167, 72.48896 23.05167, 72.48986 23.05178, 72.4907 23.05182, 72.49096 23.0518, 72.49246 23.0516, 72.49311 23.05146, 72.49312 23.05153, 72.49308 23.05142, 72.49426 23.05117, 72.49534 23.05102, 72.49683 23.05076, 72.49683 23.05076, 72.49761 23.05064, 72.49908 23.05045, 72.50043 23.05034, 72.50463 23.05002, 72.50533 23.04994, 72.50573 23.04994, 72.50682 23.0502, 72.50693 23.05022, 72.50693 23.05024, 72.50781 23.05043, 72.50781 23.05043, 72.50792 23.05045, 72.50793 23.05072, 72.50802 23.05215, 72.50802 23.05276, 72.50798 23.05299, 72.5079 23.05332, 72.50774 23.05365, 72.50745 23.05404, 72.50749 23.05407, 72.50688 23.05488, 72.50667 23.05512, 72.50624 23.05571, 72.50605 23.05593, 72.50597 23.056, 72.50609 23.05605, 72.50614 23.05607, 72.50614 23.05607, 72.50662 23.05624, 72.50737 23.05655, 72.50868 23.05707, 72.50939 23.05739, 72.50953 23.05747, 72.50986 23.05761, 72.51069 23.05794, 72.51069 23.05794, 72.51201 23.05847, 72.51334 23.05903, 72.51406 23.05926, 72.51435 23.05934, 72.51484 23.05945, 72.51486 23.05941, 72.51486 23.05941, 72.51484 23.05945, 72.51503 23.05946, 72.51541 23.05949, 72.51566 23.05948, 72.51607 23.05943, 72.51686 23.05927, 72.51686 23.05928, 72.51851 23.05892, 72.5196 23.05867, 72.51985 23.0586, 72.52011 23.05854, 72.52023 23.0585, 72.52019 23.05837, 72.51957 23.05617, 72.51957 23.05617, 72.51871 23.0532, 72.51871 23.0532, 72.51843 23.05225, 72.51813 23.05136, 72.51781 23.05054, 72.5176 23.04991, 72.51769 23.04992, 72.51806 23.04991, 72.51806 23.04988, 72.5189 23.04984, 72.51982 23.04969, 72.52038 23.04952, 72.5206 23.04943, 72.52113 23.04923, 72.52113 23.04923, 72.52261 23.04867, 72.52325 23.04848, 72.52366 23.04837, 72.52377 23.04835, 72.52377 23.04835, 72.52521 23.04808, 72.52521 23.04808, 72.52619 23.04786, 72.52677 23.0477, 72.52728 23.04754, 72.52781 23.04728, 72.52831 23.047, 72.52831 23.047, 72.52914 23.04648, 72.52951 23.04633, 72.52979 23.04626, 72.53032 23.04617, 72.53173 23.04603, 72.53175 23.04603, 72.53175 23.04603, 72.53217 23.04597, 72.53285 23.04592, 72.53315 23.04592, 72.53467 23.04593, 72.53467 23.04596, 72.53678 23.04598, 72.53678 23.04598, 72.53723 23.04598, 72.53759 23.04599, 72.53863 23.04596, 72.53938 23.04594, 72.53938 23.04587, 72.54013 23.04587, 72.54014 23.04588, 72.54018 23.0459, 72.54025 23.04589, 72.5403 23.04584, 72.54058 23.0458, 72.54075 23.04575, 72.54142 23.04547, 72.54172 23.04537, 72.54261 23.04508, 72.54268 23.04506, 72.54268 23.04506, 72.54423 23.04476, 72.54485 23.04468, 72.54543 23.04463, 72.54555 23.04461, 72.54574 23.04458, 72.54574 23.04458, 72.54619 23.04447, 72.54643 23.04438, 72.54698 23.04412, 72.54742 23.04388, 72.54795 23.04352, 72.54795 23.04352, 72.54914 23.04271, 72.5502 23.04214, 72.55153 23.04155, 72.5522 23.04124, 72.55296 23.04082, 72.55322 23.04066, 72.55336 23.04057, 72.55391 23.04022, 72.55391 23.04022, 72.55428 23.03998, 72.55454 23.03988, 72.5547 23.03985, 72.55473 23.03987, 72.55478 23.0399, 72.55483 23.03991, 72.55494 23.0399, 72.55502 23.03983, 72.55505 23.03972, 72.555 23.03961, 72.55516 23.03928, 72.55526 23.0391, 72.55552 23.03896, 72.5558 23.03891, 72.55612 23.03884, 72.55612 23.03883, 72.5566 23.03871, 72.55694 23.03857, 72.55728 23.0384, 72.55776 23.03813, 72.55776 23.03813, 72.55893 23.03755, 72.55993 23.0371, 72.56066 23.0368, 72.56066 23.0368, 72.56123 23.03657, 72.563733 23.035522, 72.56387 23.03555, 72.56409 23.03551, 72.56418 23.03548, 72.56418 23.03548, 72.56445 23.03537, 72.56452 23.03534, 72.5645 23.03524, 72.56447 23.03515, 72.56423 23.03458, 72.56417 23.03436, 72.56409 23.03407, 72.56402 23.03378, 72.56396 23.03309, 72.56396 23.03266, 72.56398 23.03239, 72.56408 23.03182, 72.56409 23.03176, 72.56409 23.03176, 72.56416 23.03157, 72.5642 23.03134, 72.56422 23.03133, 72.56427 23.03129, 72.5643 23.03124, 72.56431 23.03106, 72.56432 23.03103, 72.56441 23.03096, 72.56452 23.03089, 72.56475 23.03083, 72.56497 23.0308, 72.56518 23.03079, 72.56546 23.03072, 72.56579 23.03069, 72.56592 23.03068, 72.56614 23.03068, 72.56614 23.03068, 72.56683 23.03069, 72.56721 23.03075, 72.56781 23.03086, 72.56846 23.03105, 72.56878 23.03108, 72.56932 23.03105, 72.56969 23.03097, 72.57053 23.03075, 72.57066 23.03073, 72.57065 23.03067, 72.57059 23.03014, 72.57057 23.02986, 72.57057 23.02986, 72.57056 23.02966, 72.57057 23.02946, 72.57083 23.02868, 72.57083 23.02868, 72.57102 23.02809, 72.57111 23.02766, 72.57116 23.02732, 72.57121 23.02694, 72.57123 23.02668, 72.57251 23.02678, 72.57808 23.02722, 72.57841 23.02725, 72.57865 23.02727, 72.57869 23.02727, 72.58005 23.02736, 72.58111 23.02732, 72.5813 23.02725, 72.58135 23.02722, 72.58136 23.02709, 72.5814 23.02643, 72.58107 23.0264, 72.58082 23.02643, 72.58059 23.02624, 72.58062 23.02571, 72.58064 23.02532, 72.58073 23.02532, 72.58063 23.02532, 72.58064 23.02513, 72.58067 23.02493, 72.58067 23.02476, 72.58066 23.02468, 72.58067 23.02463, 72.58068 23.02454, 72.58067 23.02445, 72.58059 23.02419, 72.58055 23.02411, 72.58047 23.02403, 72.58029 23.02389, 72.57971 23.02365, 72.57953 23.02355, 72.57944 23.02354, 72.57912 23.02353, 72.57912 23.02386, 72.5791 23.02408, 72.5791 23.02438, 72.57898 23.02438, 72.57898 23.02436)"
  },
  {
    "stopName": "Sardarbag",
    "stopCode": 1075,
    "stationCode": 2611,
    "stopType": "MUNICIPAL_BUS",
    "shortStopName": null,
    "Position": {
      "stopLongitude": "72.578645",
      "stopLatitude": "23.027351"
    },
    "RouteCodes": null,
    "Sequence": 68,
    "routeFlow": null
  },
  {
    "stopName": "Apna Bazar",
    "stopCode": 1076,
    "stationCode": 1150,
    "stopType": "MUNICIPAL_BUS",
    "shortStopName": null,
    "Position": {
      "stopLongitude": "72.580705",
      "stopLatitude": "23.025321"
    },
    "RouteCodes": null,
    "Sequence": 69,
    "routeFlow": null
  },
  {
    "stopName": "Commerce College",
    "stopCode": 1107,
    "stationCode": 1402,
    "stopType": "MUNICIPAL_BUS",
    "shortStopName": null,
    "Position": {
      "stopLongitude": "72.556131",
      "stopLatitude": "23.038873"
    },
    "RouteCodes": null,
    "Sequence": 60,
    "routeFlow": null
  },
  {
    "stopName": "Commerce College Hostel",
    "stopCode": 1108,
    "stationCode": 1403,
    "stopType": "MUNICIPAL_BUS",
    "shortStopName": null,
    "Position": {
      "stopLongitude": "72.55777",
      "stopLatitude": "23.038141"
    },
    "RouteCodes": null,
    "Sequence": 61,
    "routeFlow": null
  },
  {
    "stopName": "Swastik Society",
    "stopCode": 1109,
    "stationCode": 2903,
    "stopType": "MUNICIPAL_BUS",
    "shortStopName": null,
    "Position": {
      "stopLongitude": "72.560678",
      "stopLatitude": "23.036845"
    },
    "RouteCodes": null,
    "Sequence": 62,
    "routeFlow": null
  },
  {
    "stopName": "Navarangpura",
    "stopCode": 1150,
    "stationCode": 2189,
    "stopType": "MUNICIPAL_BUS",
    "shortStopName": null,
    "Position": {
      "stopLongitude": "72.564193",
      "stopLatitude": "23.03552"
    },
    "RouteCodes": null,
    "Sequence": 63,
    "routeFlow": null
  },
  {
    "stopName": "Raja Palace (Chakshu Bank)",
    "stopCode": 1690,
    "stationCode": 2439,
    "stopType": "MUNICIPAL_BUS",
    "shortStopName": null,
    "Position": {
      "stopLongitude": "72.519635",
      "stopLatitude": "23.056158"
    },
    "RouteCodes": null,
    "Sequence": 45,
    "routeFlow": null
  },
  {
    "stopName": "Vinay Vidya Mandir",
    "stopCode": 1691,
    "stationCode": 3051,
    "stopType": "MUNICIPAL_BUS",
    "shortStopName": null,
    "Position": {
      "stopLongitude": "72.518773",
      "stopLatitude": "23.053188"
    },
    "RouteCodes": null,
    "Sequence": 46,
    "routeFlow": null
  },
  {
    "stopName": "Vallabhsadan",
    "stopCode": 2220,
    "stationCode": 3005,
    "stopType": "MUNICIPAL_BUS",
    "shortStopName": null,
    "Position": {
      "stopLongitude": "72.570603",
      "stopLatitude": "23.029853"
    },
    "RouteCodes": null,
    "Sequence": 66,
    "routeFlow": null
  },
  {
    "stopName": "Nataraj Cinema",
    "stopCode": 2221,
    "stationCode": 2182,
    "stopType": "MUNICIPAL_BUS",
    "shortStopName": null,
    "Position": {
      "stopLongitude": "72.570805",
      "stopLatitude": "23.028671"
    },
    "RouteCodes": null,
    "Sequence": 67,
    "routeFlow": null
  },
  {
    "stopName": "Cross Road",
    "stopCode": 2232,
    "stationCode": 1289,
    "stopType": "MUNICIPAL_BUS",
    "shortStopName": null,
    "Position": {
      "stopLongitude": "72.439085",
      "stopLatitude": "23.068614"
    },
    "RouteCodes": null,
    "Sequence": 21,
    "routeFlow": null
  },
  {
    "stopName": "Shrimali Society",
    "stopCode": 2825,
    "stationCode": 2750,
    "stopType": "MUNICIPAL_BUS",
    "shortStopName": null,
    "Position": {
      "stopLongitude": "72.564168",
      "stopLatitude": "23.031773"
    },
    "RouteCodes": null,
    "Sequence": 64,
    "routeFlow": null
  },
  {
    "stopName": "Shilaj Gam",
    "stopCode": 3005,
    "stationCode": 2715,
    "stopType": "MUNICIPAL_BUS",
    "shortStopName": null,
    "Position": {
      "stopLongitude": "72.471651",
      "stopLatitude": "23.053922"
    },
    "RouteCodes": null,
    "Sequence": 30,
    "routeFlow": null
  },
  {
    "stopName": "S.P.Ring Road (Shilaj Circle)",
    "stopCode": 3007,
    "stationCode": 1386,
    "stopType": "MUNICIPAL_BUS",
    "shortStopName": null,
    "Position": {
      "stopLongitude": "72.47974",
      "stopLatitude": "23.053545"
    },
    "RouteCodes": null,
    "Sequence": 33,
    "routeFlow": null
  },
  {
    "stopName": "Prajapatino Kuvo",
    "stopCode": 3010,
    "stationCode": 2364,
    "stopType": "MUNICIPAL_BUS",
    "shortStopName": null,
    "Position": {
      "stopLongitude": "72.493098",
      "stopLatitude": "23.051485"
    },
    "RouteCodes": null,
    "Sequence": 36,
    "routeFlow": null
  },
  {
    "stopName": "Steel Factory",
    "stopCode": 3011,
    "stationCode": 2845,
    "stopType": "MUNICIPAL_BUS",
    "shortStopName": null,
    "Position": {
      "stopLongitude": "72.496835",
      "stopLatitude": "23.050786"
    },
    "RouteCodes": null,
    "Sequence": 37,
    "routeFlow": null
  },
  {
    "stopName": "Talavdi (Thaltej)",
    "stopCode": 3014,
    "stationCode": 3102,
    "stopType": "MUNICIPAL_BUS",
    "shortStopName": null,
    "Position": {
      "stopLongitude": "72.506926",
      "stopLatitude": "23.05025"
    },
    "RouteCodes": null,
    "Sequence": 38,
    "routeFlow": null
  },
  {
    "stopName": "Thaltej Gam",
    "stopCode": 3016,
    "stationCode": 2939,
    "stopType": "MUNICIPAL_BUS",
    "shortStopName": null,
    "Position": {
      "stopLongitude": "72.507797",
      "stopLatitude": "23.050465"
    },
    "RouteCodes": null,
    "Sequence": 39,
    "routeFlow": null
  },
  {
    "stopName": "Muktidham jain derasar",
    "stopCode": 3019,
    "stationCode": 2110,
    "stopType": "MUNICIPAL_BUS",
    "shortStopName": null,
    "Position": {
      "stopLongitude": "72.518061",
      "stopLatitude": "23.049926"
    },
    "RouteCodes": null,
    "Sequence": 47,
    "routeFlow": null
  },
  {
    "stopName": "Shantinath Mahadev (Jay Ambenagar)",
    "stopCode": 3020,
    "stationCode": 2700,
    "stopType": "MUNICIPAL_BUS",
    "shortStopName": null,
    "Position": {
      "stopLongitude": "72.52116",
      "stopLatitude": "23.04929"
    },
    "RouteCodes": null,
    "Sequence": 48,
    "routeFlow": null
  },
  {
    "stopName": "Telephone Training Centre (Ambawadi)",
    "stopCode": 3021,
    "stationCode": 2931,
    "stopType": "MUNICIPAL_BUS",
    "shortStopName": null,
    "Position": {
      "stopLongitude": "72.52522",
      "stopLatitude": "23.048123"
    },
    "RouteCodes": null,
    "Sequence": 50,
    "routeFlow": null
  },
  {
    "stopName": "Drive In Cinema",
    "stopCode": 3022,
    "stationCode": 1475,
    "stopType": "MUNICIPAL_BUS",
    "shortStopName": null,
    "Position": {
      "stopLongitude": "72.528346",
      "stopLatitude": "23.047058"
    },
    "RouteCodes": null,
    "Sequence": 51,
    "routeFlow": null
  },
  {
    "stopName": "Indraprasth Tower",
    "stopCode": 3023,
    "stationCode": 1719,
    "stopType": "MUNICIPAL_BUS",
    "shortStopName": null,
    "Position": {
      "stopLongitude": "72.531761",
      "stopLatitude": "23.046106"
    },
    "RouteCodes": null,
    "Sequence": 52,
    "routeFlow": null
  },
  {
    "stopName": "Kailasnagar",
    "stopCode": 3031,
    "stationCode": 1823,
    "stopType": "MUNICIPAL_BUS",
    "shortStopName": null,
    "Position": {
      "stopLongitude": "72.5427",
      "stopLatitude": "23.045131"
    },
    "RouteCodes": null,
    "Sequence": 56,
    "routeFlow": null
  },
  {
    "stopName": "Saurabh Society",
    "stopCode": 3032,
    "stationCode": 2661,
    "stopType": "MUNICIPAL_BUS",
    "shortStopName": null,
    "Position": {
      "stopLongitude": "72.545753",
      "stopLatitude": "23.044628"
    },
    "RouteCodes": null,
    "Sequence": 57,
    "routeFlow": null
  },
  {
    "stopName": "Rancharda Gam",
    "stopCode": 3244,
    "stationCode": 2480,
    "stopType": "MUNICIPAL_BUS",
    "shortStopName": null,
    "Position": {
      "stopLongitude": "72.437843",
      "stopLatitude": "23.070001"
    },
    "RouteCodes": null,
    "Sequence": 20,
    "routeFlow": null
  },
  {
    "stopName": "Indira Awas",
    "stopCode": 3246,
    "stationCode": 1708,
    "stopType": "MUNICIPAL_BUS",
    "shortStopName": null,
    "Position": {
      "stopLongitude": "72.449822",
      "stopLatitude": "23.053984"
    },
    "RouteCodes": null,
    "Sequence": 25,
    "routeFlow": null
  },
  {
    "stopName": "Ayodhya Township",
    "stopCode": 3247,
    "stationCode": 1202,
    "stopType": "MUNICIPAL_BUS",
    "shortStopName": null,
    "Position": {
      "stopLongitude": "72.469753",
      "stopLatitude": "23.052928"
    },
    "RouteCodes": null,
    "Sequence": 29,
    "routeFlow": null
  },
  {
    "stopName": "Gurukul",
    "stopCode": 3248,
    "stationCode": 1640,
    "stopType": "MUNICIPAL_BUS",
    "shortStopName": null,
    "Position": {
      "stopLongitude": "72.534668",
      "stopLatitude": "23.045993"
    },
    "RouteCodes": null,
    "Sequence": 53,
    "routeFlow": null
  },
  {
    "stopName": "Niranjan Society",
    "stopCode": 3249,
    "stationCode": 2231,
    "stopType": "MUNICIPAL_BUS",
    "shortStopName": null,
    "Position": {
      "stopLongitude": "72.536783",
      "stopLatitude": "23.045983"
    },
    "RouteCodes": null,
    "Sequence": 54,
    "routeFlow": null
  },
  {
    "stopName": "Manav Mandir",
    "stopCode": 3250,
    "stationCode": 2023,
    "stopType": "MUNICIPAL_BUS",
    "shortStopName": null,
    "Position": {
      "stopLongitude": "72.539385",
      "stopLatitude": "23.045961"
    },
    "RouteCodes": null,
    "Sequence": 55,
    "routeFlow": null
  },
  {
    "stopName": "Mithakhali",
    "stopCode": 3252,
    "stationCode": 2088,
    "stopType": "MUNICIPAL_BUS",
    "shortStopName": null,
    "Position": {
      "stopLongitude": "72.566138",
      "stopLatitude": "23.030716"
    },
    "RouteCodes": null,
    "Sequence": 65,
    "routeFlow": null
  },
  {
    "stopName": "Suchita Apartment (Vijay Char Rasta)",
    "stopCode": 3855,
    "stationCode": 2852,
    "stopType": "MUNICIPAL_BUS",
    "shortStopName": null,
    "Position": {
      "stopLongitude": "72.547983",
      "stopLatitude": "23.04356"
    },
    "RouteCodes": null,
    "Sequence": 58,
    "routeFlow": null
  },
  {
    "stopName": "Hebatpur Cross Road",
    "stopCode": 4993,
    "stationCode": 1675,
    "stopType": "MUNICIPAL_BUS",
    "shortStopName": null,
    "Position": {
      "stopLongitude": "72.506139",
      "stopLatitude": "23.056058"
    },
    "RouteCodes": null,
    "Sequence": 41,
    "routeFlow": null
  },
  {
    "stopName": "Ayna Complex",
    "stopCode": 4994,
    "stationCode": 1201,
    "stopType": "MUNICIPAL_BUS",
    "shortStopName": null,
    "Position": {
      "stopLongitude": "72.510676",
      "stopLatitude": "23.057966"
    },
    "RouteCodes": null,
    "Sequence": 42,
    "routeFlow": null
  },
  {
    "stopName": "Suvarna Bunglows",
    "stopCode": 4995,
    "stationCode": 2883,
    "stopType": "MUNICIPAL_BUS",
    "shortStopName": null,
    "Position": {
      "stopLongitude": "72.514838",
      "stopLatitude": "23.059399"
    },
    "RouteCodes": null,
    "Sequence": 43,
    "routeFlow": null
  },
  {
    "stopName": "Ganesh Corporate House",
    "stopCode": 4996,
    "stationCode": 1524,
    "stopType": "MUNICIPAL_BUS",
    "shortStopName": null,
    "Position": {
      "stopLongitude": "72.516858",
      "stopLatitude": "23.05928"
    },
    "RouteCodes": null,
    "Sequence": 44,
    "routeFlow": null
  },
  {
    "stopName": "Palodiya Patiya",
    "stopCode": 5464,
    "stationCode": 2290,
    "stopType": "MUNICIPAL_BUS",
    "shortStopName": null,
    "Position": {
      "stopLongitude": "72.440301",
      "stopLatitude": "23.067183"
    },
    "RouteCodes": null,
    "Sequence": 22,
    "routeFlow": null
  },
  {
    "stopName": "Amarpura",
    "stopCode": 5465,
    "stationCode": 1100,
    "stopType": "MUNICIPAL_BUS",
    "shortStopName": null,
    "Position": {
      "stopLongitude": "72.442236",
      "stopLatitude": "23.065963"
    },
    "RouteCodes": null,
    "Sequence": 23,
    "routeFlow": null
  },
  {
    "stopName": "Nadoli Patiya",
    "stopCode": 5466,
    "stationCode": 2136,
    "stopType": "MUNICIPAL_BUS",
    "shortStopName": null,
    "Position": {
      "stopLongitude": "72.448236",
      "stopLatitude": "23.062996"
    },
    "RouteCodes": null,
    "Sequence": 24,
    "routeFlow": null
  },
  {
    "stopName": "Ankur Orchards",
    "stopCode": 5467,
    "stationCode": 1142,
    "stopType": "MUNICIPAL_BUS",
    "shortStopName": null,
    "Position": {
      "stopLongitude": "72.451181",
      "stopLatitude": "23.05359"
    },
    "RouteCodes": null,
    "Sequence": 26,
    "routeFlow": null
  },
  {
    "stopName": "Krishna R.D.Farm",
    "stopCode": 5468,
    "stationCode": 1912,
    "stopType": "MUNICIPAL_BUS",
    "shortStopName": null,
    "Position": {
      "stopLongitude": "72.454145",
      "stopLatitude": "23.053743"
    },
    "RouteCodes": null,
    "Sequence": 27,
    "routeFlow": null
  },
  {
    "stopName": "Garnalu (Shilaj)",
    "stopCode": 5469,
    "stationCode": 1532,
    "stopType": "MUNICIPAL_BUS",
    "shortStopName": null,
    "Position": {
      "stopLongitude": "72.473813",
      "stopLatitude": "23.052354"
    },
    "RouteCodes": null,
    "Sequence": 31,
    "routeFlow": null
  },
  {
    "stopName": "Sardar Patel Institute",
    "stopCode": 5470,
    "stationCode": 2605,
    "stopType": "MUNICIPAL_BUS",
    "shortStopName": null,
    "Position": {
      "stopLongitude": "72.52378",
      "stopLatitude": "23.04838"
    },
    "RouteCodes": null,
    "Sequence": 49,
    "routeFlow": null
  },
  {
    "stopName": "Shan banglows",
    "stopCode": 5719,
    "stationCode": 5045,
    "stopType": "MUNICIPAL_BUS",
    "shortStopName": null,
    "Position": {
      "stopLongitude": "72.47642",
      "stopLatitude": "23.053745"
    },
    "RouteCodes": null,
    "Sequence": 32,
    "routeFlow": null
  },
  {
    "stopName": "Lal Darwaja",
    "stopCode": 8431,
    "stationCode": 1961,
    "stopType": "MUNICIPAL_BUS",
    "shortStopName": null,
    "Position": {
      "stopLongitude": "72.578948",
      "stopLatitude": "23.02443"
    },
    "RouteCodes": null,
    "Sequence": 70,
    "routeFlow": null
  },
  {
    "stopName": "Shree Naran Dham",
    "stopCode": 8799,
    "stationCode": 6147,
    "stopType": "MUNICIPAL_BUS",
    "shortStopName": null,
    "Position": {
      "stopLongitude": "72.507474",
      "stopLatitude": "23.05406"
    },
    "RouteCodes": null,
    "Sequence": 40,
    "routeFlow": null
  },
  {
    "stopName": "Shiv Shakti Society",
    "stopCode": 8905,
    "stationCode": 6200,
    "stopType": "MUNICIPAL_BUS",
    "shortStopName": null,
    "Position": {
      "stopLongitude": "72.46511",
      "stopLatitude": "23.052624"
    },
    "RouteCodes": null,
    "Sequence": 28,
    "routeFlow": null
  },
  {
    "stopName": "Chimanlal no Bor",
    "stopCode": 8961,
    "stationCode": 6224,
    "stopType": "MUNICIPAL_BUS",
    "shortStopName": null,
    "Position": {
      "stopLongitude": "72.480672",
      "stopLatitude": "23.053046"
    },
    "RouteCodes": null,
    "Sequence": 34,
    "routeFlow": null
  },
  {
    "stopName": "Thaltej-Shilaj Railway Over Bridge",
    "stopCode": 8963,
    "stationCode": 6225,
    "stopType": "MUNICIPAL_BUS",
    "shortStopName": null,
    "Position": {
      "stopLongitude": "72.482785",
      "stopLatitude": "23.052439"
    },
    "RouteCodes": null,
    "Sequence": 35,
    "routeFlow": null
  },
  {
    "stopName": "Shyamvan Farm",
    "stopCode": 9268,
    "stationCode": 6366,
    "stopType": "MUNICIPAL_BUS",
    "shortStopName": null,
    "Position": {
      "stopLongitude": "72.435224",
      "stopLatitude": "23.073181"
    },
    "RouteCodes": null,
    "Sequence": 19,
    "routeFlow": null
  },
  {
    "stopName": "Narmda Canal",
    "stopCode": 9270,
    "stationCode": 6367,
    "stopType": "MUNICIPAL_BUS",
    "shortStopName": null,
    "Position": {
      "stopLongitude": "72.430878",
      "stopLatitude": "23.077159"
    },
    "RouteCodes": null,
    "Sequence": 18,
    "routeFlow": null
  },
  {
    "stopName": "Santoor",
    "stopCode": 9272,
    "stationCode": 6368,
    "stopType": "MUNICIPAL_BUS",
    "shortStopName": null,
    "Position": {
      "stopLongitude": "72.427413",
      "stopLatitude": "23.081314"
    },
    "RouteCodes": null,
    "Sequence": 17,
    "routeFlow": null
  },
  {
    "stopName": "Gokul Bunglows",
    "stopCode": 9274,
    "stationCode": 6369,
    "stopType": "MUNICIPAL_BUS",
    "shortStopName": null,
    "Position": {
      "stopLongitude": "72.424945",
      "stopLatitude": "23.084305"
    },
    "RouteCodes": null,
    "Sequence": 16,
    "routeFlow": null
  },
  {
    "stopName": "Dabhla Chokdi",
    "stopCode": 9276,
    "stationCode": 6370,
    "stopType": "MUNICIPAL_BUS",
    "shortStopName": null,
    "Position": {
      "stopLongitude": "72.422253",
      "stopLatitude": "23.08766"
    },
    "RouteCodes": null,
    "Sequence": 15,
    "routeFlow": null
  },
  {
    "stopName": "Dabhla Overbridge",
    "stopCode": 9278,
    "stationCode": 6371,
    "stopType": "MUNICIPAL_BUS",
    "shortStopName": null,
    "Position": {
      "stopLongitude": "72.41706",
      "stopLatitude": "23.092496"
    },
    "RouteCodes": null,
    "Sequence": 14,
    "routeFlow": null
  },
  {
    "stopName": "Dabhla Gam (Panjrapol)",
    "stopCode": 9280,
    "stationCode": 6372,
    "stopType": "MUNICIPAL_BUS",
    "shortStopName": null,
    "Position": {
      "stopLongitude": "72.414302",
      "stopLatitude": "23.096296"
    },
    "RouteCodes": null,
    "Sequence": 13,
    "routeFlow": null
  },
  {
    "stopName": "Deep Farm",
    "stopCode": 9282,
    "stationCode": 6373,
    "stopType": "MUNICIPAL_BUS",
    "shortStopName": null,
    "Position": {
      "stopLongitude": "72.408455",
      "stopLatitude": "23.101951"
    },
    "RouteCodes": null,
    "Sequence": 12,
    "routeFlow": null
  },
  {
    "stopName": "Uplend Golf",
    "stopCode": 9284,
    "stationCode": 6374,
    "stopType": "MUNICIPAL_BUS",
    "shortStopName": null,
    "Position": {
      "stopLongitude": "72.400763",
      "stopLatitude": "23.107635"
    },
    "RouteCodes": null,
    "Sequence": 11,
    "routeFlow": null
  },
  {
    "stopName": "Adhana Gam",
    "stopCode": 9286,
    "stationCode": 6375,
    "stopType": "MUNICIPAL_BUS",
    "shortStopName": null,
    "Position": {
      "stopLongitude": "72.395774",
      "stopLatitude": "23.111394"
    },
    "RouteCodes": null,
    "Sequence": 10,
    "routeFlow": null
  },
  {
    "stopName": "Vayna Chokdi",
    "stopCode": 9288,
    "stationCode": 6376,
    "stopType": "MUNICIPAL_BUS",
    "shortStopName": null,
    "Position": {
      "stopLongitude": "72.393639",
      "stopLatitude": "23.113013"
    },
    "RouteCodes": null,
    "Sequence": 9,
    "routeFlow": null
  },
  {
    "stopName": "Radha Bag",
    "stopCode": 9290,
    "stationCode": 6377,
    "stopType": "MUNICIPAL_BUS",
    "shortStopName": null,
    "Position": {
      "stopLongitude": "72.389562",
      "stopLatitude": "23.118006"
    },
    "RouteCodes": null,
    "Sequence": 8,
    "routeFlow": null
  },
  {
    "stopName": "Das Agro Industry",
    "stopCode": 9292,
    "stationCode": 6378,
    "stopType": "MUNICIPAL_BUS",
    "shortStopName": null,
    "Position": {
      "stopLongitude": "72.387631",
      "stopLatitude": "23.120788"
    },
    "RouteCodes": null,
    "Sequence": 7,
    "routeFlow": null
  },
  {
    "stopName": "Natraj Farm",
    "stopCode": 9294,
    "stationCode": 6379,
    "stopType": "MUNICIPAL_BUS",
    "shortStopName": null,
    "Position": {
      "stopLongitude": "72.385699",
      "stopLatitude": "23.123758"
    },
    "RouteCodes": null,
    "Sequence": 6,
    "routeFlow": null
  },
  {
    "stopName": "SadhiMata nu mandir",
    "stopCode": 9296,
    "stationCode": 6380,
    "stopType": "MUNICIPAL_BUS",
    "shortStopName": null,
    "Position": {
      "stopLongitude": "72.37894",
      "stopLatitude": "23.127113"
    },
    "RouteCodes": null,
    "Sequence": 5,
    "routeFlow": null
  },
  {
    "stopName": "Jin Vas",
    "stopCode": 9298,
    "stationCode": 6381,
    "stopType": "MUNICIPAL_BUS",
    "shortStopName": null,
    "Position": {
      "stopLongitude": "72.374938",
      "stopLatitude": "23.12954"
    },
    "RouteCodes": null,
    "Sequence": 4,
    "routeFlow": null
  },
  {
    "stopName": "Sanand Cross Road",
    "stopCode": 9300,
    "stationCode": 6382,
    "stopType": "MUNICIPAL_BUS",
    "shortStopName": null,
    "Position": {
      "stopLongitude": "72.37353",
      "stopLatitude": "23.131247"
    },
    "RouteCodes": null,
    "Sequence": 3,
    "routeFlow": null
  },
  {
    "stopName": "ChandanPura Chokdi",
    "stopCode": 9302,
    "stationCode": 6383,
    "stopType": "MUNICIPAL_BUS",
    "shortStopName": null,
    "Position": {
      "stopLongitude": "72.374533",
      "stopLatitude": "23.133482"
    },
    "RouteCodes": null,
    "Sequence": 2,
    "routeFlow": null
  },
  {
    "stopName": "Thol Gam (Saradar Chowk)",
    "stopCode": 9304,
    "stationCode": 6384,
    "stopType": "MUNICIPAL_BUS",
    "shortStopName": null,
    "Position": {
      "stopLongitude": "72.377365",
      "stopLatitude": "23.133102"
    },
    "RouteCodes": null,
    "Sequence": 1,
    "routeFlow": null
  }
]