[
  {
    "stopName": "Sola Bhagwat Vidyapith",
    "stopCode": 1685,
    "stationCode": 2817,
    "stopType": "MUNICIPAL_BUS",
    "shortStopName": null,
    "Position": {
      "stopLongitude": "72.528245",
      "stopLatitude": "23.085973"
    },
    "RouteCodes": null,
    "Sequence": 31,
    "routeFlow": "LINESTRING (72.56385 23.087, 72.56258 23.08678, 72.5617 23.08658, 72.56138 23.08646, 72.56106 23.08638, 72.56074 23.08632, 72.56035 23.08623, 72.56035 23.08618, 72.56032 23.08616, 72.55981 23.08606, 72.55935 23.08598, 72.55779 23.08575, 72.55779 23.08575, 72.557 23.08561, 72.55646 23.08554, 72.55612 23.08545, 72.5555 23.08528, 72.55516 23.08513, 72.55511 23.08512, 72.55511 23.08512, 72.55485 23.08503, 72.55461 23.08491, 72.55445 23.08481, 72.55412 23.08466, 72.55391 23.08451, 72.55371 23.08429, 72.55369 23.08428, 72.55312 23.08362, 72.55281 23.08332, 72.55237 23.083, 72.55223 23.0829, 72.55215 23.08286, 72.55211 23.08284, 72.55202 23.08288, 72.55187 23.08299, 72.55157 23.08321, 72.5512 23.08353, 72.55105 23.08366, 72.55099 23.08385, 72.55099 23.08385, 72.55096 23.08399, 72.55096 23.08424, 72.55112 23.08456, 72.55117 23.08466, 72.5512 23.0848, 72.55117 23.08493, 72.5509 23.08558, 72.55077 23.08601, 72.55077 23.08601, 72.5507 23.08629, 72.55052 23.08721, 72.55032 23.08808, 72.55027 23.08833, 72.55026 23.08835, 72.55015 23.08893, 72.55011 23.08888, 72.55021 23.08888, 72.55017 23.08903, 72.55004 23.08922, 72.55 23.08942, 72.54979 23.09011, 72.54938 23.09002, 72.54734 23.0897, 72.54714 23.08968, 72.54721 23.08935, 72.54712 23.08933, 72.5473 23.0887, 72.54739 23.08826, 72.54744 23.08807, 72.54754 23.08753, 72.54754 23.08753, 72.54784 23.0861, 72.54784 23.0861, 72.54809 23.08504, 72.54816 23.08451, 72.54816 23.08448, 72.5482 23.08423, 72.54822 23.08388, 72.54815 23.08377, 72.54719 23.08335, 72.54668 23.08312, 72.54668 23.08312, 72.54629 23.08295, 72.54653 23.08268, 72.5466 23.08261, 72.54678 23.08248, 72.54819 23.0815, 72.54819 23.0815, 72.5488 23.08111, 72.5491 23.08095, 72.54929 23.08086, 72.54994 23.08062, 72.54994 23.08062, 72.55024 23.08051, 72.55138 23.0802, 72.55171 23.08007, 72.55189 23.07993, 72.55254 23.0793, 72.55298 23.0789, 72.55298 23.0789, 72.55416 23.07785, 72.55457 23.07752, 72.55467 23.07742, 72.55544 23.07649, 72.55544 23.07649, 72.55588 23.07592, 72.55638 23.07537, 72.55662 23.07508, 72.55679 23.07484, 72.55697 23.07455, 72.55701 23.07446, 72.55693 23.07443, 72.55615 23.07412, 72.55615 23.07412, 72.55515 23.07376, 72.55472 23.07359, 72.55346 23.07311, 72.55346 23.07311, 72.55238 23.07269, 72.55166 23.07242, 72.55166 23.07242, 72.55097 23.07212, 72.55063 23.07196, 72.5501 23.07176, 72.54956 23.07154, 72.54933 23.07142, 72.54841 23.07103, 72.54833 23.071, 72.54831 23.07102, 72.54581 23.06989, 72.54448 23.06928, 72.54448 23.06928, 72.54411 23.0691, 72.54361 23.06888, 72.54336 23.06942, 72.54299 23.07034, 72.54295 23.07037, 72.54293 23.07034, 72.54182 23.07255, 72.54118 23.07385, 72.54087 23.07434, 72.54067 23.07462, 72.53927 23.07623, 72.53918 23.07631, 72.53902 23.07641, 72.5387 23.07653, 72.53847 23.07656, 72.53846 23.07654, 72.5384 23.07652, 72.53834 23.07653, 72.5383 23.07657, 72.5383 23.07662, 72.53831 23.07665, 72.53776 23.07736, 72.53768 23.07748, 72.53768 23.07748, 72.53669 23.07891, 72.53669 23.07891, 72.53627 23.07952, 72.53591 23.08013, 72.5356 23.08077, 72.53558 23.08079, 72.53558 23.08079, 72.53548 23.08094, 72.5354 23.08102, 72.53495 23.0814, 72.53419 23.08198, 72.53398 23.08218, 72.53398 23.08218, 72.5332 23.08293, 72.53205 23.08407, 72.53194 23.08419, 72.53194 23.08419, 72.53149 23.08469, 72.53049 23.08593, 72.53037 23.08604, 72.53027 23.08609, 72.52984 23.08615, 72.52829 23.08629, 72.5282 23.08598, 72.5282 23.08598, 72.52734 23.08298, 72.52734 23.08298, 72.52631 23.07956, 72.52631 23.07956, 72.52597 23.07836, 72.52545 23.07643, 72.52534 23.07612, 72.52485 23.0745, 72.52484 23.07446, 72.52488 23.07445, 72.5243 23.07241, 72.5243 23.07241, 72.52423 23.07219, 72.52427 23.07208, 72.52406 23.07122, 72.52393 23.07074, 72.52372 23.06999, 72.52356 23.06944, 72.52381 23.06928, 72.52386 23.06928, 72.52395 23.06927, 72.52417 23.06919, 72.52475 23.06896, 72.52487 23.06891, 72.52486 23.06881, 72.52485 23.0687, 72.52485 23.06867, 72.52442 23.06883, 72.5239 23.06906, 72.52384 23.06911, 72.5238 23.06918, 72.52369 23.06924, 72.52328 23.06949, 72.52279 23.0697, 72.52256 23.06978, 72.52238 23.06986, 72.52238 23.06986, 72.52052 23.07064, 72.52016 23.07077, 72.52015 23.07074, 72.5196 23.0709, 72.51798 23.07136, 72.51766 23.07146, 72.51703 23.07176, 72.51701 23.07176, 72.51698 23.07175, 72.51694 23.07176, 72.51688 23.07181, 72.51687 23.07184, 72.51613 23.07221, 72.51515 23.07268, 72.51515 23.07268, 72.51175 23.07432, 72.51175 23.07432, 72.50882 23.07572, 72.50696 23.07663, 72.50696 23.07663, 72.50567 23.07727, 72.50467 23.07774, 72.50354 23.0783, 72.5023 23.07892, 72.5023 23.07892, 72.50087 23.07962, 72.49977 23.0802, 72.49962 23.08026, 72.49962 23.08026, 72.49801 23.08118, 72.49559 23.08252, 72.49512 23.08279, 72.49512 23.08279, 72.49295 23.08401, 72.49273 23.08408, 72.49268 23.08407, 72.49261 23.08406, 72.49251 23.08411, 72.49246 23.0842, 72.49245 23.08424, 72.49246 23.08427, 72.49231 23.08436, 72.49222 23.08445, 72.49184 23.08463, 72.49184 23.08463, 72.49125 23.0849, 72.49004 23.08531, 72.48974 23.08539, 72.48947 23.08542, 72.48872 23.08546, 72.48824 23.08555, 72.48815 23.08558, 72.48664 23.08622, 72.48628 23.08639, 72.48604 23.08654, 72.48584 23.08667, 72.48555 23.08681, 72.48582 23.08705, 72.48582 23.08705, 72.48606 23.0872, 72.48614 23.08729, 72.48617 23.08744, 72.48617 23.08809, 72.48617 23.08824, 72.48573 23.08854, 72.48503 23.08902, 72.48455 23.08935, 72.48454 23.08936, 72.48454 23.08936, 72.48377 23.0898, 72.4831 23.09015, 72.48165 23.0909, 72.48098 23.09124, 72.48013 23.09161, 72.47996 23.09168, 72.47996 23.09168, 72.47604 23.09333, 72.47428 23.09414, 72.4731 23.09473, 72.4731 23.09473, 72.46961 23.09656, 72.46702 23.0979, 72.46699 23.09789, 72.46693 23.09787, 72.46687 23.09786, 72.4668 23.09789, 72.46675 23.09797, 72.46675 23.09797, 72.46633 23.09825, 72.46552 23.0987, 72.46387 23.09954, 72.46377 23.09959, 72.46376 23.09959, 72.46367 23.09943, 72.46311 23.09841, 72.46311 23.09841, 72.46189 23.09615, 72.4618 23.0962, 72.46164 23.0963, 72.46164 23.0963, 72.46027 23.09712, 72.46017 23.09714, 72.45941 23.09719, 72.45726 23.09734, 72.45726 23.09734, 72.45279 23.09761, 72.45195 23.09764, 72.45195 23.09764, 72.4494 23.0978, 72.44772 23.09789, 72.44529 23.09803, 72.44448 23.09804, 72.444 23.09801, 72.44345 23.0979, 72.4431 23.09787, 72.4431 23.09787, 72.44185 23.09761, 72.4415 23.09752, 72.44045 23.09708, 72.43861 23.09628, 72.43821 23.09613, 72.43821 23.09613, 72.43653 23.09537, 72.43579 23.09507, 72.43525 23.09498, 72.43454 23.09492, 72.43428 23.09492, 72.43285 23.09523, 72.4329 23.09529, 72.4329 23.09529, 72.43285 23.09523, 72.43272 23.09526, 72.43247 23.09531, 72.43228 23.09533, 72.43213 23.09531, 72.43193 23.09521, 72.43025 23.09428, 72.4298 23.09404, 72.4298 23.09404, 72.4281 23.09311, 72.4277 23.09289, 72.42763 23.09284, 72.42693 23.09205, 72.42693 23.09205, 72.42572 23.09067, 72.42542 23.09032, 72.42516 23.09, 72.42511 23.09005, 72.42511 23.09005, 72.42516 23.09, 72.42488 23.08967, 72.42409 23.08881, 72.42365 23.08852, 72.42288 23.08812, 72.42211 23.08776, 72.42204 23.08774, 72.42211 23.08764, 72.42211 23.08764, 72.42187 23.08792, 72.42077 23.08885, 72.42012 23.08938, 72.41908 23.09032, 72.4175 23.09183, 72.41707 23.0923, 72.41698 23.09244, 72.41698 23.09244, 72.41583 23.0942, 72.41555 23.0946, 72.41436 23.09602, 72.41424 23.09616, 72.41424 23.09616, 72.41414 23.09629, 72.41378 23.09665, 72.41323 23.09709, 72.4122 23.09775, 72.41138 23.09833, 72.41101 23.0986, 72.41078 23.0988, 72.41062 23.09899, 72.40979 23.10005, 72.40851 23.10169, 72.40851 23.10169, 72.40823 23.10203, 72.4078 23.10245, 72.40752 23.10269, 72.407 23.10304, 72.40619 23.1035, 72.40499 23.10417, 72.40434 23.10458, 72.40335 23.1053, 72.40192 23.10636, 72.40161 23.1066, 72.40134 23.10684, 72.40104 23.10715, 72.40082 23.1074, 72.40075 23.10751, 72.40067 23.10763, 72.40067 23.10763, 72.4 23.10842, 72.39989 23.10849, 72.39966 23.10872, 72.39925 23.10906, 72.39874 23.10947, 72.39858 23.10962, 72.39832 23.1099, 72.39799 23.11041, 72.39789 23.11055, 72.39779 23.11063, 72.39762 23.11071, 72.39735 23.11079, 72.3962 23.11109, 72.39592 23.11117, 72.39566 23.11131, 72.39566 23.11131, 72.3953 23.11152, 72.39468 23.11184, 72.39422 23.11211, 72.3941 23.11219, 72.39389 23.1124, 72.39366 23.11276, 72.3936 23.11288, 72.3936 23.11288, 72.39316 23.11373, 72.39277 23.11422, 72.39196 23.11516, 72.39172 23.11544, 72.39149 23.11563, 72.39109 23.11593, 72.39071 23.11623, 72.39054 23.11637, 72.39039 23.11654, 72.38992 23.11719, 72.38975 23.11743, 72.38943 23.11795, 72.38941 23.11798, 72.38894 23.11878, 72.38868 23.11925, 72.38849 23.11953, 72.38818 23.11994, 72.3878 23.12043, 72.38767 23.12057, 72.38743 23.12079, 72.38738 23.1207, 72.38738 23.1207, 72.38743 23.12079, 72.38728 23.1209, 72.38709 23.1211, 72.38676 23.12156, 72.38665 23.12176, 72.38638 23.12236, 72.3862 23.12274, 72.38588 23.12339, 72.38581 23.12351, 72.38576 23.12357, 72.38573 23.1235, 72.38573 23.1235, 72.38576 23.12357, 72.38569 23.12365, 72.38542 23.12385, 72.38421 23.12461, 72.38199 23.12617, 72.38181 23.1263, 72.38159 23.12639, 72.38088 23.12657, 72.37981 23.1268, 72.37916 23.12697, 72.37913 23.12698, 72.37913 23.12698, 72.37892 23.12707, 72.37853 23.12726, 72.37708 23.12811, 72.37607 23.12871, 72.37506 23.12935, 72.37506 23.12935, 72.3744 23.12977, 72.37404 23.13002, 72.37382 23.13021, 72.37363 23.13046, 72.37357 23.13059, 72.3735 23.13085, 72.37342 23.13123, 72.37338 23.13126, 72.37342 23.13133, 72.37342 23.13133, 72.37413 23.13291, 72.37441 23.13351, 72.37436 23.13351, 72.37436 23.13351, 72.37492 23.13352, 72.37693 23.13374, 72.37706 23.13374, 72.37714 23.13371, 72.37718 23.13367, 72.37735 23.1331)"
  },
  {
    "stopName": "R.C.Technical",
    "stopCode": 1686,
    "stationCode": 2404,
    "stopType": "MUNICIPAL_BUS",
    "shortStopName": null,
    "Position": {
      "stopLongitude": "72.527288",
      "stopLatitude": "23.08299"
    },
    "RouteCodes": null,
    "Sequence": 32,
    "routeFlow": null
  },
  {
    "stopName": "Gujarat High Court",
    "stopCode": 1687,
    "stationCode": 1617,
    "stopType": "MUNICIPAL_BUS",
    "shortStopName": null,
    "Position": {
      "stopLongitude": "72.526306",
      "stopLatitude": "23.07956"
    },
    "RouteCodes": null,
    "Sequence": 33,
    "routeFlow": null
  },
  {
    "stopName": "Ramdev Masala",
    "stopCode": 1688,
    "stationCode": 2466,
    "stopType": "MUNICIPAL_BUS",
    "shortStopName": null,
    "Position": {
      "stopLongitude": "72.524843",
      "stopLatitude": "23.074458"
    },
    "RouteCodes": null,
    "Sequence": 34,
    "routeFlow": null
  },
  {
    "stopName": "Dhanjibhaino Kuvo",
    "stopCode": 2796,
    "stationCode": 1455,
    "stopType": "MUNICIPAL_BUS",
    "shortStopName": null,
    "Position": {
      "stopLongitude": "72.555455",
      "stopLatitude": "23.076505"
    },
    "RouteCodes": null,
    "Sequence": 18,
    "routeFlow": null
  },
  {
    "stopName": "Saraswati Vidyalay",
    "stopCode": 2897,
    "stationCode": 2598,
    "stopType": "MUNICIPAL_BUS",
    "shortStopName": null,
    "Position": {
      "stopLongitude": "72.520166",
      "stopLatitude": "23.070781"
    },
    "RouteCodes": null,
    "Sequence": 37,
    "routeFlow": null
  },
  {
    "stopName": "Satyam Complex",
    "stopCode": 2898,
    "stationCode": 2656,
    "stopType": "MUNICIPAL_BUS",
    "shortStopName": null,
    "Position": {
      "stopLongitude": "72.511753",
      "stopLatitude": "23.074338"
    },
    "RouteCodes": null,
    "Sequence": 39,
    "routeFlow": null
  },
  {
    "stopName": "Sahajanand Bunglows (Science City)",
    "stopCode": 2899,
    "stationCode": 2540,
    "stopType": "MUNICIPAL_BUS",
    "shortStopName": null,
    "Position": {
      "stopLongitude": "72.506968",
      "stopLatitude": "23.076641"
    },
    "RouteCodes": null,
    "Sequence": 40,
    "routeFlow": null
  },
  {
    "stopName": "Science City",
    "stopCode": 2900,
    "stationCode": 2668,
    "stopType": "MUNICIPAL_BUS",
    "shortStopName": null,
    "Position": {
      "stopLongitude": "72.499616",
      "stopLatitude": "23.08025"
    },
    "RouteCodes": null,
    "Sequence": 42,
    "routeFlow": null
  },
  {
    "stopName": "Kesarsal Medical College",
    "stopCode": 2901,
    "stationCode": 1873,
    "stopType": "MUNICIPAL_BUS",
    "shortStopName": null,
    "Position": {
      "stopLongitude": "72.49509",
      "stopLatitude": "23.082753"
    },
    "RouteCodes": null,
    "Sequence": 43,
    "routeFlow": null
  },
  {
    "stopName": "Sola Overbridge",
    "stopCode": 2913,
    "stationCode": 2821,
    "stopType": "MUNICIPAL_BUS",
    "shortStopName": null,
    "Position": {
      "stopLongitude": "72.52435",
      "stopLatitude": "23.072399"
    },
    "RouteCodes": null,
    "Sequence": 35,
    "routeFlow": null
  },
  {
    "stopName": "Mrudul Park",
    "stopCode": 3393,
    "stationCode": 2103,
    "stopType": "MUNICIPAL_BUS",
    "shortStopName": null,
    "Position": {
      "stopLongitude": "72.537683",
      "stopLatitude": "23.077483"
    },
    "RouteCodes": null,
    "Sequence": 26,
    "routeFlow": null
  },
  {
    "stopName": "Sayona City",
    "stopCode": 3394,
    "stationCode": 2665,
    "stopType": "MUNICIPAL_BUS",
    "shortStopName": null,
    "Position": {
      "stopLongitude": "72.53668",
      "stopLatitude": "23.078908"
    },
    "RouteCodes": null,
    "Sequence": 27,
    "routeFlow": null
  },
  {
    "stopName": "Avadhpuri",
    "stopCode": 3395,
    "stationCode": 1200,
    "stopType": "MUNICIPAL_BUS",
    "shortStopName": null,
    "Position": {
      "stopLongitude": "72.535576",
      "stopLatitude": "23.08079"
    },
    "RouteCodes": null,
    "Sequence": 28,
    "routeFlow": null
  },
  {
    "stopName": "Nirman Tower (Sola)",
    "stopCode": 3396,
    "stationCode": 2241,
    "stopType": "MUNICIPAL_BUS",
    "shortStopName": null,
    "Position": {
      "stopLongitude": "72.533963",
      "stopLatitude": "23.082161"
    },
    "RouteCodes": null,
    "Sequence": 29,
    "routeFlow": null
  },
  {
    "stopName": "R.C.Technical (Rear)",
    "stopCode": 3732,
    "stationCode": 2405,
    "stopType": "MUNICIPAL_BUS",
    "shortStopName": null,
    "Position": {
      "stopLongitude": "72.531945",
      "stopLatitude": "23.084193"
    },
    "RouteCodes": null,
    "Sequence": 30,
    "routeFlow": null
  },
  {
    "stopName": "Sola Gam Cross Road",
    "stopCode": 3749,
    "stationCode": 2819,
    "stopType": "MUNICIPAL_BUS",
    "shortStopName": null,
    "Position": {
      "stopLongitude": "72.51515",
      "stopLatitude": "23.072681"
    },
    "RouteCodes": null,
    "Sequence": 38,
    "routeFlow": null
  },
  {
    "stopName": "S.P.Ring Road (Paghadi Sheth Farm)",
    "stopCode": 3751,
    "stationCode": 2281,
    "stopType": "MUNICIPAL_BUS",
    "shortStopName": null,
    "Position": {
      "stopLongitude": "72.491836",
      "stopLatitude": "23.084616"
    },
    "RouteCodes": null,
    "Sequence": 44,
    "routeFlow": null
  },
  {
    "stopName": "Bhadaj Gam",
    "stopCode": 3752,
    "stationCode": 1259,
    "stopType": "MUNICIPAL_BUS",
    "shortStopName": null,
    "Position": {
      "stopLongitude": "72.485813",
      "stopLatitude": "23.087055"
    },
    "RouteCodes": null,
    "Sequence": 45,
    "routeFlow": null
  },
  {
    "stopName": "Chhaya Flats",
    "stopCode": 3972,
    "stationCode": 1379,
    "stopType": "MUNICIPAL_BUS",
    "shortStopName": null,
    "Position": {
      "stopLongitude": "72.54292",
      "stopLatitude": "23.070338"
    },
    "RouteCodes": null,
    "Sequence": 24,
    "routeFlow": null
  },
  {
    "stopName": "Somnath Chowk (Chanakyapuri Approach)",
    "stopCode": 4233,
    "stationCode": 2825,
    "stopType": "MUNICIPAL_BUS",
    "shortStopName": null,
    "Position": {
      "stopLongitude": "72.538476",
      "stopLatitude": "23.076527"
    },
    "RouteCodes": null,
    "Sequence": 25,
    "routeFlow": null
  },
  {
    "stopName": "Tejas Society",
    "stopCode": 4505,
    "stationCode": 2920,
    "stopType": "MUNICIPAL_BUS",
    "shortStopName": null,
    "Position": {
      "stopLongitude": "72.553471",
      "stopLatitude": "23.07309"
    },
    "RouteCodes": null,
    "Sequence": 20,
    "routeFlow": null
  },
  {
    "stopName": "Deshwali Society",
    "stopCode": 4950,
    "stationCode": 1433,
    "stopType": "MUNICIPAL_BUS",
    "shortStopName": null,
    "Position": {
      "stopLongitude": "72.556178",
      "stopLatitude": "23.074055"
    },
    "RouteCodes": null,
    "Sequence": 19,
    "routeFlow": null
  },
  {
    "stopName": "Jay Avinash Society",
    "stopCode": 4951,
    "stationCode": 1773,
    "stopType": "MUNICIPAL_BUS",
    "shortStopName": null,
    "Position": {
      "stopLongitude": "72.551675",
      "stopLatitude": "23.072385"
    },
    "RouteCodes": null,
    "Sequence": 21,
    "routeFlow": null
  },
  {
    "stopName": "Shankarda Hall",
    "stopCode": 4952,
    "stationCode": 2697,
    "stopType": "MUNICIPAL_BUS",
    "shortStopName": null,
    "Position": {
      "stopLongitude": "72.54835",
      "stopLatitude": "23.070946"
    },
    "RouteCodes": null,
    "Sequence": 22,
    "routeFlow": null
  },
  {
    "stopName": "Chandlodiya Talav (Ganeshwar Mahadev)",
    "stopCode": 5293,
    "stationCode": 1361,
    "stopType": "MUNICIPAL_BUS",
    "shortStopName": null,
    "Position": {
      "stopLongitude": "72.553706",
      "stopLatitude": "23.084263"
    },
    "RouteCodes": null,
    "Sequence": 5,
    "routeFlow": null
  },
  {
    "stopName": "Gayatri Society",
    "stopCode": 5294,
    "stationCode": 1538,
    "stopType": "MUNICIPAL_BUS",
    "shortStopName": null,
    "Position": {
      "stopLongitude": "72.551001",
      "stopLatitude": "23.08385"
    },
    "RouteCodes": null,
    "Sequence": 6,
    "routeFlow": null
  },
  {
    "stopName": "Tirupati School",
    "stopCode": 5295,
    "stationCode": 5093,
    "stopType": "MUNICIPAL_BUS",
    "shortStopName": null,
    "Position": {
      "stopLongitude": "72.550803",
      "stopLatitude": "23.08602"
    },
    "RouteCodes": null,
    "Sequence": 7,
    "routeFlow": null
  },
  {
    "stopName": "Khodiyarnagar (Chandlodiya)",
    "stopCode": 5296,
    "stationCode": 3082,
    "stopType": "MUNICIPAL_BUS",
    "shortStopName": null,
    "Position": {
      "stopLongitude": "72.550288",
      "stopLatitude": "23.088335"
    },
    "RouteCodes": null,
    "Sequence": 8,
    "routeFlow": null
  },
  {
    "stopName": "Devbhumi Society (Ranip)",
    "stopCode": 5559,
    "stationCode": 1438,
    "stopType": "MUNICIPAL_BUS",
    "shortStopName": null,
    "Position": {
      "stopLongitude": "72.560309",
      "stopLatitude": "23.086186"
    },
    "RouteCodes": null,
    "Sequence": 2,
    "routeFlow": null
  },
  {
    "stopName": "Ugati Lakeview",
    "stopCode": 5711,
    "stationCode": 5072,
    "stopType": "MUNICIPAL_BUS",
    "shortStopName": null,
    "Position": {
      "stopLongitude": "72.502281",
      "stopLatitude": "23.078896"
    },
    "RouteCodes": null,
    "Sequence": 41,
    "routeFlow": null
  },
  {
    "stopName": "Shubhmangal society",
    "stopCode": 5729,
    "stationCode": 2771,
    "stopType": "MUNICIPAL_BUS",
    "shortStopName": null,
    "Position": {
      "stopLongitude": "72.547176",
      "stopLatitude": "23.089343"
    },
    "RouteCodes": null,
    "Sequence": 10,
    "routeFlow": null
  },
  {
    "stopName": "Shree Kashi Aevenue",
    "stopCode": 5843,
    "stationCode": 6488,
    "stopType": "MUNICIPAL_BUS",
    "shortStopName": null,
    "Position": {
      "stopLongitude": "72.484506",
      "stopLatitude": "23.089303"
    },
    "RouteCodes": null,
    "Sequence": 46,
    "routeFlow": null
  },
  {
    "stopName": "Satvik Hill",
    "stopCode": 5846,
    "stationCode": 6489,
    "stopType": "MUNICIPAL_BUS",
    "shortStopName": null,
    "Position": {
      "stopLongitude": "72.479959",
      "stopLatitude": "23.09167"
    },
    "RouteCodes": null,
    "Sequence": 47,
    "routeFlow": null
  },
  {
    "stopName": "R.K.Industries",
    "stopCode": 5848,
    "stationCode": 6490,
    "stopType": "MUNICIPAL_BUS",
    "shortStopName": null,
    "Position": {
      "stopLongitude": "72.47305",
      "stopLatitude": "23.09465"
    },
    "RouteCodes": null,
    "Sequence": 48,
    "routeFlow": null
  },
  {
    "stopName": "Supercity Complex",
    "stopCode": 5850,
    "stationCode": 6491,
    "stopType": "MUNICIPAL_BUS",
    "shortStopName": null,
    "Position": {
      "stopLongitude": "72.466709",
      "stopLatitude": "23.097956"
    },
    "RouteCodes": null,
    "Sequence": 49,
    "routeFlow": null
  },
  {
    "stopName": "Supercity Gate",
    "stopCode": 5852,
    "stationCode": 6492,
    "stopType": "MUNICIPAL_BUS",
    "shortStopName": null,
    "Position": {
      "stopLongitude": "72.463179",
      "stopLatitude": "23.098381"
    },
    "RouteCodes": null,
    "Sequence": 50,
    "routeFlow": null
  },
  {
    "stopName": "Nasmed Chokdi",
    "stopCode": 5854,
    "stationCode": 6493,
    "stopType": "MUNICIPAL_BUS",
    "shortStopName": null,
    "Position": {
      "stopLongitude": "72.461634",
      "stopLatitude": "23.096288"
    },
    "RouteCodes": null,
    "Sequence": 51,
    "routeFlow": null
  },
  {
    "stopName": "Hare Krushna Mandir(bhadaj)",
    "stopCode": 5856,
    "stationCode": 6494,
    "stopType": "MUNICIPAL_BUS",
    "shortStopName": null,
    "Position": {
      "stopLongitude": "72.457257",
      "stopLatitude": "23.097354"
    },
    "RouteCodes": null,
    "Sequence": 52,
    "routeFlow": null
  },
  {
    "stopName": "Ahemdabad Dental College",
    "stopCode": 5858,
    "stationCode": 6495,
    "stopType": "MUNICIPAL_BUS",
    "shortStopName": null,
    "Position": {
      "stopLongitude": "72.451955",
      "stopLatitude": "23.097672"
    },
    "RouteCodes": null,
    "Sequence": 53,
    "routeFlow": null
  },
  {
    "stopName": "Calorex Olive International School",
    "stopCode": 5860,
    "stationCode": 6496,
    "stopType": "MUNICIPAL_BUS",
    "shortStopName": null,
    "Position": {
      "stopLongitude": "72.443093",
      "stopLatitude": "23.097889"
    },
    "RouteCodes": null,
    "Sequence": 54,
    "routeFlow": null
  },
  {
    "stopName": "Ranchodpura Cross Road",
    "stopCode": 5862,
    "stationCode": 6497,
    "stopType": "MUNICIPAL_BUS",
    "shortStopName": null,
    "Position": {
      "stopLongitude": "72.4382",
      "stopLatitude": "23.096152"
    },
    "RouteCodes": null,
    "Sequence": 55,
    "routeFlow": null
  },
  {
    "stopName": "Aneri Farm (Canal)",
    "stopCode": 5864,
    "stationCode": 6498,
    "stopType": "MUNICIPAL_BUS",
    "shortStopName": null,
    "Position": {
      "stopLongitude": "72.432879",
      "stopLatitude": "23.095303"
    },
    "RouteCodes": null,
    "Sequence": 56,
    "routeFlow": null
  },
  {
    "stopName": "Avadh Farm",
    "stopCode": 5866,
    "stationCode": 6499,
    "stopType": "MUNICIPAL_BUS",
    "shortStopName": null,
    "Position": {
      "stopLongitude": "72.429789",
      "stopLatitude": "23.09406"
    },
    "RouteCodes": null,
    "Sequence": 57,
    "routeFlow": null
  },
  {
    "stopName": "Aantar Kshitij",
    "stopCode": 5868,
    "stationCode": 6500,
    "stopType": "MUNICIPAL_BUS",
    "shortStopName": null,
    "Position": {
      "stopLongitude": "72.426956",
      "stopLatitude": "23.092027"
    },
    "RouteCodes": null,
    "Sequence": 58,
    "routeFlow": null
  },
  {
    "stopName": "Kusum Farm",
    "stopCode": 5870,
    "stationCode": 6501,
    "stopType": "MUNICIPAL_BUS",
    "shortStopName": null,
    "Position": {
      "stopLongitude": "72.42509",
      "stopLatitude": "23.090033"
    },
    "RouteCodes": null,
    "Sequence": 59,
    "routeFlow": null
  },
  {
    "stopName": "Ahvadiya Talav(New Ranip)",
    "stopCode": 5874,
    "stationCode": 6502,
    "stopType": "MUNICIPAL_BUS",
    "shortStopName": null,
    "Position": {
      "stopLongitude": "72.563876",
      "stopLatitude": "23.086975"
    },
    "RouteCodes": null,
    "Sequence": 1,
    "routeFlow": null
  },
  {
    "stopName": "Vallabh Farm",
    "stopCode": 7408,
    "stationCode": 3001,
    "stopType": "MUNICIPAL_BUS",
    "shortStopName": null,
    "Position": {
      "stopLongitude": "72.550111",
      "stopLatitude": "23.088918"
    },
    "RouteCodes": null,
    "Sequence": 9,
    "routeFlow": null
  },
  {
    "stopName": "Simandhar Complex",
    "stopCode": 7874,
    "stationCode": 2798,
    "stopType": "MUNICIPAL_BUS",
    "shortStopName": null,
    "Position": {
      "stopLongitude": "72.544511",
      "stopLatitude": "23.069225"
    },
    "RouteCodes": null,
    "Sequence": 23,
    "routeFlow": null
  },
  {
    "stopName": "Railway Garnala",
    "stopCode": 8283,
    "stationCode": 7247,
    "stopType": "MUNICIPAL_BUS",
    "shortStopName": null,
    "Position": {
      "stopLongitude": "72.555117",
      "stopLatitude": "23.085092"
    },
    "RouteCodes": null,
    "Sequence": 4,
    "routeFlow": null
  },
  {
    "stopName": "Panchvati Bungalows",
    "stopCode": 8285,
    "stationCode": 7248,
    "stopType": "MUNICIPAL_BUS",
    "shortStopName": null,
    "Position": {
      "stopLongitude": "72.557797",
      "stopLatitude": "23.085728"
    },
    "RouteCodes": null,
    "Sequence": 3,
    "routeFlow": null
  },
  {
    "stopName": "Madhav Farm",
    "stopCode": 8422,
    "stationCode": 1984,
    "stopType": "MUNICIPAL_BUS",
    "shortStopName": null,
    "Position": {
      "stopLongitude": "72.54759",
      "stopLatitude": "23.087535"
    },
    "RouteCodes": null,
    "Sequence": 11,
    "routeFlow": null
  },
  {
    "stopName": "Simran Avenue",
    "stopCode": 8423,
    "stationCode": 2800,
    "stopType": "MUNICIPAL_BUS",
    "shortStopName": null,
    "Position": {
      "stopLongitude": "72.547891",
      "stopLatitude": "23.08611"
    },
    "RouteCodes": null,
    "Sequence": 12,
    "routeFlow": null
  },
  {
    "stopName": "Shriji Residency",
    "stopCode": 8424,
    "stationCode": 2748,
    "stopType": "MUNICIPAL_BUS",
    "shortStopName": null,
    "Position": {
      "stopLongitude": "72.5482",
      "stopLatitude": "23.084513"
    },
    "RouteCodes": null,
    "Sequence": 13,
    "routeFlow": null
  },
  {
    "stopName": "Silver Star Mall",
    "stopCode": 8425,
    "stationCode": 2797,
    "stopType": "MUNICIPAL_BUS",
    "shortStopName": null,
    "Position": {
      "stopLongitude": "72.546673",
      "stopLatitude": "23.08313"
    },
    "RouteCodes": null,
    "Sequence": 14,
    "routeFlow": null
  },
  {
    "stopName": "Chuval Society",
    "stopCode": 8426,
    "stationCode": 1396,
    "stopType": "MUNICIPAL_BUS",
    "shortStopName": null,
    "Position": {
      "stopLongitude": "72.548218",
      "stopLatitude": "23.081531"
    },
    "RouteCodes": null,
    "Sequence": 15,
    "routeFlow": null
  },
  {
    "stopName": "Chandlodiya Gam",
    "stopCode": 8427,
    "stationCode": 1360,
    "stopType": "MUNICIPAL_BUS",
    "shortStopName": null,
    "Position": {
      "stopLongitude": "72.54996",
      "stopLatitude": "23.080658"
    },
    "RouteCodes": null,
    "Sequence": 16,
    "routeFlow": null
  },
  {
    "stopName": "Arjun Ashram",
    "stopCode": 8428,
    "stationCode": 1156,
    "stopType": "MUNICIPAL_BUS",
    "shortStopName": null,
    "Position": {
      "stopLongitude": "72.55301",
      "stopLatitude": "23.078925"
    },
    "RouteCodes": null,
    "Sequence": 17,
    "routeFlow": null
  },
  {
    "stopName": "Sola Police Choki",
    "stopCode": 8908,
    "stationCode": 6202,
    "stopType": "MUNICIPAL_BUS",
    "shortStopName": null,
    "Position": {
      "stopLongitude": "72.522372",
      "stopLatitude": "23.069851"
    },
    "RouteCodes": null,
    "Sequence": 36,
    "routeFlow": null
  },
  {
    "stopName": "Dabhla Chokdi",
    "stopCode": 9275,
    "stationCode": 6370,
    "stopType": "MUNICIPAL_BUS",
    "shortStopName": null,
    "Position": {
      "stopLongitude": "72.422038",
      "stopLatitude": "23.087601"
    },
    "RouteCodes": null,
    "Sequence": 60,
    "routeFlow": null
  },
  {
    "stopName": "Dabhla Overbridge",
    "stopCode": 9277,
    "stationCode": 6371,
    "stopType": "MUNICIPAL_BUS",
    "shortStopName": null,
    "Position": {
      "stopLongitude": "72.416931",
      "stopLatitude": "23.092407"
    },
    "RouteCodes": null,
    "Sequence": 61,
    "routeFlow": null
  },
  {
    "stopName": "Dabhla Gam (Panjrapol)",
    "stopCode": 9279,
    "stationCode": 6372,
    "stopType": "MUNICIPAL_BUS",
    "shortStopName": null,
    "Position": {
      "stopLongitude": "72.414163",
      "stopLatitude": "23.096108"
    },
    "RouteCodes": null,
    "Sequence": 62,
    "routeFlow": null
  },
  {
    "stopName": "Deep Farm",
    "stopCode": 9281,
    "stationCode": 6373,
    "stopType": "MUNICIPAL_BUS",
    "shortStopName": null,
    "Position": {
      "stopLongitude": "72.408455",
      "stopLatitude": "23.101654"
    },
    "RouteCodes": null,
    "Sequence": 63,
    "routeFlow": null
  },
  {
    "stopName": "Uplend Golf",
    "stopCode": 9283,
    "stationCode": 6374,
    "stopType": "MUNICIPAL_BUS",
    "shortStopName": null,
    "Position": {
      "stopLongitude": "72.400623",
      "stopLatitude": "23.107595"
    },
    "RouteCodes": null,
    "Sequence": 64,
    "routeFlow": null
  },
  {
    "stopName": "Adhana Gam",
    "stopCode": 9285,
    "stationCode": 6375,
    "stopType": "MUNICIPAL_BUS",
    "shortStopName": null,
    "Position": {
      "stopLongitude": "72.395634",
      "stopLatitude": "23.111266"
    },
    "RouteCodes": null,
    "Sequence": 65,
    "routeFlow": null
  },
  {
    "stopName": "Vayna Chokdi",
    "stopCode": 9287,
    "stationCode": 6376,
    "stopType": "MUNICIPAL_BUS",
    "shortStopName": null,
    "Position": {
      "stopLongitude": "72.393531",
      "stopLatitude": "23.112855"
    },
    "RouteCodes": null,
    "Sequence": 66,
    "routeFlow": null
  },
  {
    "stopName": "Radha Bag",
    "stopCode": 9289,
    "stationCode": 6377,
    "stopType": "MUNICIPAL_BUS",
    "shortStopName": null,
    "Position": {
      "stopLongitude": "72.389358",
      "stopLatitude": "23.117946"
    },
    "RouteCodes": null,
    "Sequence": 67,
    "routeFlow": null
  },
  {
    "stopName": "Das Agro Industry",
    "stopCode": 9291,
    "stationCode": 6378,
    "stopType": "MUNICIPAL_BUS",
    "shortStopName": null,
    "Position": {
      "stopLongitude": "72.387427",
      "stopLatitude": "23.12068"
    },
    "RouteCodes": null,
    "Sequence": 68,
    "routeFlow": null
  },
  {
    "stopName": "Natraj Farm",
    "stopCode": 9293,
    "stationCode": 6379,
    "stopType": "MUNICIPAL_BUS",
    "shortStopName": null,
    "Position": {
      "stopLongitude": "72.385742",
      "stopLatitude": "23.123492"
    },
    "RouteCodes": null,
    "Sequence": 69,
    "routeFlow": null
  },
  {
    "stopName": "SadhiMata nu mandir",
    "stopCode": 9295,
    "stationCode": 6380,
    "stopType": "MUNICIPAL_BUS",
    "shortStopName": null,
    "Position": {
      "stopLongitude": "72.379112",
      "stopLatitude": "23.126945"
    },
    "RouteCodes": null,
    "Sequence": 70,
    "routeFlow": null
  },
  {
    "stopName": "Jin Vas",
    "stopCode": 9297,
    "stationCode": 6381,
    "stopType": "MUNICIPAL_BUS",
    "shortStopName": null,
    "Position": {
      "stopLongitude": "72.375013",
      "stopLatitude": "23.129293"
    },
    "RouteCodes": null,
    "Sequence": 71,
    "routeFlow": null
  },
  {
    "stopName": "Sanand Cross Road",
    "stopCode": 9299,
    "stationCode": 6382,
    "stopType": "MUNICIPAL_BUS",
    "shortStopName": null,
    "Position": {
      "stopLongitude": "72.373374",
      "stopLatitude": "23.131341"
    },
    "RouteCodes": null,
    "Sequence": 72,
    "routeFlow": null
  },
  {
    "stopName": "ChandanPura Chokdi",
    "stopCode": 9301,
    "stationCode": 6383,
    "stopType": "MUNICIPAL_BUS",
    "shortStopName": null,
    "Position": {
      "stopLongitude": "72.374356",
      "stopLatitude": "23.133516"
    },
    "RouteCodes": null,
    "Sequence": 73,
    "routeFlow": null
  },
  {
    "stopName": "Thol Gam (Saradar Chowk)",
    "stopCode": 9303,
    "stationCode": 6384,
    "stopType": "MUNICIPAL_BUS",
    "shortStopName": null,
    "Position": {
      "stopLongitude": "72.377312",
      "stopLatitude": "23.133087"
    },
    "RouteCodes": null,
    "Sequence": 74,
    "routeFlow": null
  }
]