[
  {
    "stopName": "Sanyas Ashram",
    "stopCode": 1073,
    "stationCode": 2588,
    "stopType": "MUNICIPAL_BUS",
    "shortStopName": null,
    "Position": {
      "stopLongitude": "72.571266",
      "stopLatitude": "23.024094"
    },
    "RouteCodes": null,
    "Sequence": 60,
    "routeFlow": "LINESTRING (72.44728 23.14745, 72.44428 23.14757, 72.44423 23.14718, 72.44423 23.14718, 72.44394 23.14501, 72.44372 23.14313, 72.4437 23.14283, 72.4437 23.14252, 72.44374 23.14203, 72.44374 23.14199, 72.44374 23.14199, 72.44379 23.13934, 72.44383 23.13858, 72.44398 23.13713, 72.44398 23.13712, 72.444 23.13703, 72.44455 23.1366, 72.44482 23.13636, 72.44526 23.13597, 72.44561 23.13562, 72.44611 23.13516, 72.44625 23.13498, 72.44642 23.1348, 72.44734 23.13393, 72.44918 23.13221, 72.45066 23.13086, 72.45136 23.13018, 72.45346 23.12827, 72.45397 23.1278, 72.45397 23.1278, 72.45605 23.12584, 72.45605 23.12584, 72.45802 23.12394, 72.45802 23.12394, 72.45913 23.12286, 72.45957 23.12237, 72.46065 23.12099, 72.46065 23.12099, 72.46101 23.12045, 72.46175 23.11925, 72.46175 23.11925, 72.46225 23.11849, 72.46293 23.11759, 72.46372 23.11657, 72.46425 23.11583, 72.46425 23.11583, 72.46537 23.11429, 72.46587 23.11367, 72.46661 23.11266, 72.46725 23.11179, 72.46751 23.11136, 72.46776 23.11098, 72.46776 23.11098, 72.46802 23.11059, 72.46833 23.11021, 72.46865 23.10989, 72.46914 23.1096, 72.46911 23.10945, 72.46911 23.10945, 72.46911 23.10912, 72.46923 23.10871, 72.46936 23.10847, 72.4695 23.10827, 72.46974 23.10801, 72.47024 23.10757, 72.47231 23.10577, 72.47231 23.10577, 72.47351 23.1047, 72.47396 23.10439, 72.47445 23.10409, 72.47477 23.10389, 72.47519 23.10368, 72.47556 23.10352, 72.47556 23.10352, 72.47638 23.10318, 72.47726 23.10274, 72.47902 23.10179, 72.47902 23.10179, 72.47969 23.10139, 72.48086 23.10078, 72.48173 23.10036, 72.48173 23.10036, 72.48251 23.09994, 72.4827 23.09983, 72.48354 23.09928, 72.48436 23.0988, 72.48436 23.0988, 72.48456 23.09866, 72.48476 23.09846, 72.48499 23.09811, 72.48524 23.09769, 72.48664 23.09553, 72.48676 23.09529, 72.48682 23.09499, 72.48684 23.09424, 72.48683 23.09387, 72.48678 23.0936, 72.4866 23.09279, 72.48654 23.09249, 72.48644 23.09156, 72.48622 23.0899, 72.48613 23.08919, 72.48613 23.08887, 72.48617 23.08842, 72.48617 23.08809, 72.48618 23.08744, 72.48615 23.08728, 72.48607 23.0872, 72.48575 23.087, 72.48566 23.08692, 72.48555 23.08681, 72.48572 23.08672, 72.48576 23.0867, 72.48576 23.0867, 72.48619 23.08644, 72.48639 23.08634, 72.4869 23.08611, 72.4882 23.08557, 72.48849 23.0855, 72.48888 23.08545, 72.48961 23.08541, 72.48987 23.08536, 72.49069 23.0851, 72.49134 23.08487, 72.49186 23.08462, 72.49186 23.08462, 72.49222 23.08445, 72.49233 23.08446, 72.49236 23.08445, 72.49252 23.08437, 72.49256 23.08439, 72.49261 23.0844, 72.49272 23.08438, 72.49281 23.0843, 72.49282 23.08427, 72.49282 23.08424, 72.49311 23.08403, 72.49409 23.08351, 72.4954 23.08278, 72.4954 23.08278, 72.4995 23.08047, 72.4995 23.08047, 72.50101 23.07969, 72.50273 23.07884, 72.50273 23.07884, 72.50396 23.07823, 72.50497 23.07775, 72.50737 23.07659, 72.50776 23.07639, 72.50776 23.07639, 72.50902 23.07576, 72.5112 23.07474, 72.51182 23.07443, 72.51182 23.07443, 72.51516 23.07282, 72.51514 23.07277, 72.51638 23.07219, 72.51667 23.07204, 72.51692 23.07196, 72.51693 23.07196, 72.51694 23.07196, 72.51697 23.07196, 72.51702 23.07195, 72.51705 23.07193, 72.51708 23.07185, 72.51704 23.07176, 72.51688 23.07122, 72.51667 23.0703, 72.51667 23.0703, 72.51637 23.06924, 72.51631 23.06895, 72.51631 23.06895, 72.51594 23.06721, 72.5158 23.06666, 72.5158 23.06667, 72.51525 23.06455, 72.51498 23.06348, 72.51489 23.06293, 72.51483 23.06245, 72.51485 23.06178, 72.51482 23.06015, 72.51482 23.05956, 72.51486 23.05941, 72.51486 23.05941, 72.51484 23.05945, 72.51503 23.05946, 72.51541 23.05949, 72.51566 23.05948, 72.51607 23.05943, 72.51686 23.05927, 72.51686 23.05928, 72.51851 23.05892, 72.5196 23.05867, 72.51985 23.0586, 72.52011 23.05854, 72.52023 23.0585, 72.52019 23.05837, 72.51957 23.05617, 72.51957 23.05617, 72.51871 23.0532, 72.51871 23.0532, 72.51843 23.05225, 72.51813 23.05136, 72.51781 23.05054, 72.5176 23.04991, 72.51769 23.04992, 72.51806 23.04991, 72.51806 23.04988, 72.5189 23.04984, 72.51982 23.04969, 72.52038 23.04952, 72.5206 23.04943, 72.52113 23.04923, 72.52113 23.04923, 72.52261 23.04867, 72.52325 23.04848, 72.52366 23.04837, 72.52377 23.04835, 72.52377 23.04835, 72.52521 23.04808, 72.52521 23.04808, 72.52619 23.04786, 72.52677 23.0477, 72.52728 23.04754, 72.52781 23.04728, 72.52831 23.047, 72.52831 23.047, 72.52914 23.04648, 72.52951 23.04633, 72.52979 23.04626, 72.53032 23.04617, 72.53173 23.04603, 72.53175 23.04603, 72.53175 23.04603, 72.53217 23.04597, 72.53285 23.04592, 72.53315 23.04592, 72.53467 23.04593, 72.53467 23.04596, 72.53678 23.04598, 72.53678 23.04598, 72.53723 23.04598, 72.53759 23.04599, 72.53863 23.04596, 72.53938 23.04594, 72.53938 23.04587, 72.54013 23.04587, 72.54014 23.04588, 72.54018 23.0459, 72.54025 23.04589, 72.5403 23.04584, 72.54058 23.0458, 72.54075 23.04575, 72.54142 23.04547, 72.54172 23.04537, 72.54261 23.04508, 72.54268 23.04506, 72.54268 23.04506, 72.54423 23.04476, 72.54485 23.04468, 72.54543 23.04463, 72.54555 23.04461, 72.54574 23.04458, 72.54574 23.04458, 72.54619 23.04447, 72.54643 23.04438, 72.54698 23.04412, 72.54742 23.04388, 72.54795 23.04352, 72.54795 23.04352, 72.54919 23.04268, 72.54905 23.04223, 72.54892 23.04171, 72.54884 23.04121, 72.54877 23.04006, 72.54877 23.03944, 72.54877 23.03944, 72.5488 23.03849, 72.5488 23.03637, 72.54879 23.03578, 72.54884 23.03543, 72.549018 23.034627, 72.54898 23.0346, 72.54908 23.034, 72.54915 23.03372, 72.54936 23.0331, 72.54945 23.03283, 72.55021 23.03297, 72.55021 23.03297, 72.55154 23.0332, 72.55154 23.0332, 72.55324 23.03347, 72.55386 23.03359, 72.55499 23.03374, 72.55501 23.03337, 72.55501 23.03337, 72.55502 23.03215, 72.55504 23.03143, 72.55504 23.03143, 72.5551 23.0293, 72.55511 23.0293, 72.55513 23.0293, 72.55566 23.0293, 72.55566 23.0293, 72.55692 23.02933, 72.55804 23.02933, 72.55826 23.02931, 72.55846 23.02927, 72.55787 23.02823, 72.55787 23.02823, 72.55724 23.02707, 72.55702 23.02664, 72.55657 23.02569, 72.55654 23.02562, 72.55654 23.02562, 72.55629 23.0251, 72.55619 23.02481, 72.55613 23.02454, 72.55608 23.02418, 72.55606 23.02385, 72.55608 23.02351, 72.55611 23.02324, 72.55611 23.02324, 72.55619 23.02279, 72.55622 23.02266, 72.55627 23.02264, 72.55628 23.02263, 72.5579 23.02366, 72.55813 23.02378, 72.55839 23.02394, 72.55851 23.02396, 72.55859 23.024, 72.55923 23.02397, 72.55968 23.02395, 72.55968 23.02385, 72.55977 23.02342, 72.55977 23.02342, 72.56015 23.02194, 72.56037 23.02122, 72.56057 23.02065, 72.56057 23.02065, 72.56065 23.02044, 72.56075 23.02038, 72.56095 23.02029, 72.56108 23.02023, 72.56178 23.02033, 72.56339 23.02067, 72.56416 23.02085, 72.56416 23.02085, 72.56541 23.02121, 72.5664 23.02153, 72.5664 23.02153, 72.56748 23.02189, 72.56769 23.02193, 72.5681 23.022, 72.56843 23.02201, 72.56985 23.02208, 72.57018 23.02213, 72.57066 23.02219, 72.57066 23.02219, 72.57078 23.0222, 72.57088 23.02226, 72.57105 23.02232, 72.57128 23.02247, 72.57125 23.02299, 72.57124 23.02334, 72.57126 23.02409, 72.57126 23.02409, 72.57125 23.025, 72.57123 23.025, 72.57115 23.02616, 72.57111 23.02667, 72.57251 23.02678, 72.57841 23.02725, 72.57865 23.02727, 72.57869 23.02727, 72.58005 23.02736, 72.58111 23.02732, 72.5813 23.02725, 72.58135 23.02722, 72.58136 23.02709, 72.5814 23.02643, 72.58107 23.0264, 72.58082 23.02643, 72.58059 23.02624, 72.58062 23.02571, 72.58064 23.02532, 72.58064 23.02532, 72.58064 23.02493, 72.58062 23.02472, 72.58065 23.0245, 72.58064 23.02448, 72.58054 23.02425, 72.58044 23.02405, 72.58038 23.02398, 72.58018 23.02386, 72.5797 23.02365, 72.57949 23.02352, 72.57923 23.02351, 72.57914 23.02354, 72.57906 23.0237, 72.57906 23.02401, 72.57904 23.02434, 72.57864 23.02437, 72.57827 23.02436, 72.57802 23.02438, 72.57798 23.02441, 72.57795 23.0245, 72.57792 23.02493, 72.5779 23.02502, 72.5781 23.02502, 72.57818 23.02502)"
  },
  {
    "stopName": "Gandhigram Railway Station",
    "stopCode": 1074,
    "stationCode": 1522,
    "stopType": "MUNICIPAL_BUS",
    "shortStopName": null,
    "Position": {
      "stopLongitude": "72.571216",
      "stopLatitude": "23.024998"
    },
    "RouteCodes": null,
    "Sequence": 61,
    "routeFlow": null
  },
  {
    "stopName": "Sardarbag",
    "stopCode": 1075,
    "stationCode": 2611,
    "stopType": "MUNICIPAL_BUS",
    "shortStopName": null,
    "Position": {
      "stopLongitude": "72.578645",
      "stopLatitude": "23.027351"
    },
    "RouteCodes": null,
    "Sequence": 62,
    "routeFlow": null
  },
  {
    "stopName": "Apna Bazar",
    "stopCode": 1076,
    "stationCode": 1150,
    "stopType": "MUNICIPAL_BUS",
    "shortStopName": null,
    "Position": {
      "stopLongitude": "72.580705",
      "stopLatitude": "23.025321"
    },
    "RouteCodes": null,
    "Sequence": 63,
    "routeFlow": null
  },
  {
    "stopName": "Lal Darwaja",
    "stopCode": 1077,
    "stationCode": 1961,
    "stopType": "MUNICIPAL_BUS",
    "shortStopName": null,
    "Position": {
      "stopLongitude": "72.578186",
      "stopLatitude": "23.025053"
    },
    "RouteCodes": null,
    "Sequence": 64,
    "routeFlow": null
  },
  {
    "stopName": "Dada Sahebna Pagala",
    "stopCode": 1221,
    "stationCode": 1413,
    "stopType": "MUNICIPAL_BUS",
    "shortStopName": null,
    "Position": {
      "stopLongitude": "72.54884",
      "stopLatitude": "23.03944"
    },
    "RouteCodes": null,
    "Sequence": 45,
    "routeFlow": null
  },
  {
    "stopName": "Gujarat University",
    "stopCode": 1222,
    "stationCode": 1625,
    "stopType": "MUNICIPAL_BUS",
    "shortStopName": null,
    "Position": {
      "stopLongitude": "72.549028",
      "stopLatitude": "23.034608"
    },
    "RouteCodes": null,
    "Sequence": 46,
    "routeFlow": null
  },
  {
    "stopName": "Raja Palace (Chakshu Bank)",
    "stopCode": 1690,
    "stationCode": 2439,
    "stopType": "MUNICIPAL_BUS",
    "shortStopName": null,
    "Position": {
      "stopLongitude": "72.519635",
      "stopLatitude": "23.056158"
    },
    "RouteCodes": null,
    "Sequence": 31,
    "routeFlow": null
  },
  {
    "stopName": "Vinay Vidya Mandir",
    "stopCode": 1691,
    "stationCode": 3051,
    "stopType": "MUNICIPAL_BUS",
    "shortStopName": null,
    "Position": {
      "stopLongitude": "72.518773",
      "stopLatitude": "23.053188"
    },
    "RouteCodes": null,
    "Sequence": 32,
    "routeFlow": null
  },
  {
    "stopName": "Law College",
    "stopCode": 2670,
    "stationCode": 1967,
    "stopType": "MUNICIPAL_BUS",
    "shortStopName": null,
    "Position": {
      "stopLongitude": "72.559796",
      "stopLatitude": "23.023426"
    },
    "RouteCodes": null,
    "Sequence": 55,
    "routeFlow": null
  },
  {
    "stopName": "University Granth Nirman Board",
    "stopCode": 2671,
    "stationCode": 2973,
    "stopType": "MUNICIPAL_BUS",
    "shortStopName": null,
    "Position": {
      "stopLongitude": "72.560603",
      "stopLatitude": "23.02066"
    },
    "RouteCodes": null,
    "Sequence": 56,
    "routeFlow": null
  },
  {
    "stopName": "Hope Nuro Care Hospital",
    "stopCode": 2672,
    "stationCode": 1691,
    "stopType": "MUNICIPAL_BUS",
    "shortStopName": null,
    "Position": {
      "stopLongitude": "72.564141",
      "stopLatitude": "23.020933"
    },
    "RouteCodes": null,
    "Sequence": 57,
    "routeFlow": null
  },
  {
    "stopName": "Gujarat College",
    "stopCode": 2673,
    "stationCode": 1614,
    "stopType": "MUNICIPAL_BUS",
    "shortStopName": null,
    "Position": {
      "stopLongitude": "72.566376",
      "stopLatitude": "23.021593"
    },
    "RouteCodes": null,
    "Sequence": 58,
    "routeFlow": null
  },
  {
    "stopName": "Madalpur (Town Hall)",
    "stopCode": 2674,
    "stationCode": 1982,
    "stopType": "MUNICIPAL_BUS",
    "shortStopName": null,
    "Position": {
      "stopLongitude": "72.570651",
      "stopLatitude": "23.022258"
    },
    "RouteCodes": null,
    "Sequence": 59,
    "routeFlow": null
  },
  {
    "stopName": "Kesarsal Medical College",
    "stopCode": 2823,
    "stationCode": 1873,
    "stopType": "MUNICIPAL_BUS",
    "shortStopName": null,
    "Position": {
      "stopLongitude": "72.495441",
      "stopLatitude": "23.082846"
    },
    "RouteCodes": null,
    "Sequence": 20,
    "routeFlow": null
  },
  {
    "stopName": "Science City",
    "stopCode": 2824,
    "stationCode": 2668,
    "stopType": "MUNICIPAL_BUS",
    "shortStopName": null,
    "Position": {
      "stopLongitude": "72.499523",
      "stopLatitude": "23.080503"
    },
    "RouteCodes": null,
    "Sequence": 21,
    "routeFlow": null
  },
  {
    "stopName": "Sahajanand Bunglows (Science City)",
    "stopCode": 2853,
    "stationCode": 2540,
    "stopType": "MUNICIPAL_BUS",
    "shortStopName": null,
    "Position": {
      "stopLongitude": "72.50779",
      "stopLatitude": "23.07644"
    },
    "RouteCodes": null,
    "Sequence": 23,
    "routeFlow": null
  },
  {
    "stopName": "Satyam Complex",
    "stopCode": 2854,
    "stationCode": 2656,
    "stopType": "MUNICIPAL_BUS",
    "shortStopName": null,
    "Position": {
      "stopLongitude": "72.511821",
      "stopLatitude": "23.074425"
    },
    "RouteCodes": null,
    "Sequence": 24,
    "routeFlow": null
  },
  {
    "stopName": "Sola Gam Cross Road",
    "stopCode": 2855,
    "stationCode": 2819,
    "stopType": "MUNICIPAL_BUS",
    "shortStopName": null,
    "Position": {
      "stopLongitude": "72.515166",
      "stopLatitude": "23.072828"
    },
    "RouteCodes": null,
    "Sequence": 25,
    "routeFlow": null
  },
  {
    "stopName": "Muktidham jain derasar",
    "stopCode": 3019,
    "stationCode": 2110,
    "stopType": "MUNICIPAL_BUS",
    "shortStopName": null,
    "Position": {
      "stopLongitude": "72.518061",
      "stopLatitude": "23.049926"
    },
    "RouteCodes": null,
    "Sequence": 33,
    "routeFlow": null
  },
  {
    "stopName": "Shantinath Mahadev (Jay Ambenagar)",
    "stopCode": 3020,
    "stationCode": 2700,
    "stopType": "MUNICIPAL_BUS",
    "shortStopName": null,
    "Position": {
      "stopLongitude": "72.52116",
      "stopLatitude": "23.04929"
    },
    "RouteCodes": null,
    "Sequence": 34,
    "routeFlow": null
  },
  {
    "stopName": "Telephone Training Centre (Ambawadi)",
    "stopCode": 3021,
    "stationCode": 2931,
    "stopType": "MUNICIPAL_BUS",
    "shortStopName": null,
    "Position": {
      "stopLongitude": "72.52522",
      "stopLatitude": "23.048123"
    },
    "RouteCodes": null,
    "Sequence": 36,
    "routeFlow": null
  },
  {
    "stopName": "Drive In Cinema",
    "stopCode": 3022,
    "stationCode": 1475,
    "stopType": "MUNICIPAL_BUS",
    "shortStopName": null,
    "Position": {
      "stopLongitude": "72.528346",
      "stopLatitude": "23.047058"
    },
    "RouteCodes": null,
    "Sequence": 37,
    "routeFlow": null
  },
  {
    "stopName": "Indraprasth Tower",
    "stopCode": 3023,
    "stationCode": 1719,
    "stopType": "MUNICIPAL_BUS",
    "shortStopName": null,
    "Position": {
      "stopLongitude": "72.531761",
      "stopLatitude": "23.046106"
    },
    "RouteCodes": null,
    "Sequence": 38,
    "routeFlow": null
  },
  {
    "stopName": "Kailasnagar",
    "stopCode": 3031,
    "stationCode": 1823,
    "stopType": "MUNICIPAL_BUS",
    "shortStopName": null,
    "Position": {
      "stopLongitude": "72.5427",
      "stopLatitude": "23.045131"
    },
    "RouteCodes": null,
    "Sequence": 42,
    "routeFlow": null
  },
  {
    "stopName": "Saurabh Society",
    "stopCode": 3032,
    "stationCode": 2661,
    "stopType": "MUNICIPAL_BUS",
    "shortStopName": null,
    "Position": {
      "stopLongitude": "72.545753",
      "stopLatitude": "23.044628"
    },
    "RouteCodes": null,
    "Sequence": 43,
    "routeFlow": null
  },
  {
    "stopName": "Gurukul",
    "stopCode": 3248,
    "stationCode": 1640,
    "stopType": "MUNICIPAL_BUS",
    "shortStopName": null,
    "Position": {
      "stopLongitude": "72.534668",
      "stopLatitude": "23.045993"
    },
    "RouteCodes": null,
    "Sequence": 39,
    "routeFlow": null
  },
  {
    "stopName": "Niranjan Society",
    "stopCode": 3249,
    "stationCode": 2231,
    "stopType": "MUNICIPAL_BUS",
    "shortStopName": null,
    "Position": {
      "stopLongitude": "72.536783",
      "stopLatitude": "23.045983"
    },
    "RouteCodes": null,
    "Sequence": 40,
    "routeFlow": null
  },
  {
    "stopName": "Manav Mandir",
    "stopCode": 3250,
    "stationCode": 2023,
    "stopType": "MUNICIPAL_BUS",
    "shortStopName": null,
    "Position": {
      "stopLongitude": "72.539385",
      "stopLatitude": "23.045961"
    },
    "RouteCodes": null,
    "Sequence": 41,
    "routeFlow": null
  },
  {
    "stopName": "P.W.D. Workshop",
    "stopCode": 3397,
    "stationCode": 2277,
    "stopType": "MUNICIPAL_BUS",
    "shortStopName": null,
    "Position": {
      "stopLongitude": "72.550206",
      "stopLatitude": "23.033013"
    },
    "RouteCodes": null,
    "Sequence": 47,
    "routeFlow": null
  },
  {
    "stopName": "Lal Bangla (Cg Road)",
    "stopCode": 3708,
    "stationCode": 1959,
    "stopType": "MUNICIPAL_BUS",
    "shortStopName": null,
    "Position": {
      "stopLongitude": "72.557883",
      "stopLatitude": "23.028221"
    },
    "RouteCodes": null,
    "Sequence": 52,
    "routeFlow": null
  },
  {
    "stopName": "Patel Society",
    "stopCode": 3709,
    "stationCode": 2325,
    "stopType": "MUNICIPAL_BUS",
    "shortStopName": null,
    "Position": {
      "stopLongitude": "72.556503",
      "stopLatitude": "23.025641"
    },
    "RouteCodes": null,
    "Sequence": 53,
    "routeFlow": null
  },
  {
    "stopName": "Panchvati",
    "stopCode": 3710,
    "stationCode": 2294,
    "stopType": "MUNICIPAL_BUS",
    "shortStopName": null,
    "Position": {
      "stopLongitude": "72.556131",
      "stopLatitude": "23.023242"
    },
    "RouteCodes": null,
    "Sequence": 54,
    "routeFlow": null
  },
  {
    "stopName": "Arvind Polycoat (Khatraj)",
    "stopCode": 3769,
    "stationCode": 1166,
    "stopType": "MUNICIPAL_BUS",
    "shortStopName": null,
    "Position": {
      "stopLongitude": "72.447275",
      "stopLatitude": "23.14738"
    },
    "RouteCodes": null,
    "Sequence": 1,
    "routeFlow": null
  },
  {
    "stopName": "Khatraj Chokdi",
    "stopCode": 3770,
    "stationCode": 1884,
    "stopType": "MUNICIPAL_BUS",
    "shortStopName": null,
    "Position": {
      "stopLongitude": "72.444275",
      "stopLatitude": "23.147173"
    },
    "RouteCodes": null,
    "Sequence": 2,
    "routeFlow": null
  },
  {
    "stopName": "Cheharnagar",
    "stopCode": 3771,
    "stationCode": 1373,
    "stopType": "MUNICIPAL_BUS",
    "shortStopName": null,
    "Position": {
      "stopLongitude": "72.443763",
      "stopLatitude": "23.141991"
    },
    "RouteCodes": null,
    "Sequence": 3,
    "routeFlow": null
  },
  {
    "stopName": "Khatraj Gam",
    "stopCode": 3772,
    "stationCode": 1885,
    "stopType": "MUNICIPAL_BUS",
    "shortStopName": null,
    "Position": {
      "stopLongitude": "72.444035",
      "stopLatitude": "23.137131"
    },
    "RouteCodes": null,
    "Sequence": 4,
    "routeFlow": null
  },
  {
    "stopName": "R.Con Engg.",
    "stopCode": 3773,
    "stationCode": 2406,
    "stopType": "MUNICIPAL_BUS",
    "shortStopName": null,
    "Position": {
      "stopLongitude": "72.454023",
      "stopLatitude": "23.127845"
    },
    "RouteCodes": null,
    "Sequence": 5,
    "routeFlow": null
  },
  {
    "stopName": "Shah Metal Ind.",
    "stopCode": 3774,
    "stationCode": 2677,
    "stopType": "MUNICIPAL_BUS",
    "shortStopName": null,
    "Position": {
      "stopLongitude": "72.456093",
      "stopLatitude": "23.125871"
    },
    "RouteCodes": null,
    "Sequence": 6,
    "routeFlow": null
  },
  {
    "stopName": "Gujarat Vidyut Board (Santej)",
    "stopCode": 3775,
    "stationCode": 1628,
    "stopType": "MUNICIPAL_BUS",
    "shortStopName": null,
    "Position": {
      "stopLongitude": "72.458058",
      "stopLatitude": "23.123975"
    },
    "RouteCodes": null,
    "Sequence": 7,
    "routeFlow": null
  },
  {
    "stopName": "Dhara estate",
    "stopCode": 3776,
    "stationCode": 1459,
    "stopType": "MUNICIPAL_BUS",
    "shortStopName": null,
    "Position": {
      "stopLongitude": "72.461783",
      "stopLatitude": "23.11927"
    },
    "RouteCodes": null,
    "Sequence": 9,
    "routeFlow": null
  },
  {
    "stopName": "Goga Maharajnu Mandir",
    "stopCode": 3777,
    "stationCode": 1565,
    "stopType": "MUNICIPAL_BUS",
    "shortStopName": null,
    "Position": {
      "stopLongitude": "72.464273",
      "stopLatitude": "23.115845"
    },
    "RouteCodes": null,
    "Sequence": 10,
    "routeFlow": null
  },
  {
    "stopName": "Shah Alloys Factory",
    "stopCode": 3778,
    "stationCode": 2676,
    "stopType": "MUNICIPAL_BUS",
    "shortStopName": null,
    "Position": {
      "stopLongitude": "72.467768",
      "stopLatitude": "23.110988"
    },
    "RouteCodes": null,
    "Sequence": 11,
    "routeFlow": null
  },
  {
    "stopName": "Santej (Shah Alloys)",
    "stopCode": 3779,
    "stationCode": 2584,
    "stopType": "MUNICIPAL_BUS",
    "shortStopName": null,
    "Position": {
      "stopLongitude": "72.469131",
      "stopLatitude": "23.109453"
    },
    "RouteCodes": null,
    "Sequence": 12,
    "routeFlow": null
  },
  {
    "stopName": "Santej Tiles",
    "stopCode": 3780,
    "stationCode": 2586,
    "stopType": "MUNICIPAL_BUS",
    "shortStopName": null,
    "Position": {
      "stopLongitude": "72.472336",
      "stopLatitude": "23.105801"
    },
    "RouteCodes": null,
    "Sequence": 13,
    "routeFlow": null
  },
  {
    "stopName": "Kothari Char Rasta",
    "stopCode": 3781,
    "stationCode": 1908,
    "stopType": "MUNICIPAL_BUS",
    "shortStopName": null,
    "Position": {
      "stopLongitude": "72.47558",
      "stopLatitude": "23.103551"
    },
    "RouteCodes": null,
    "Sequence": 14,
    "routeFlow": null
  },
  {
    "stopName": "Pramukh Estate (Rellis Pharma.)",
    "stopCode": 3782,
    "stationCode": 2370,
    "stopType": "MUNICIPAL_BUS",
    "shortStopName": null,
    "Position": {
      "stopLongitude": "72.479041",
      "stopLatitude": "23.101831"
    },
    "RouteCodes": null,
    "Sequence": 15,
    "routeFlow": null
  },
  {
    "stopName": "Rakanpur Char Rasta",
    "stopCode": 3783,
    "stationCode": 2457,
    "stopType": "MUNICIPAL_BUS",
    "shortStopName": null,
    "Position": {
      "stopLongitude": "72.481753",
      "stopLatitude": "23.100398"
    },
    "RouteCodes": null,
    "Sequence": 16,
    "routeFlow": null
  },
  {
    "stopName": "Sarthi Pharma.",
    "stopCode": 3784,
    "stationCode": 2639,
    "stopType": "MUNICIPAL_BUS",
    "shortStopName": null,
    "Position": {
      "stopLongitude": "72.484396",
      "stopLatitude": "23.098846"
    },
    "RouteCodes": null,
    "Sequence": 17,
    "routeFlow": null
  },
  {
    "stopName": "Bhadaj Gam",
    "stopCode": 3785,
    "stationCode": 1259,
    "stopType": "MUNICIPAL_BUS",
    "shortStopName": null,
    "Position": {
      "stopLongitude": "72.48579",
      "stopLatitude": "23.086746"
    },
    "RouteCodes": null,
    "Sequence": 18,
    "routeFlow": null
  },
  {
    "stopName": "S.P.Ring Road (Paghadi Sheth Farm)",
    "stopCode": 3786,
    "stationCode": 2281,
    "stopType": "MUNICIPAL_BUS",
    "shortStopName": null,
    "Position": {
      "stopLongitude": "72.491888",
      "stopLatitude": "23.084665"
    },
    "RouteCodes": null,
    "Sequence": 19,
    "routeFlow": null
  },
  {
    "stopName": "Suchita Apartment (Vijay Char Rasta)",
    "stopCode": 3855,
    "stationCode": 2852,
    "stopType": "MUNICIPAL_BUS",
    "shortStopName": null,
    "Position": {
      "stopLongitude": "72.547983",
      "stopLatitude": "23.04356"
    },
    "RouteCodes": null,
    "Sequence": 44,
    "routeFlow": null
  },
  {
    "stopName": "St. Xaviers College",
    "stopCode": 3856,
    "stationCode": 2838,
    "stopType": "MUNICIPAL_BUS",
    "shortStopName": null,
    "Position": {
      "stopLongitude": "72.55154",
      "stopLatitude": "23.033201"
    },
    "RouteCodes": null,
    "Sequence": 48,
    "routeFlow": null
  },
  {
    "stopName": "St. Xaviers Corner",
    "stopCode": 3857,
    "stationCode": 2839,
    "stopType": "MUNICIPAL_BUS",
    "shortStopName": null,
    "Position": {
      "stopLongitude": "72.555076",
      "stopLatitude": "23.033373"
    },
    "RouteCodes": null,
    "Sequence": 49,
    "routeFlow": null
  },
  {
    "stopName": "Rajhans Society",
    "stopCode": 3858,
    "stationCode": 2447,
    "stopType": "MUNICIPAL_BUS",
    "shortStopName": null,
    "Position": {
      "stopLongitude": "72.555115",
      "stopLatitude": "23.03145"
    },
    "RouteCodes": null,
    "Sequence": 50,
    "routeFlow": null
  },
  {
    "stopName": "Municipal Quarters (Cg Road)",
    "stopCode": 3859,
    "stationCode": 2125,
    "stopType": "MUNICIPAL_BUS",
    "shortStopName": null,
    "Position": {
      "stopLongitude": "72.555658",
      "stopLatitude": "23.029328"
    },
    "RouteCodes": null,
    "Sequence": 51,
    "routeFlow": null
  },
  {
    "stopName": "Suvarna Bunglows",
    "stopCode": 4995,
    "stationCode": 2883,
    "stopType": "MUNICIPAL_BUS",
    "shortStopName": null,
    "Position": {
      "stopLongitude": "72.514838",
      "stopLatitude": "23.059399"
    },
    "RouteCodes": null,
    "Sequence": 29,
    "routeFlow": null
  },
  {
    "stopName": "Ganesh Corporate House",
    "stopCode": 4996,
    "stationCode": 1524,
    "stopType": "MUNICIPAL_BUS",
    "shortStopName": null,
    "Position": {
      "stopLongitude": "72.516858",
      "stopLatitude": "23.05928"
    },
    "RouteCodes": null,
    "Sequence": 30,
    "routeFlow": null
  },
  {
    "stopName": "Sardar Patel Institute",
    "stopCode": 5470,
    "stationCode": 2605,
    "stopType": "MUNICIPAL_BUS",
    "shortStopName": null,
    "Position": {
      "stopLongitude": "72.52378",
      "stopLatitude": "23.04838"
    },
    "RouteCodes": null,
    "Sequence": 35,
    "routeFlow": null
  },
  {
    "stopName": "Texell Industry",
    "stopCode": 5508,
    "stationCode": 2933,
    "stopType": "MUNICIPAL_BUS",
    "shortStopName": null,
    "Position": {
      "stopLongitude": "72.460693",
      "stopLatitude": "23.121015"
    },
    "RouteCodes": null,
    "Sequence": 8,
    "routeFlow": null
  },
  {
    "stopName": "Ugati Lakeview",
    "stopCode": 5710,
    "stationCode": 5072,
    "stopType": "MUNICIPAL_BUS",
    "shortStopName": null,
    "Position": {
      "stopLongitude": "72.502758",
      "stopLatitude": "23.07888"
    },
    "RouteCodes": null,
    "Sequence": 22,
    "routeFlow": null
  },
  {
    "stopName": "CIMS Hospital",
    "stopCode": 6382,
    "stationCode": 7133,
    "stopType": "MUNICIPAL_BUS",
    "shortStopName": null,
    "Position": {
      "stopLongitude": "72.516676",
      "stopLatitude": "23.070295"
    },
    "RouteCodes": null,
    "Sequence": 26,
    "routeFlow": null
  },
  {
    "stopName": "Shital Park",
    "stopCode": 6384,
    "stationCode": 7134,
    "stopType": "MUNICIPAL_BUS",
    "shortStopName": null,
    "Position": {
      "stopLongitude": "72.516302",
      "stopLatitude": "23.068946"
    },
    "RouteCodes": null,
    "Sequence": 27,
    "routeFlow": null
  },
  {
    "stopName": "Anurag Bunglows",
    "stopCode": 6386,
    "stationCode": 7135,
    "stopType": "MUNICIPAL_BUS",
    "shortStopName": null,
    "Position": {
      "stopLongitude": "72.515809",
      "stopLatitude": "23.06668"
    },
    "RouteCodes": null,
    "Sequence": 28,
    "routeFlow": null
  }
]