[
  {
    "stopName": "Sardarbag",
    "stopCode": 1075,
    "stationCode": 2611,
    "stopType": "MUNICIPAL_BUS",
    "shortStopName": null,
    "Position": {
      "stopLongitude": "72.578645",
      "stopLatitude": "23.027351"
    },
    "RouteCodes": null,
    "Sequence": 29,
    "routeFlow": "LINESTRING (72.51654 23.04972, 72.51545 23.0496, 72.51515 23.04961, 72.51505 23.04967, 72.51504 23.0497, 72.51502 23.04979, 72.5149 23.0498, 72.51438 23.04996, 72.51425 23.04999, 72.51403 23.05, 72.51368 23.05, 72.5125 23.0501, 72.51201 23.05007, 72.51157 23.05007, 72.51157 23.05007, 72.51122 23.05012, 72.5109 23.0502, 72.51045 23.05039, 72.51027 23.05043, 72.50998 23.05039, 72.50973 23.05038, 72.50934 23.05037, 72.5089 23.05038, 72.50843 23.0504, 72.50821 23.05044, 72.50814 23.05042, 72.508 23.05041, 72.50801 23.05075, 72.50806 23.05218, 72.50807 23.05244, 72.50804 23.0528, 72.50802 23.05302, 72.50798 23.05323, 72.50785 23.05357, 72.50763 23.05389, 72.50749 23.05407, 72.50749 23.05407, 72.50688 23.05488, 72.50667 23.05512, 72.50624 23.05571, 72.50605 23.05593, 72.50597 23.056, 72.50609 23.05605, 72.50614 23.05607, 72.50614 23.05607, 72.50662 23.05624, 72.50737 23.05655, 72.50868 23.05707, 72.50939 23.05739, 72.50953 23.05747, 72.50986 23.05761, 72.51069 23.05794, 72.51069 23.05794, 72.51201 23.05847, 72.51334 23.05903, 72.51406 23.05926, 72.51435 23.05934, 72.51484 23.05945, 72.51486 23.05941, 72.51486 23.05941, 72.51484 23.05945, 72.51503 23.05946, 72.51541 23.05949, 72.51566 23.05948, 72.51607 23.05943, 72.51686 23.05927, 72.51686 23.05928, 72.51851 23.05892, 72.5196 23.05867, 72.51985 23.0586, 72.52011 23.05854, 72.52023 23.0585, 72.52019 23.05837, 72.51957 23.05617, 72.51957 23.05617, 72.51871 23.0532, 72.51871 23.0532, 72.51843 23.05225, 72.51813 23.05136, 72.51781 23.05054, 72.5176 23.04991, 72.51769 23.04992, 72.51806 23.04991, 72.51806 23.04988, 72.5189 23.04984, 72.51982 23.04969, 72.52038 23.04952, 72.5206 23.04943, 72.52113 23.04923, 72.52113 23.04923, 72.52261 23.04867, 72.52325 23.04848, 72.52366 23.04837, 72.52377 23.04835, 72.52377 23.04835, 72.52521 23.04808, 72.52521 23.04808, 72.52619 23.04786, 72.52677 23.0477, 72.52728 23.04754, 72.52781 23.04728, 72.52831 23.047, 72.52831 23.047, 72.52914 23.04648, 72.52951 23.04633, 72.52979 23.04626, 72.53032 23.04617, 72.53173 23.04603, 72.53175 23.04603, 72.53175 23.04603, 72.53217 23.04597, 72.53285 23.04592, 72.53315 23.04592, 72.53467 23.04593, 72.53467 23.04596, 72.53678 23.04598, 72.53678 23.04598, 72.53723 23.04598, 72.53759 23.04599, 72.53863 23.04596, 72.53938 23.04594, 72.53938 23.04587, 72.54013 23.04587, 72.54014 23.04588, 72.54018 23.0459, 72.54025 23.04589, 72.5403 23.04584, 72.54058 23.0458, 72.54075 23.04575, 72.54142 23.04547, 72.54172 23.04537, 72.54261 23.04508, 72.54268 23.04506, 72.54268 23.04506, 72.54423 23.04476, 72.54485 23.04468, 72.54543 23.04463, 72.54555 23.04461, 72.54574 23.04458, 72.54574 23.04458, 72.54619 23.04447, 72.54643 23.04438, 72.54698 23.04412, 72.54742 23.04388, 72.54919 23.04268, 72.5499 23.04229, 72.55043 23.04203, 72.55043 23.04203, 72.55128 23.04167, 72.5522 23.04124, 72.55301 23.04079, 72.5534 23.04055, 72.55382 23.04028, 72.55413 23.04007, 72.55428 23.03998, 72.55453 23.03986, 72.5547 23.03985, 72.55473 23.03987, 72.55478 23.0399, 72.55488 23.03991, 72.55498 23.03987, 72.55504 23.03978, 72.55504 23.03966, 72.555 23.03961, 72.55514 23.03927, 72.55525 23.03908, 72.55551 23.03894, 72.55579 23.03889, 72.55612 23.03883, 72.55612 23.03883, 72.5566 23.03871, 72.55694 23.03857, 72.55728 23.0384, 72.55776 23.03813, 72.55776 23.03813, 72.55893 23.03755, 72.55993 23.0371, 72.56066 23.0368, 72.56066 23.0368, 72.56123 23.03657, 72.563733 23.035522, 72.56387 23.03555, 72.56409 23.03551, 72.56418 23.03548, 72.56418 23.03548, 72.56445 23.03537, 72.56452 23.03534, 72.5645 23.03524, 72.56447 23.03515, 72.56423 23.03458, 72.56417 23.03436, 72.56409 23.03407, 72.56402 23.03378, 72.56396 23.03309, 72.56396 23.03266, 72.56398 23.03239, 72.56408 23.03182, 72.56409 23.03176, 72.56409 23.03176, 72.56416 23.03157, 72.5642 23.03134, 72.56422 23.03133, 72.56427 23.03129, 72.5643 23.03124, 72.56431 23.03106, 72.56432 23.03103, 72.56441 23.03096, 72.56452 23.03089, 72.56475 23.03083, 72.56497 23.0308, 72.56518 23.03079, 72.56546 23.03072, 72.56579 23.03069, 72.56592 23.03068, 72.56683 23.03069, 72.56721 23.03075, 72.56719 23.03067, 72.5672 23.02992, 72.56719 23.02979, 72.56704 23.02947, 72.56695 23.02946, 72.56696 23.0295, 72.56706 23.02953, 72.56717 23.02973, 72.56719 23.02981, 72.5672 23.02999, 72.56719 23.03067, 72.56721 23.03075, 72.56781 23.03086, 72.56846 23.03105, 72.56878 23.03108, 72.56932 23.03105, 72.57024 23.03083, 72.57066 23.03073, 72.57064 23.0306, 72.57056 23.0298, 72.57057 23.02946, 72.57083 23.02868, 72.57083 23.02868, 72.57102 23.02809, 72.57111 23.02766, 72.57116 23.02732, 72.57121 23.02694, 72.57123 23.02668, 72.57251 23.02678, 72.57808 23.02722, 72.57841 23.02725, 72.57865 23.02727, 72.57869 23.02727, 72.58005 23.02736, 72.58111 23.02732, 72.5813 23.02725, 72.58135 23.02722, 72.58136 23.02709, 72.5814 23.02643, 72.58107 23.0264, 72.58082 23.02643, 72.58059 23.02624, 72.58062 23.02571, 72.58064 23.02532, 72.58064 23.02532, 72.58064 23.02493, 72.58062 23.02472, 72.58065 23.0245, 72.58064 23.02448, 72.58054 23.02425, 72.58044 23.02405, 72.58038 23.02398, 72.58018 23.02386, 72.5797 23.02365, 72.57949 23.02352, 72.57923 23.02351, 72.57914 23.02354, 72.57906 23.0237, 72.57906 23.02401, 72.57904 23.02434, 72.57864 23.02437, 72.57827 23.02436, 72.57826 23.02447)"
  },
  {
    "stopName": "Apna Bazar",
    "stopCode": 1076,
    "stationCode": 1150,
    "stopType": "MUNICIPAL_BUS",
    "shortStopName": null,
    "Position": {
      "stopLongitude": "72.580705",
      "stopLatitude": "23.025321"
    },
    "RouteCodes": null,
    "Sequence": 30,
    "routeFlow": null
  },
  {
    "stopName": "Commerce College",
    "stopCode": 1107,
    "stationCode": 1402,
    "stopType": "MUNICIPAL_BUS",
    "shortStopName": null,
    "Position": {
      "stopLongitude": "72.556131",
      "stopLatitude": "23.038873"
    },
    "RouteCodes": null,
    "Sequence": 22,
    "routeFlow": null
  },
  {
    "stopName": "Commerce College Hostel",
    "stopCode": 1108,
    "stationCode": 1403,
    "stopType": "MUNICIPAL_BUS",
    "shortStopName": null,
    "Position": {
      "stopLongitude": "72.55777",
      "stopLatitude": "23.038141"
    },
    "RouteCodes": null,
    "Sequence": 23,
    "routeFlow": null
  },
  {
    "stopName": "Swastik Society",
    "stopCode": 1109,
    "stationCode": 2903,
    "stopType": "MUNICIPAL_BUS",
    "shortStopName": null,
    "Position": {
      "stopLongitude": "72.560678",
      "stopLatitude": "23.036845"
    },
    "RouteCodes": null,
    "Sequence": 24,
    "routeFlow": null
  },
  {
    "stopName": "Navarangpura",
    "stopCode": 1150,
    "stationCode": 2189,
    "stopType": "MUNICIPAL_BUS",
    "shortStopName": null,
    "Position": {
      "stopLongitude": "72.564193",
      "stopLatitude": "23.03552"
    },
    "RouteCodes": null,
    "Sequence": 25,
    "routeFlow": null
  },
  {
    "stopName": "Raja Palace (Chakshu Bank)",
    "stopCode": 1690,
    "stationCode": 2439,
    "stopType": "MUNICIPAL_BUS",
    "shortStopName": null,
    "Position": {
      "stopLongitude": "72.519635",
      "stopLatitude": "23.056158"
    },
    "RouteCodes": null,
    "Sequence": 8,
    "routeFlow": null
  },
  {
    "stopName": "Vinay Vidya Mandir",
    "stopCode": 1691,
    "stationCode": 3051,
    "stopType": "MUNICIPAL_BUS",
    "shortStopName": null,
    "Position": {
      "stopLongitude": "72.518773",
      "stopLatitude": "23.053188"
    },
    "RouteCodes": null,
    "Sequence": 9,
    "routeFlow": null
  },
  {
    "stopName": "Nataraj Cinema",
    "stopCode": 2221,
    "stationCode": 2182,
    "stopType": "MUNICIPAL_BUS",
    "shortStopName": null,
    "Position": {
      "stopLongitude": "72.570805",
      "stopLatitude": "23.028671"
    },
    "RouteCodes": null,
    "Sequence": 28,
    "routeFlow": null
  },
  {
    "stopName": "Lal Darwaja",
    "stopCode": 2222,
    "stationCode": 1961,
    "stopType": "MUNICIPAL_BUS",
    "shortStopName": null,
    "Position": {
      "stopLongitude": "72.57822",
      "stopLatitude": "23.024464"
    },
    "RouteCodes": null,
    "Sequence": 31,
    "routeFlow": null
  },
  {
    "stopName": "Shrimali Society",
    "stopCode": 2825,
    "stationCode": 2750,
    "stopType": "MUNICIPAL_BUS",
    "shortStopName": null,
    "Position": {
      "stopLongitude": "72.564168",
      "stopLatitude": "23.031773"
    },
    "RouteCodes": null,
    "Sequence": 26,
    "routeFlow": null
  },
  {
    "stopName": "Mithakhali",
    "stopCode": 2827,
    "stationCode": 2088,
    "stopType": "MUNICIPAL_BUS",
    "shortStopName": null,
    "Position": {
      "stopLongitude": "72.566931",
      "stopLatitude": "23.02957"
    },
    "RouteCodes": null,
    "Sequence": 27,
    "routeFlow": null
  },
  {
    "stopName": "Muktidham jain derasar",
    "stopCode": 3019,
    "stationCode": 2110,
    "stopType": "MUNICIPAL_BUS",
    "shortStopName": null,
    "Position": {
      "stopLongitude": "72.518061",
      "stopLatitude": "23.049926"
    },
    "RouteCodes": null,
    "Sequence": 10,
    "routeFlow": null
  },
  {
    "stopName": "Shantinath Mahadev (Jay Ambenagar)",
    "stopCode": 3020,
    "stationCode": 2700,
    "stopType": "MUNICIPAL_BUS",
    "shortStopName": null,
    "Position": {
      "stopLongitude": "72.52116",
      "stopLatitude": "23.04929"
    },
    "RouteCodes": null,
    "Sequence": 11,
    "routeFlow": null
  },
  {
    "stopName": "Telephone Training Centre (Ambawadi)",
    "stopCode": 3021,
    "stationCode": 2931,
    "stopType": "MUNICIPAL_BUS",
    "shortStopName": null,
    "Position": {
      "stopLongitude": "72.52522",
      "stopLatitude": "23.048123"
    },
    "RouteCodes": null,
    "Sequence": 13,
    "routeFlow": null
  },
  {
    "stopName": "Drive In Cinema",
    "stopCode": 3022,
    "stationCode": 1475,
    "stopType": "MUNICIPAL_BUS",
    "shortStopName": null,
    "Position": {
      "stopLongitude": "72.528346",
      "stopLatitude": "23.047058"
    },
    "RouteCodes": null,
    "Sequence": 14,
    "routeFlow": null
  },
  {
    "stopName": "Indraprasth Tower",
    "stopCode": 3023,
    "stationCode": 1719,
    "stopType": "MUNICIPAL_BUS",
    "shortStopName": null,
    "Position": {
      "stopLongitude": "72.531761",
      "stopLatitude": "23.046106"
    },
    "RouteCodes": null,
    "Sequence": 15,
    "routeFlow": null
  },
  {
    "stopName": "Kailasnagar",
    "stopCode": 3031,
    "stationCode": 1823,
    "stopType": "MUNICIPAL_BUS",
    "shortStopName": null,
    "Position": {
      "stopLongitude": "72.5427",
      "stopLatitude": "23.045131"
    },
    "RouteCodes": null,
    "Sequence": 19,
    "routeFlow": null
  },
  {
    "stopName": "Saurabh Society",
    "stopCode": 3032,
    "stationCode": 2661,
    "stopType": "MUNICIPAL_BUS",
    "shortStopName": null,
    "Position": {
      "stopLongitude": "72.545753",
      "stopLatitude": "23.044628"
    },
    "RouteCodes": null,
    "Sequence": 20,
    "routeFlow": null
  },
  {
    "stopName": "Gurukul",
    "stopCode": 3248,
    "stationCode": 1640,
    "stopType": "MUNICIPAL_BUS",
    "shortStopName": null,
    "Position": {
      "stopLongitude": "72.534668",
      "stopLatitude": "23.045993"
    },
    "RouteCodes": null,
    "Sequence": 16,
    "routeFlow": null
  },
  {
    "stopName": "Niranjan Society",
    "stopCode": 3249,
    "stationCode": 2231,
    "stopType": "MUNICIPAL_BUS",
    "shortStopName": null,
    "Position": {
      "stopLongitude": "72.536783",
      "stopLatitude": "23.045983"
    },
    "RouteCodes": null,
    "Sequence": 17,
    "routeFlow": null
  },
  {
    "stopName": "Manav Mandir",
    "stopCode": 3250,
    "stationCode": 2023,
    "stopType": "MUNICIPAL_BUS",
    "shortStopName": null,
    "Position": {
      "stopLongitude": "72.539385",
      "stopLatitude": "23.045961"
    },
    "RouteCodes": null,
    "Sequence": 18,
    "routeFlow": null
  },
  {
    "stopName": "Suchita Apartment (Vijay Char Rasta)",
    "stopCode": 3251,
    "stationCode": 2852,
    "stopType": "MUNICIPAL_BUS",
    "shortStopName": null,
    "Position": {
      "stopLongitude": "72.550451",
      "stopLatitude": "23.04208"
    },
    "RouteCodes": null,
    "Sequence": 21,
    "routeFlow": null
  },
  {
    "stopName": "Hebatpur Cross Road",
    "stopCode": 4993,
    "stationCode": 1675,
    "stopType": "MUNICIPAL_BUS",
    "shortStopName": null,
    "Position": {
      "stopLongitude": "72.506139",
      "stopLatitude": "23.056058"
    },
    "RouteCodes": null,
    "Sequence": 4,
    "routeFlow": null
  },
  {
    "stopName": "Ayna Complex",
    "stopCode": 4994,
    "stationCode": 1201,
    "stopType": "MUNICIPAL_BUS",
    "shortStopName": null,
    "Position": {
      "stopLongitude": "72.510676",
      "stopLatitude": "23.057966"
    },
    "RouteCodes": null,
    "Sequence": 5,
    "routeFlow": null
  },
  {
    "stopName": "Suvarna Bunglows",
    "stopCode": 4995,
    "stationCode": 2883,
    "stopType": "MUNICIPAL_BUS",
    "shortStopName": null,
    "Position": {
      "stopLongitude": "72.514838",
      "stopLatitude": "23.059399"
    },
    "RouteCodes": null,
    "Sequence": 6,
    "routeFlow": null
  },
  {
    "stopName": "Ganesh Corporate House",
    "stopCode": 4996,
    "stationCode": 1524,
    "stopType": "MUNICIPAL_BUS",
    "shortStopName": null,
    "Position": {
      "stopLongitude": "72.516858",
      "stopLatitude": "23.05928"
    },
    "RouteCodes": null,
    "Sequence": 7,
    "routeFlow": null
  },
  {
    "stopName": "Sardar Patel Institute",
    "stopCode": 5470,
    "stationCode": 2605,
    "stopType": "MUNICIPAL_BUS",
    "shortStopName": null,
    "Position": {
      "stopLongitude": "72.52378",
      "stopLatitude": "23.04838"
    },
    "RouteCodes": null,
    "Sequence": 12,
    "routeFlow": null
  },
  {
    "stopName": "Thaltej Metro Station",
    "stopCode": 6218,
    "stationCode": 7054,
    "stopType": "MUNICIPAL_BUS",
    "shortStopName": null,
    "Position": {
      "stopLongitude": "72.516542",
      "stopLatitude": "23.049708"
    },
    "RouteCodes": null,
    "Sequence": 1,
    "routeFlow": null
  },
  {
    "stopName": "Thaltej Gam",
    "stopCode": 6373,
    "stationCode": 7128,
    "stopType": "MUNICIPAL_BUS",
    "shortStopName": null,
    "Position": {
      "stopLongitude": "72.51157",
      "stopLatitude": "23.05002"
    },
    "RouteCodes": null,
    "Sequence": 2,
    "routeFlow": null
  },
  {
    "stopName": "Shree Naran Dham",
    "stopCode": 8799,
    "stationCode": 6147,
    "stopType": "MUNICIPAL_BUS",
    "shortStopName": null,
    "Position": {
      "stopLongitude": "72.507474",
      "stopLatitude": "23.05406"
    },
    "RouteCodes": null,
    "Sequence": 3,
    "routeFlow": null
  }
]