[
  {
    "stopName": "Apna Bazar",
    "stopCode": 1076,
    "stationCode": 1150,
    "stopType": "MUNICIPAL_BUS",
    "shortStopName": null,
    "Position": {
      "stopLongitude": "72.580705",
      "stopLatitude": "23.025321"
    },
    "RouteCodes": null,
    "Sequence": 63,
    "routeFlow": "LINESTRING (72.51421 23.14743, 72.5142 23.14729, 72.51445 23.14724, 72.51464 23.14721, 72.51483 23.1472, 72.51557 23.14724, 72.5172 23.14715, 72.51742 23.14707, 72.51757 23.14697, 72.51833 23.14639, 72.51845 23.14632, 72.51873 23.14621, 72.51953 23.14603, 72.51984 23.14598, 72.52015 23.14596, 72.52088 23.14595, 72.52127 23.14592, 72.52163 23.14583, 72.52209 23.14564, 72.52252 23.1455, 72.52255 23.14549, 72.52282 23.14542, 72.52331 23.14527, 72.52378 23.14517, 72.52423 23.1451, 72.52453 23.14508, 72.52462 23.14508, 72.52515 23.14519, 72.52601 23.14537, 72.52674 23.1454, 72.52701 23.1454, 72.52701 23.1454, 72.52725 23.1454, 72.52703 23.14646, 72.52673 23.14774, 72.52663 23.14804, 72.52603 23.1495, 72.52599 23.14976, 72.52519 23.15139, 72.52511 23.15154, 72.52511 23.15154, 72.52401 23.15399, 72.52387 23.15421, 72.52331 23.15482, 72.52317 23.15495, 72.52305 23.15508, 72.52271 23.15555, 72.52271 23.15555, 72.52262 23.15566, 72.52251 23.15587, 72.52239 23.15613, 72.52233 23.15632, 72.52232 23.15647, 72.52229 23.15653, 72.52224 23.15661, 72.52206 23.15681, 72.52164 23.1572, 72.52142 23.15741, 72.52127 23.15763, 72.52117 23.15782, 72.52109 23.15807, 72.52108 23.15831, 72.52113 23.15902, 72.52116 23.1598, 72.52116 23.1599, 72.52112 23.15999, 72.52106 23.16003, 72.52091 23.16011, 72.52072 23.16016, 72.52056 23.1602, 72.52056 23.1602, 72.52052 23.16022, 72.52048 23.16029, 72.52047 23.16048, 72.52045 23.1608, 72.52041 23.161, 72.52015 23.16162, 72.52002 23.16187, 72.5199 23.16204, 72.51972 23.16227, 72.51959 23.16241, 72.51954 23.16252, 72.51943 23.16283, 72.51937 23.16302, 72.51931 23.16316, 72.51915 23.16343, 72.51908 23.16353, 72.51908 23.16353, 72.51877 23.16391, 72.51858 23.1642, 72.51849 23.16439, 72.51844 23.16459, 72.51818 23.16556, 72.51805 23.16606, 72.51805 23.16606, 72.51798 23.16639, 72.51786 23.16643, 72.51771 23.16655, 72.51757 23.16669, 72.51743 23.16696, 72.5174 23.16706, 72.51733 23.16754, 72.51734 23.16764, 72.51734 23.16764, 72.51734 23.16739, 72.5174 23.16704, 72.51742 23.16694, 72.51751 23.16676, 72.51764 23.1666, 72.51777 23.16649, 72.51793 23.1664, 72.518 23.16638, 72.5181 23.1664, 72.51882 23.16668, 72.51921 23.16676, 72.51983 23.16686, 72.52051 23.16682, 72.52084 23.16677, 72.52111 23.1667, 72.52142 23.16646, 72.52206 23.16574, 72.52206 23.16574, 72.52233 23.16544, 72.52249 23.16535, 72.52382 23.1651, 72.52513 23.16503, 72.52585 23.16493, 72.52632 23.16488, 72.52719 23.16504, 72.52752 23.16506, 72.52826 23.16485, 72.52982 23.16436, 72.53095 23.16408, 72.53126 23.16395, 72.53134 23.16388, 72.53134 23.16388, 72.53139 23.1638, 72.53169 23.16304, 72.53186 23.16271, 72.53198 23.16255, 72.53258 23.16202, 72.53285 23.16174, 72.53318 23.16131, 72.53398 23.16025, 72.53413 23.16015, 72.53406 23.15992, 72.53401 23.15973, 72.53401 23.15973, 72.53382 23.15836, 72.53365 23.15713, 72.53365 23.15713, 72.53318 23.15352, 72.53319 23.1534, 72.53326 23.15321, 72.53342 23.15303, 72.53342 23.15303, 72.53428 23.15208, 72.53536 23.15076, 72.53654 23.14943, 72.53654 23.14943, 72.53884 23.14681, 72.53884 23.14681, 72.54035 23.14506, 72.54035 23.14506, 72.54253 23.14259, 72.54392 23.141, 72.54399 23.14095, 72.54404 23.14093, 72.54404 23.14057, 72.54418 23.14052, 72.54394 23.13993, 72.54372 23.13925, 72.54334 23.13797, 72.54334 23.13797, 72.54299 23.13681, 72.54292 23.13668, 72.54287 23.13663, 72.5428 23.13635, 72.54284 23.13632, 72.54286 23.1363, 72.54291 23.13623, 72.54294 23.13613, 72.54292 23.13597, 72.54283 23.13583, 72.54272 23.13577, 72.54259 23.13559, 72.54253 23.13547, 72.54247 23.13532, 72.54172 23.13283, 72.54097 23.1303, 72.54097 23.1303, 72.53983 23.12635, 72.53999 23.12631, 72.53996 23.1262, 72.53996 23.1262, 72.53951 23.12467, 72.53942 23.12434, 72.53926 23.12439, 72.53861 23.12214, 72.538655 23.12214, 72.538413 23.121305, 72.537736 23.119052, 72.53743 23.117916, 72.537124 23.116869, 72.537124 23.116864, 72.53647 23.11478, 72.53573 23.11223, 72.53573 23.11223, 72.53409 23.1066, 72.53422 23.10657, 72.5342 23.1065, 72.53416 23.10637, 72.53416 23.10637, 72.53357 23.10431, 72.53332 23.10351, 72.53321 23.10326, 72.53316 23.10315, 72.53317 23.10306, 72.53262 23.1012, 72.5325 23.10077, 72.53212 23.09948, 72.53188 23.0986, 72.53201 23.09848, 72.53224 23.09826, 72.5322 23.09823, 72.53322 23.09736, 72.53336 23.09722, 72.53344 23.09705, 72.5336 23.09643, 72.53372 23.09609, 72.53381 23.09594, 72.53404 23.09564, 72.53415 23.09551, 72.53427 23.09543, 72.53436 23.09538, 72.5346 23.09529, 72.53597 23.09478, 72.53612 23.09473, 72.53635 23.09458, 72.53655 23.09445, 72.53655 23.09446, 72.53664 23.09439, 72.5366 23.09432, 72.53666 23.09416, 72.53679 23.09378, 72.53683 23.09357, 72.53683 23.09324, 72.53676 23.09266, 72.53671 23.09236, 72.53665 23.09216, 72.53646 23.09172, 72.53649 23.09162, 72.53689 23.09132, 72.53669 23.09096, 72.53652 23.09069, 72.53615 23.09009, 72.53615 23.09009, 72.53511 23.08847, 72.53511 23.08847, 72.53468 23.08776, 72.53425 23.08702, 72.53386 23.08646, 72.53381 23.08633, 72.53397 23.08622, 72.53397 23.08622, 72.53381 23.08633, 72.53238 23.08387, 72.53234 23.08378, 72.53229 23.08383, 72.53205 23.0841, 72.53177 23.08441, 72.53132 23.0849, 72.53119 23.08505, 72.53126 23.0851, 72.53165 23.08464, 72.53211 23.08415, 72.5321 23.08414, 72.53378 23.08246, 72.53408 23.08217, 72.53437 23.08193, 72.53437 23.08193, 72.53546 23.08107, 72.53546 23.08107, 72.5356 23.08092, 72.53607 23.07999, 72.53634 23.07953, 72.53692 23.07871, 72.53713 23.07844, 72.53713 23.07844, 72.53778 23.07751, 72.53778 23.07751, 72.53838 23.07673, 72.53842 23.07669, 72.53847 23.07666, 72.53848 23.07664, 72.53873 23.0766, 72.53914 23.07643, 72.53931 23.07629, 72.5407 23.07469, 72.54091 23.07444, 72.54105 23.07422, 72.54122 23.07395, 72.54189 23.07258, 72.543 23.07039, 72.54301 23.07037, 72.54339 23.06961, 72.54366 23.06899, 72.54393 23.06837, 72.54393 23.06837, 72.54401 23.06819, 72.54408 23.06812, 72.5445 23.06789, 72.54577 23.06729, 72.54581 23.06729, 72.54584 23.06726, 72.54585 23.06725, 72.54671 23.0666, 72.54674 23.06658, 72.54774 23.0659, 72.548 23.06562, 72.54889 23.06452, 72.54913 23.06428, 72.54945 23.06402, 72.54945 23.06402, 72.55029 23.06342, 72.55234 23.062, 72.55254 23.06182, 72.5529 23.06144, 72.5529 23.06144, 72.55396 23.06034, 72.55456 23.05976, 72.55471 23.05957, 72.55488 23.05941, 72.55511 23.05922, 72.5554 23.05899, 72.55559 23.05881, 72.55587 23.05891, 72.55625 23.05898, 72.55625 23.05898, 72.5574 23.05921, 72.55777 23.05929, 72.5586 23.05954, 72.55905 23.05964, 72.55915 23.05966, 72.55915 23.05966, 72.5598 23.0598, 72.56105 23.05999, 72.56151 23.05999, 72.56218 23.06004, 72.5634 23.06003, 72.56369 23.06001, 72.56369 23.06001, 72.56422 23.05996, 72.56437 23.05994, 72.56458 23.05997, 72.56532 23.06011, 72.56602 23.06027, 72.56635 23.06032, 72.56683 23.06033, 72.56761 23.0603, 72.56771 23.0603, 72.56774 23.06022, 72.56785 23.05992, 72.56808 23.05946, 72.56808 23.05946, 72.56819 23.05928, 72.56829 23.05916, 72.56872 23.05864, 72.56926 23.05802, 72.56926 23.05802, 72.57001 23.05733, 72.57001 23.05733, 72.57051 23.05694, 72.57095 23.05665, 72.57159 23.05633, 72.57174 23.05621, 72.57181 23.0561, 72.57187 23.05596, 72.57189 23.05595, 72.57196 23.05593, 72.57202 23.05588, 72.57207 23.05582, 72.57208 23.05574, 72.57206 23.05567, 72.572 23.05558, 72.57192 23.05553, 72.57187 23.05546, 72.57187 23.05546, 72.57171 23.05515, 72.57167 23.05496, 72.57158 23.05392, 72.57146 23.0523, 72.57133 23.05054, 72.57133 23.05054, 72.57125 23.04946, 72.57117 23.04882, 72.57111 23.04821, 72.57104 23.04794, 72.57099 23.04781, 72.57074 23.04736, 72.57051 23.04698, 72.57033 23.04653, 72.57025 23.04612, 72.5702 23.04583, 72.57015 23.04523, 72.57015 23.04521, 72.57015 23.04521, 72.57004 23.04435, 72.56987 23.04341, 72.56987 23.04337, 72.56966 23.04209, 72.569593 23.041511, 72.569591 23.041518, 72.5695 23.04093, 72.56943 23.04037, 72.57049 23.04026, 72.57147 23.04023, 72.57286 23.04013, 72.57382 23.04005, 72.57564 23.03994, 72.5778 23.03976, 72.57814 23.0397, 72.57814 23.0397, 72.57986 23.03944, 72.58056 23.039375, 72.580547 23.039372, 72.5816 23.03927, 72.58184 23.03925, 72.5831 23.03909, 72.583573 23.039047, 72.58357 23.03901, 72.58385 23.03896, 72.58576 23.03853, 72.58576 23.03853, 72.5879 23.03803, 72.58808 23.038, 72.58807 23.03789, 72.58806 23.03772, 72.58791 23.03756, 72.58785 23.03722, 72.58774 23.03661, 72.58769 23.03634, 72.58761 23.03622, 72.58705 23.03579, 72.58685 23.03549, 72.58685 23.03549, 72.58664 23.03524, 72.58612 23.03473, 72.58572 23.03422, 72.58572 23.03422, 72.58501 23.0333, 72.58484 23.03303, 72.58461 23.03259, 72.58455 23.03248, 72.58455 23.03248, 72.58377 23.03091, 72.58357 23.03057, 72.58354 23.03052, 72.58349 23.03047, 72.58333 23.03038, 72.58313 23.03026, 72.58299 23.03014, 72.58299 23.03014, 72.58266 23.02982, 72.58244 23.02963, 72.58228 23.02936, 72.58218 23.02922, 72.58204 23.0291, 72.58177 23.02898, 72.58165 23.0289, 72.58159 23.02884, 72.58144 23.02827, 72.58144 23.02827, 72.58138 23.02789, 72.58136 23.02772, 72.58135 23.02737, 72.58136 23.02709, 72.5814 23.02643, 72.58107 23.0264, 72.58082 23.02643, 72.58059 23.02624, 72.58062 23.02571, 72.58064 23.02532, 72.58064 23.02532, 72.58064 23.02493, 72.58062 23.02472, 72.58065 23.0245, 72.58064 23.02448, 72.58054 23.02425, 72.58044 23.02405, 72.58038 23.02398, 72.58018 23.02386, 72.5797 23.02365, 72.57949 23.02352, 72.57923 23.02351, 72.57914 23.02354, 72.57906 23.0237, 72.57906 23.02401, 72.57904 23.02434, 72.57864 23.02437, 72.5786 23.02437)"
  },
  {
    "stopName": "Delhi Chakla",
    "stopCode": 1120,
    "stationCode": 1430,
    "stopType": "MUNICIPAL_BUS",
    "shortStopName": null,
    "Position": {
      "stopLongitude": "72.58691",
      "stopLatitude": "23.035448"
    },
    "RouteCodes": null,
    "Sequence": 58,
    "routeFlow": null
  },
  {
    "stopName": "Rentiyawadi",
    "stopCode": 1121,
    "stationCode": 2501,
    "stopType": "MUNICIPAL_BUS",
    "shortStopName": null,
    "Position": {
      "stopLongitude": "72.585791",
      "stopLatitude": "23.034176"
    },
    "RouteCodes": null,
    "Sequence": 59,
    "routeFlow": null
  },
  {
    "stopName": "Ahmedabad Gramya Jilla Nyayalay",
    "stopCode": 1122,
    "stationCode": 1077,
    "stopType": "MUNICIPAL_BUS",
    "shortStopName": null,
    "Position": {
      "stopLongitude": "72.584573",
      "stopLatitude": "23.032465"
    },
    "RouteCodes": null,
    "Sequence": 60,
    "routeFlow": null
  },
  {
    "stopName": "Jansatta Karyalay",
    "stopCode": 1123,
    "stationCode": 1761,
    "stopType": "MUNICIPAL_BUS",
    "shortStopName": null,
    "Position": {
      "stopLongitude": "72.583018",
      "stopLatitude": "23.030113"
    },
    "RouteCodes": null,
    "Sequence": 61,
    "routeFlow": null
  },
  {
    "stopName": "Dinbai Tower",
    "stopCode": 1124,
    "stationCode": 1463,
    "stopType": "MUNICIPAL_BUS",
    "shortStopName": null,
    "Position": {
      "stopLongitude": "72.581501",
      "stopLatitude": "23.02826"
    },
    "RouteCodes": null,
    "Sequence": 62,
    "routeFlow": null
  },
  {
    "stopName": "Lal Darwaja",
    "stopCode": 1125,
    "stationCode": 1961,
    "stopType": "MUNICIPAL_BUS",
    "shortStopName": null,
    "Position": {
      "stopLongitude": "72.578605",
      "stopLatitude": "23.024376"
    },
    "RouteCodes": null,
    "Sequence": 64,
    "routeFlow": null
  },
  {
    "stopName": "Shankar Bhuvan",
    "stopCode": 1153,
    "stationCode": 2696,
    "stopType": "MUNICIPAL_BUS",
    "shortStopName": null,
    "Position": {
      "stopLongitude": "72.578156",
      "stopLatitude": "23.039766"
    },
    "RouteCodes": null,
    "Sequence": 54,
    "routeFlow": null
  },
  {
    "stopName": "Shahpur Darwaja",
    "stopCode": 1154,
    "stationCode": 2683,
    "stopType": "MUNICIPAL_BUS",
    "shortStopName": null,
    "Position": {
      "stopLongitude": "72.580563",
      "stopLatitude": "23.039361"
    },
    "RouteCodes": null,
    "Sequence": 55,
    "routeFlow": null
  },
  {
    "stopName": "Halimni Khadki",
    "stopCode": 1155,
    "stationCode": 1646,
    "stopType": "MUNICIPAL_BUS",
    "shortStopName": null,
    "Position": {
      "stopLongitude": "72.583578",
      "stopLatitude": "23.039036"
    },
    "RouteCodes": null,
    "Sequence": 56,
    "routeFlow": null
  },
  {
    "stopName": "Delhi Darwaja (Rt.77 Stand)",
    "stopCode": 1156,
    "stationCode": 1432,
    "stopType": "MUNICIPAL_BUS",
    "shortStopName": null,
    "Position": {
      "stopLongitude": "72.585762",
      "stopLatitude": "23.038551"
    },
    "RouteCodes": null,
    "Sequence": 57,
    "routeFlow": null
  },
  {
    "stopName": "Jaspur Cross Road",
    "stopCode": 1674,
    "stationCode": 1766,
    "stopType": "MUNICIPAL_BUS",
    "shortStopName": null,
    "Position": {
      "stopLongitude": "72.544108",
      "stopLatitude": "23.140544"
    },
    "RouteCodes": null,
    "Sequence": 18,
    "routeFlow": null
  },
  {
    "stopName": "Vaishnavdevi Mandir",
    "stopCode": 1675,
    "stationCode": 2996,
    "stopType": "MUNICIPAL_BUS",
    "shortStopName": null,
    "Position": {
      "stopLongitude": "72.543434",
      "stopLatitude": "23.137946"
    },
    "RouteCodes": null,
    "Sequence": 19,
    "routeFlow": null
  },
  {
    "stopName": "Chharodi Patiya",
    "stopCode": 1678,
    "stationCode": 1378,
    "stopType": "MUNICIPAL_BUS",
    "shortStopName": null,
    "Position": {
      "stopLongitude": "72.538676",
      "stopLatitude": "23.122121"
    },
    "RouteCodes": null,
    "Sequence": 22,
    "routeFlow": null
  },
  {
    "stopName": "Telephone Training Centre (Chharodi)",
    "stopCode": 1679,
    "stationCode": 2932,
    "stopType": "MUNICIPAL_BUS",
    "shortStopName": null,
    "Position": {
      "stopLongitude": "72.537153",
      "stopLatitude": "23.116791"
    },
    "RouteCodes": null,
    "Sequence": 23,
    "routeFlow": null
  },
  {
    "stopName": "Gnansadhana Ashram",
    "stopCode": 1680,
    "stationCode": 1560,
    "stopType": "MUNICIPAL_BUS",
    "shortStopName": null,
    "Position": {
      "stopLongitude": "72.535785",
      "stopLatitude": "23.112218"
    },
    "RouteCodes": null,
    "Sequence": 24,
    "routeFlow": null
  },
  {
    "stopName": "Devnagar Patiya (Vishwanath Mahadev)",
    "stopCode": 1681,
    "stationCode": 1446,
    "stopType": "MUNICIPAL_BUS",
    "shortStopName": null,
    "Position": {
      "stopLongitude": "72.5342",
      "stopLatitude": "23.10636"
    },
    "RouteCodes": null,
    "Sequence": 25,
    "routeFlow": null
  },
  {
    "stopName": "Bhimjipura",
    "stopCode": 2105,
    "stationCode": 1299,
    "stopType": "MUNICIPAL_BUS",
    "shortStopName": null,
    "Position": {
      "stopLongitude": "72.568108",
      "stopLatitude": "23.059473"
    },
    "RouteCodes": null,
    "Sequence": 46,
    "routeFlow": null
  },
  {
    "stopName": "Tulsishyam Society",
    "stopCode": 2106,
    "stationCode": 2958,
    "stopType": "MUNICIPAL_BUS",
    "shortStopName": null,
    "Position": {
      "stopLongitude": "72.56928",
      "stopLatitude": "23.058035"
    },
    "RouteCodes": null,
    "Sequence": 47,
    "routeFlow": null
  },
  {
    "stopName": "Vadaj",
    "stopCode": 2107,
    "stationCode": 2978,
    "stopType": "MUNICIPAL_BUS",
    "shortStopName": null,
    "Position": {
      "stopLongitude": "72.571935",
      "stopLatitude": "23.055433"
    },
    "RouteCodes": null,
    "Sequence": 49,
    "routeFlow": null
  },
  {
    "stopName": "Champaner Society",
    "stopCode": 2108,
    "stationCode": 1348,
    "stopType": "MUNICIPAL_BUS",
    "shortStopName": null,
    "Position": {
      "stopLongitude": "72.571363",
      "stopLatitude": "23.050541"
    },
    "RouteCodes": null,
    "Sequence": 50,
    "routeFlow": null
  },
  {
    "stopName": "Gujarat Vidyapith",
    "stopCode": 2110,
    "stationCode": 1627,
    "stopType": "MUNICIPAL_BUS",
    "shortStopName": null,
    "Position": {
      "stopLongitude": "72.569903",
      "stopLatitude": "23.043365"
    },
    "RouteCodes": null,
    "Sequence": 52,
    "routeFlow": null
  },
  {
    "stopName": "Chhaya Flats",
    "stopCode": 2247,
    "stationCode": 1379,
    "stopType": "MUNICIPAL_BUS",
    "shortStopName": null,
    "Position": {
      "stopLongitude": "72.543038",
      "stopLatitude": "23.070386"
    },
    "RouteCodes": null,
    "Sequence": 38,
    "routeFlow": null
  },
  {
    "stopName": "Sanjivani Hospital",
    "stopCode": 2272,
    "stationCode": 2581,
    "stopType": "MUNICIPAL_BUS",
    "shortStopName": null,
    "Position": {
      "stopLongitude": "72.570053",
      "stopLatitude": "23.057371"
    },
    "RouteCodes": null,
    "Sequence": 48,
    "routeFlow": null
  },
  {
    "stopName": "Income Tax Office",
    "stopCode": 2273,
    "stationCode": 1705,
    "stopType": "MUNICIPAL_BUS",
    "shortStopName": null,
    "Position": {
      "stopLongitude": "72.569608",
      "stopLatitude": "23.041513"
    },
    "RouteCodes": null,
    "Sequence": 53,
    "routeFlow": null
  },
  {
    "stopName": "Ankur Society",
    "stopCode": 2681,
    "stationCode": 1144,
    "stopType": "MUNICIPAL_BUS",
    "shortStopName": null,
    "Position": {
      "stopLongitude": "72.556251",
      "stopLatitude": "23.058976"
    },
    "RouteCodes": null,
    "Sequence": 43,
    "routeFlow": null
  },
  {
    "stopName": "Kiran Park",
    "stopCode": 2683,
    "stationCode": 1898,
    "stopType": "MUNICIPAL_BUS",
    "shortStopName": null,
    "Position": {
      "stopLongitude": "72.563693",
      "stopLatitude": "23.060081"
    },
    "RouteCodes": null,
    "Sequence": 45,
    "routeFlow": null
  },
  {
    "stopName": "Gota Highway Cross Road (Rt.137 Stand)",
    "stopCode": 2788,
    "stationCode": 1590,
    "stopType": "MUNICIPAL_BUS",
    "shortStopName": null,
    "Position": {
      "stopLongitude": "72.532248",
      "stopLatitude": "23.09827"
    },
    "RouteCodes": null,
    "Sequence": 26,
    "routeFlow": null
  },
  {
    "stopName": "Gota Gam",
    "stopCode": 2789,
    "stationCode": 1588,
    "stopType": "MUNICIPAL_BUS",
    "shortStopName": null,
    "Position": {
      "stopLongitude": "72.53657",
      "stopLatitude": "23.09448"
    },
    "RouteCodes": null,
    "Sequence": 27,
    "routeFlow": null
  },
  {
    "stopName": "Usmanpura",
    "stopCode": 2863,
    "stationCode": 2975,
    "stopType": "MUNICIPAL_BUS",
    "shortStopName": null,
    "Position": {
      "stopLongitude": "72.570203",
      "stopLatitude": "23.045203"
    },
    "RouteCodes": null,
    "Sequence": 51,
    "routeFlow": null
  },
  {
    "stopName": "Somnath Chowk (Chanakyapuri Approach)",
    "stopCode": 3241,
    "stationCode": 2825,
    "stopType": "MUNICIPAL_BUS",
    "shortStopName": null,
    "Position": {
      "stopLongitude": "72.538446",
      "stopLatitude": "23.07677"
    },
    "RouteCodes": null,
    "Sequence": 37,
    "routeFlow": null
  },
  {
    "stopName": "Nirman Tower (Sola)",
    "stopCode": 3535,
    "stationCode": 2241,
    "stopType": "MUNICIPAL_BUS",
    "shortStopName": null,
    "Position": {
      "stopLongitude": "72.53439",
      "stopLatitude": "23.081951"
    },
    "RouteCodes": null,
    "Sequence": 33,
    "routeFlow": null
  },
  {
    "stopName": "Avadhpuri",
    "stopCode": 3536,
    "stationCode": 1200,
    "stopType": "MUNICIPAL_BUS",
    "shortStopName": null,
    "Position": {
      "stopLongitude": "72.535483",
      "stopLatitude": "23.081098"
    },
    "RouteCodes": null,
    "Sequence": 34,
    "routeFlow": null
  },
  {
    "stopName": "Sayona City",
    "stopCode": 3537,
    "stationCode": 2665,
    "stopType": "MUNICIPAL_BUS",
    "shortStopName": null,
    "Position": {
      "stopLongitude": "72.53713",
      "stopLatitude": "23.078438"
    },
    "RouteCodes": null,
    "Sequence": 35,
    "routeFlow": null
  },
  {
    "stopName": "Mrudul Park",
    "stopCode": 3538,
    "stationCode": 2103,
    "stopType": "MUNICIPAL_BUS",
    "shortStopName": null,
    "Position": {
      "stopLongitude": "72.537778",
      "stopLatitude": "23.077506"
    },
    "RouteCodes": null,
    "Sequence": 36,
    "routeFlow": null
  },
  {
    "stopName": "Nirma University",
    "stopCode": 3567,
    "stationCode": 2238,
    "stopType": "MUNICIPAL_BUS",
    "shortStopName": null,
    "Position": {
      "stopLongitude": "72.540997",
      "stopLatitude": "23.130293"
    },
    "RouteCodes": null,
    "Sequence": 20,
    "routeFlow": null
  },
  {
    "stopName": "Dr.Babasaheb Ambedkar Open University",
    "stopCode": 3568,
    "stationCode": 1470,
    "stopType": "MUNICIPAL_BUS",
    "shortStopName": null,
    "Position": {
      "stopLongitude": "72.539986",
      "stopLatitude": "23.126193"
    },
    "RouteCodes": null,
    "Sequence": 21,
    "routeFlow": null
  },
  {
    "stopName": "Prabhat Chowk",
    "stopCode": 4009,
    "stationCode": 2355,
    "stopType": "MUNICIPAL_BUS",
    "shortStopName": null,
    "Position": {
      "stopLongitude": "72.543996",
      "stopLatitude": "23.068391"
    },
    "RouteCodes": null,
    "Sequence": 39,
    "routeFlow": null
  },
  {
    "stopName": "Ranna Park",
    "stopCode": 4010,
    "stationCode": 2487,
    "stopType": "MUNICIPAL_BUS",
    "shortStopName": null,
    "Position": {
      "stopLongitude": "72.546766",
      "stopLatitude": "23.066605"
    },
    "RouteCodes": null,
    "Sequence": 40,
    "routeFlow": null
  },
  {
    "stopName": "Gujarat Housing Board Office",
    "stopCode": 4011,
    "stationCode": 1620,
    "stopType": "MUNICIPAL_BUS",
    "shortStopName": null,
    "Position": {
      "stopLongitude": "72.549485",
      "stopLatitude": "23.064053"
    },
    "RouteCodes": null,
    "Sequence": 41,
    "routeFlow": null
  },
  {
    "stopName": "Pallav Society",
    "stopCode": 4986,
    "stationCode": 2287,
    "stopType": "MUNICIPAL_BUS",
    "shortStopName": null,
    "Position": {
      "stopLongitude": "72.55293",
      "stopLatitude": "23.061465"
    },
    "RouteCodes": null,
    "Sequence": 42,
    "routeFlow": null
  },
  {
    "stopName": "Lilapur Gam",
    "stopCode": 5475,
    "stationCode": 1969,
    "stopType": "MUNICIPAL_BUS",
    "shortStopName": null,
    "Position": {
      "stopLongitude": "72.514151",
      "stopLatitude": "23.147435"
    },
    "RouteCodes": null,
    "Sequence": 1,
    "routeFlow": null
  },
  {
    "stopName": "Rahapura",
    "stopCode": 5476,
    "stationCode": 2425,
    "stopType": "MUNICIPAL_BUS",
    "shortStopName": null,
    "Position": {
      "stopLongitude": "72.522566",
      "stopLatitude": "23.145543"
    },
    "RouteCodes": null,
    "Sequence": 2,
    "routeFlow": null
  },
  {
    "stopName": "Master Farm",
    "stopCode": 5477,
    "stationCode": 1217,
    "stopType": "MUNICIPAL_BUS",
    "shortStopName": null,
    "Position": {
      "stopLongitude": "72.527006",
      "stopLatitude": "23.145446"
    },
    "RouteCodes": null,
    "Sequence": 3,
    "routeFlow": null
  },
  {
    "stopName": "Lilapur Tran Rasta",
    "stopCode": 5479,
    "stationCode": 1970,
    "stopType": "MUNICIPAL_BUS",
    "shortStopName": null,
    "Position": {
      "stopLongitude": "72.538853",
      "stopLatitude": "23.146821"
    },
    "RouteCodes": null,
    "Sequence": 16,
    "routeFlow": null
  },
  {
    "stopName": "R.C.Technical",
    "stopCode": 5480,
    "stationCode": 2404,
    "stopType": "MUNICIPAL_BUS",
    "shortStopName": null,
    "Position": {
      "stopLongitude": "72.532141",
      "stopLatitude": "23.084173"
    },
    "RouteCodes": null,
    "Sequence": 32,
    "routeFlow": null
  },
  {
    "stopName": "Vijaynagar",
    "stopCode": 5481,
    "stationCode": 3045,
    "stopType": "MUNICIPAL_BUS",
    "shortStopName": null,
    "Position": {
      "stopLongitude": "72.559135",
      "stopLatitude": "23.059735"
    },
    "RouteCodes": null,
    "Sequence": 44,
    "routeFlow": null
  },
  {
    "stopName": "Jaspur Gam",
    "stopCode": 5482,
    "stationCode": 1767,
    "stopType": "MUNICIPAL_BUS",
    "shortStopName": null,
    "Position": {
      "stopLongitude": "72.517371",
      "stopLatitude": "23.167651"
    },
    "RouteCodes": null,
    "Sequence": 9,
    "routeFlow": null
  },
  {
    "stopName": "Ambika Farm",
    "stopCode": 5483,
    "stationCode": 1110,
    "stopType": "MUNICIPAL_BUS",
    "shortStopName": null,
    "Position": {
      "stopLongitude": "72.522055",
      "stopLatitude": "23.165731"
    },
    "RouteCodes": null,
    "Sequence": 10,
    "routeFlow": null
  },
  {
    "stopName": "Nageshwar Farm",
    "stopCode": 5484,
    "stationCode": 2140,
    "stopType": "MUNICIPAL_BUS",
    "shortStopName": null,
    "Position": {
      "stopLongitude": "72.53136",
      "stopLatitude": "23.163888"
    },
    "RouteCodes": null,
    "Sequence": 11,
    "routeFlow": null
  },
  {
    "stopName": "Suez Farm",
    "stopCode": 5485,
    "stationCode": 2855,
    "stopType": "MUNICIPAL_BUS",
    "shortStopName": null,
    "Position": {
      "stopLongitude": "72.53402",
      "stopLatitude": "23.159731"
    },
    "RouteCodes": null,
    "Sequence": 12,
    "routeFlow": null
  },
  {
    "stopName": "Heema Farm",
    "stopCode": 5486,
    "stationCode": 1676,
    "stopType": "MUNICIPAL_BUS",
    "shortStopName": null,
    "Position": {
      "stopLongitude": "72.533425",
      "stopLatitude": "23.153035"
    },
    "RouteCodes": null,
    "Sequence": 14,
    "routeFlow": null
  },
  {
    "stopName": "Kv Farm",
    "stopCode": 5487,
    "stationCode": 1942,
    "stopType": "MUNICIPAL_BUS",
    "shortStopName": null,
    "Position": {
      "stopLongitude": "72.536563",
      "stopLatitude": "23.14944"
    },
    "RouteCodes": null,
    "Sequence": 15,
    "routeFlow": null
  },
  {
    "stopName": "Khodiyar Cross Road",
    "stopCode": 5488,
    "stationCode": 1886,
    "stopType": "MUNICIPAL_BUS",
    "shortStopName": null,
    "Position": {
      "stopLongitude": "72.540401",
      "stopLatitude": "23.145106"
    },
    "RouteCodes": null,
    "Sequence": 17,
    "routeFlow": null
  },
  {
    "stopName": "Vishv Umiya Dham",
    "stopCode": 8988,
    "stationCode": 6236,
    "stopType": "MUNICIPAL_BUS",
    "shortStopName": null,
    "Position": {
      "stopLongitude": "72.533802",
      "stopLatitude": "23.157112"
    },
    "RouteCodes": null,
    "Sequence": 13,
    "routeFlow": null
  },
  {
    "stopName": "Jaspur Talav",
    "stopCode": 8990,
    "stationCode": 6237,
    "stopType": "MUNICIPAL_BUS",
    "shortStopName": null,
    "Position": {
      "stopLongitude": "72.517929",
      "stopLatitude": "23.166029"
    },
    "RouteCodes": null,
    "Sequence": 8,
    "routeFlow": null
  },
  {
    "stopName": "Shilp Gram-1",
    "stopCode": 8992,
    "stationCode": 6238,
    "stopType": "MUNICIPAL_BUS",
    "shortStopName": null,
    "Position": {
      "stopLongitude": "72.524967",
      "stopLatitude": "23.151469"
    },
    "RouteCodes": null,
    "Sequence": 4,
    "routeFlow": null
  },
  {
    "stopName": "Chehar Krupa Farm",
    "stopCode": 8994,
    "stationCode": 6239,
    "stopType": "MUNICIPAL_BUS",
    "shortStopName": null,
    "Position": {
      "stopLongitude": "72.522532",
      "stopLatitude": "23.155435"
    },
    "RouteCodes": null,
    "Sequence": 5,
    "routeFlow": null
  },
  {
    "stopName": "Bhavna Farm",
    "stopCode": 8996,
    "stationCode": 6240,
    "stopType": "MUNICIPAL_BUS",
    "shortStopName": null,
    "Position": {
      "stopLongitude": "72.520515",
      "stopLatitude": "23.16013"
    },
    "RouteCodes": null,
    "Sequence": 6,
    "routeFlow": null
  },
  {
    "stopName": "Nihal Farm",
    "stopCode": 8998,
    "stationCode": 6241,
    "stopType": "MUNICIPAL_BUS",
    "shortStopName": null,
    "Position": {
      "stopLongitude": "72.519034",
      "stopLatitude": "23.163504"
    },
    "RouteCodes": null,
    "Sequence": 7,
    "routeFlow": null
  },
  {
    "stopName": "Uniq City Homes",
    "stopCode": 9228,
    "stationCode": 6346,
    "stopType": "MUNICIPAL_BUS",
    "shortStopName": null,
    "Position": {
      "stopLongitude": "72.53406",
      "stopLatitude": "23.086334"
    },
    "RouteCodes": null,
    "Sequence": 31,
    "routeFlow": null
  },
  {
    "stopName": "Silver Oak University",
    "stopCode": 9230,
    "stationCode": 6347,
    "stopType": "MUNICIPAL_BUS",
    "shortStopName": null,
    "Position": {
      "stopLongitude": "72.535261",
      "stopLatitude": "23.088387"
    },
    "RouteCodes": null,
    "Sequence": 30,
    "routeFlow": null
  },
  {
    "stopName": "Shayona Estate",
    "stopCode": 9232,
    "stationCode": 6348,
    "stopType": "MUNICIPAL_BUS",
    "shortStopName": null,
    "Position": {
      "stopLongitude": "72.536227",
      "stopLatitude": "23.090046"
    },
    "RouteCodes": null,
    "Sequence": 29,
    "routeFlow": null
  },
  {
    "stopName": "Tirupati Stone",
    "stopCode": 9234,
    "stationCode": 6349,
    "stopType": "MUNICIPAL_BUS",
    "shortStopName": null,
    "Position": {
      "stopLongitude": "72.536549",
      "stopLatitude": "23.091684"
    },
    "RouteCodes": null,
    "Sequence": 28,
    "routeFlow": null
  }
]