[
  {
    "stopName": "Dinbai Tower",
    "stopCode": 1078,
    "stationCode": 1463,
    "stopType": "MUNICIPAL_BUS",
    "shortStopName": null,
    "Position": {
      "stopLongitude": "72.581381",
      "stopLatitude": "23.028206"
    },
    "RouteCodes": null,
    "Sequence": 3,
    "routeFlow": "LINESTRING (72.5786 23.02437, 72.57864 23.02437, 72.57865 23.02503, 72.57904 23.02503, 72.57907 23.02503, 72.58002 23.02499, 72.58037 23.02497, 72.58045 23.02499, 72.58058 23.02506, 72.58064 23.02513, 72.58065 23.02554, 72.58059 23.02624, 72.58064 23.02715, 72.58074 23.02726, 72.58084 23.02734, 72.58114 23.02745, 72.58122 23.02751, 72.58135 23.02761, 72.58136 23.02782, 72.5814 23.02812, 72.58142 23.0282, 72.58142 23.0282, 72.58159 23.02884, 72.58165 23.0289, 72.58177 23.02898, 72.58204 23.0291, 72.58218 23.02922, 72.58243 23.02958, 72.58263 23.02979, 72.58266 23.02982, 72.58268 23.02992, 72.58276 23.03027, 72.58283 23.03037, 72.58306 23.03044, 72.5832 23.03047, 72.5832 23.03047, 72.58348 23.03053, 72.58354 23.03053, 72.58357 23.03057, 72.58377 23.03091, 72.58409 23.03156, 72.58461 23.03259, 72.58461 23.03259, 72.58484 23.03303, 72.58501 23.0333, 72.58579 23.0343, 72.58579 23.0343, 72.58612 23.03473, 72.58644 23.03505, 72.5868 23.03542, 72.58702 23.03575, 72.58711 23.03584, 72.58714 23.03586, 72.58714 23.03586, 72.58745 23.03608, 72.58761 23.03622, 72.58768 23.03632, 72.58774 23.0366, 72.58776 23.03674, 72.58789 23.03747, 72.58791 23.03756, 72.58788 23.03766, 72.58785 23.03774, 72.58787 23.03793, 72.58506 23.03857, 72.58506 23.03857, 72.5835 23.0389, 72.5835 23.0389, 72.58274 23.03902, 72.58199 23.03912, 72.58086 23.0392, 72.58086 23.0392, 72.58003 23.03928, 72.57966 23.03934, 72.57817 23.0396, 72.57713 23.03973, 72.57713 23.03973, 72.57562 23.03985, 72.57354 23.03997, 72.57147 23.04014, 72.56925 23.04023, 72.56934 23.04138, 72.56945 23.04214, 72.56945 23.04214, 72.56961 23.04307, 72.56961 23.04307, 72.57001 23.0453, 72.57014 23.04614, 72.57024 23.0466, 72.57024 23.04673, 72.5702 23.04688, 72.57014 23.04696, 72.56967 23.04693)"
  },
  {
    "stopName": "Jansatta Karyalay",
    "stopCode": 1079,
    "stationCode": 1761,
    "stopType": "MUNICIPAL_BUS",
    "shortStopName": null,
    "Position": {
      "stopLongitude": "72.583185",
      "stopLatitude": "23.030511"
    },
    "RouteCodes": null,
    "Sequence": 4,
    "routeFlow": null
  },
  {
    "stopName": "Ahmedabad Gramya Jilla Nyayalay",
    "stopCode": 1080,
    "stationCode": 1077,
    "stopType": "MUNICIPAL_BUS",
    "shortStopName": null,
    "Position": {
      "stopLongitude": "72.58455",
      "stopLatitude": "23.032603"
    },
    "RouteCodes": null,
    "Sequence": 5,
    "routeFlow": null
  },
  {
    "stopName": "Rentiyawadi",
    "stopCode": 1081,
    "stationCode": 2501,
    "stopType": "MUNICIPAL_BUS",
    "shortStopName": null,
    "Position": {
      "stopLongitude": "72.585701",
      "stopLatitude": "23.03436"
    },
    "RouteCodes": null,
    "Sequence": 6,
    "routeFlow": null
  },
  {
    "stopName": "Lal Darwaja",
    "stopCode": 1125,
    "stationCode": 1961,
    "stopType": "MUNICIPAL_BUS",
    "shortStopName": null,
    "Position": {
      "stopLongitude": "72.578605",
      "stopLatitude": "23.024376"
    },
    "RouteCodes": null,
    "Sequence": 1,
    "routeFlow": null
  },
  {
    "stopName": "Apna Bazar",
    "stopCode": 1126,
    "stationCode": 1150,
    "stopType": "MUNICIPAL_BUS",
    "shortStopName": null,
    "Position": {
      "stopLongitude": "72.579073",
      "stopLatitude": "23.025068"
    },
    "RouteCodes": null,
    "Sequence": 2,
    "routeFlow": null
  },
  {
    "stopName": "Delhi Darwaja (Rt.77 Stand)",
    "stopCode": 1208,
    "stationCode": 1432,
    "stopType": "MUNICIPAL_BUS",
    "shortStopName": null,
    "Position": {
      "stopLongitude": "72.585037",
      "stopLatitude": "23.038497"
    },
    "RouteCodes": null,
    "Sequence": 8,
    "routeFlow": null
  },
  {
    "stopName": "Halimni Khadki",
    "stopCode": 1209,
    "stationCode": 1646,
    "stopType": "MUNICIPAL_BUS",
    "shortStopName": null,
    "Position": {
      "stopLongitude": "72.583493",
      "stopLatitude": "23.03888"
    },
    "RouteCodes": null,
    "Sequence": 9,
    "routeFlow": null
  },
  {
    "stopName": "Shahpur Darwaja",
    "stopCode": 1210,
    "stationCode": 2683,
    "stopType": "MUNICIPAL_BUS",
    "shortStopName": null,
    "Position": {
      "stopLongitude": "72.58086",
      "stopLatitude": "23.039192"
    },
    "RouteCodes": null,
    "Sequence": 10,
    "routeFlow": null
  },
  {
    "stopName": "Shankar Bhuvan",
    "stopCode": 1211,
    "stationCode": 2696,
    "stopType": "MUNICIPAL_BUS",
    "shortStopName": null,
    "Position": {
      "stopLongitude": "72.57713",
      "stopLatitude": "23.039758"
    },
    "RouteCodes": null,
    "Sequence": 11,
    "routeFlow": null
  },
  {
    "stopName": "Income Tax Office",
    "stopCode": 2030,
    "stationCode": 1705,
    "stopType": "MUNICIPAL_BUS",
    "shortStopName": null,
    "Position": {
      "stopLongitude": "72.569513",
      "stopLatitude": "23.042136"
    },
    "RouteCodes": null,
    "Sequence": 12,
    "routeFlow": null
  },
  {
    "stopName": "Gujarat Vidyapith",
    "stopCode": 2163,
    "stationCode": 1627,
    "stopType": "MUNICIPAL_BUS",
    "shortStopName": null,
    "Position": {
      "stopLongitude": "72.56962",
      "stopLatitude": "23.043068"
    },
    "RouteCodes": null,
    "Sequence": 13,
    "routeFlow": null
  },
  {
    "stopName": "Delhi Chakla",
    "stopCode": 2353,
    "stationCode": 1430,
    "stopType": "MUNICIPAL_BUS",
    "shortStopName": null,
    "Position": {
      "stopLongitude": "72.587115",
      "stopLatitude": "23.035895"
    },
    "RouteCodes": null,
    "Sequence": 7,
    "routeFlow": null
  },
  {
    "stopName": "Usmanpura",
    "stopCode": 2888,
    "stationCode": 2975,
    "stopType": "MUNICIPAL_BUS",
    "shortStopName": null,
    "Position": {
      "stopLongitude": "72.569671",
      "stopLatitude": "23.046948"
    },
    "RouteCodes": null,
    "Sequence": 14,
    "routeFlow": null
  }
]