[
  {
    "stopName": "Sardarbag",
    "stopCode": 1127,
    "stationCode": 2611,
    "stopType": "MUNICIPAL_BUS",
    "shortStopName": null,
    "Position": {
      "stopLongitude": "72.578883",
      "stopLatitude": "23.027145"
    },
    "RouteCodes": null,
    "Sequence": 2,
    "routeFlow": "LINESTRING (72.57904 23.02443, 72.57904 23.02503, 72.57916 23.02504, 72.57974 23.02504, 72.58001 23.025, 72.58037 23.02497, 72.58054 23.02503, 72.58064 23.02513, 72.58063 23.02567, 72.58059 23.02624, 72.58064 23.02715, 72.58054 23.02724, 72.5804 23.02727, 72.5799 23.02726, 72.57888 23.0272, 72.57888 23.02719, 72.57778 23.02711, 72.57124 23.02658, 72.57112 23.02658, 72.57111 23.02667, 72.57103 23.02737, 72.57096 23.02782, 72.57084 23.02829, 72.57071 23.02865, 72.57071 23.02865, 72.57047 23.02939, 72.57045 23.02961, 72.57047 23.03028, 72.57049 23.03036, 72.57048 23.03039, 72.57044 23.03049, 72.57037 23.03063, 72.57029 23.0307, 72.57022 23.03075, 72.56999 23.03081, 72.56967 23.0309, 72.56937 23.03094, 72.56895 23.03099, 72.56849 23.03098, 72.56782 23.03082, 72.56719 23.03067, 72.56698 23.03065, 72.56699 23.03063, 72.56589 23.03058, 72.56576 23.03058, 72.56513 23.03066, 72.56452 23.03076, 72.56443 23.03079, 72.56429 23.0309, 72.56423 23.03099, 72.56418 23.031, 72.5641 23.03105, 72.56406 23.03115, 72.56406 23.03126, 72.56412 23.03132, 72.5641 23.03161, 72.56411 23.03169, 72.56408 23.03181, 72.56408 23.03181, 72.56399 23.03226, 72.56395 23.03292, 72.564 23.03361, 72.56405 23.03391, 72.56413 23.03421, 72.56423 23.03458, 72.56447 23.03515, 72.56438 23.03518, 72.56418 23.03525, 72.56337 23.03558, 72.56337 23.03558, 72.56031 23.03685, 72.56031 23.03685, 72.55934 23.03727, 72.55841 23.0377, 72.55791 23.03794, 72.55789 23.03795, 72.55689 23.03848, 72.55646 23.03865, 72.55596 23.03876, 72.555713 23.038794, 72.555584 23.038816, 72.55558 23.03882, 72.55511 23.03881, 72.55501 23.03879, 72.55494 23.03888, 72.55491 23.03898, 72.55489 23.03924, 72.55488 23.0394, 72.55479 23.03956, 72.55473 23.03959, 72.55469 23.03963, 72.55466 23.03969, 72.55467 23.03981, 72.55476 23.03989, 72.55479 23.0399, 72.55487 23.04033, 72.55485 23.04095, 72.55485 23.04095, 72.55485 23.04217, 72.55497 23.04379, 72.55498 23.04393, 72.55514 23.0449, 72.55517 23.04505, 72.55517 23.04505, 72.55523 23.0453, 72.55521 23.04552, 72.55522 23.04567, 72.5552 23.04569, 72.55519 23.04573, 72.5552 23.04578, 72.55524 23.04581, 72.55527 23.04581, 72.55528 23.04581, 72.55542 23.04608, 72.55551 23.04619, 72.55564 23.04643, 72.55592 23.04678, 72.55624 23.04711, 72.55635 23.04728, 72.55633 23.04729, 72.55631 23.0473, 72.55628 23.0474, 72.55633 23.04748, 72.55646 23.04755, 72.55661 23.0476, 72.55669 23.04761, 72.55672 23.04761, 72.55664 23.04842, 72.55663 23.04849, 72.55663 23.04849, 72.55651 23.04972, 72.55639 23.05073, 72.55631 23.05143, 72.55631 23.05143, 72.55621 23.05217, 72.55621 23.05217, 72.55618 23.05237, 72.55611 23.05292, 72.55613 23.05305, 72.556 23.05392, 72.55598 23.05409, 72.55579 23.05504, 72.55533 23.05507, 72.55509 23.0551, 72.55509 23.0551, 72.55443 23.05522, 72.55365 23.05544, 72.55334 23.05555, 72.55287 23.05582, 72.5525 23.05608, 72.55249 23.05607, 72.55247 23.05606, 72.55243 23.05606, 72.5524 23.05608, 72.55238 23.05614, 72.5524 23.05618, 72.55243 23.0562, 72.55246 23.0562, 72.55258 23.05633, 72.55258 23.05633, 72.55347 23.05745, 72.55433 23.05849, 72.55464 23.05882, 72.55464 23.05882, 72.55497 23.05919, 72.55465 23.0595, 72.55368 23.06052, 72.55292 23.06131, 72.55292 23.06131, 72.55242 23.06181, 72.55086 23.06292, 72.55054 23.06314, 72.55054 23.06314, 72.55024 23.06335, 72.54995 23.06299, 72.54963 23.06257, 72.54912 23.06189, 72.54812 23.06056)"
  },
  {
    "stopName": "Navarangpura",
    "stopCode": 1214,
    "stationCode": 2189,
    "stopType": "MUNICIPAL_BUS",
    "shortStopName": null,
    "Position": {
      "stopLongitude": "72.563374",
      "stopLatitude": "23.035586"
    },
    "RouteCodes": null,
    "Sequence": 6,
    "routeFlow": null
  },
  {
    "stopName": "Swastik Society",
    "stopCode": 1215,
    "stationCode": 2903,
    "stopType": "MUNICIPAL_BUS",
    "shortStopName": null,
    "Position": {
      "stopLongitude": "72.560326",
      "stopLatitude": "23.036878"
    },
    "RouteCodes": null,
    "Sequence": 7,
    "routeFlow": null
  },
  {
    "stopName": "Commerce College Hostel",
    "stopCode": 1216,
    "stationCode": 1403,
    "stopType": "MUNICIPAL_BUS",
    "shortStopName": null,
    "Position": {
      "stopLongitude": "72.557906",
      "stopLatitude": "23.037986"
    },
    "RouteCodes": null,
    "Sequence": 8,
    "routeFlow": null
  },
  {
    "stopName": "Commerce College",
    "stopCode": 1217,
    "stationCode": 1402,
    "stopType": "MUNICIPAL_BUS",
    "shortStopName": null,
    "Position": {
      "stopLongitude": "72.555578",
      "stopLatitude": "23.038808"
    },
    "RouteCodes": null,
    "Sequence": 9,
    "routeFlow": null
  },
  {
    "stopName": "Nataraj Cinema",
    "stopCode": 2160,
    "stationCode": 2182,
    "stopType": "MUNICIPAL_BUS",
    "shortStopName": null,
    "Position": {
      "stopLongitude": "72.570706",
      "stopLatitude": "23.028653"
    },
    "RouteCodes": null,
    "Sequence": 3,
    "routeFlow": null
  },
  {
    "stopName": "Shrimali Society",
    "stopCode": 2822,
    "stationCode": 2750,
    "stopType": "MUNICIPAL_BUS",
    "shortStopName": null,
    "Position": {
      "stopLongitude": "72.564048",
      "stopLatitude": "23.031805"
    },
    "RouteCodes": null,
    "Sequence": 5,
    "routeFlow": null
  },
  {
    "stopName": "Mithakhali",
    "stopCode": 3378,
    "stationCode": 2088,
    "stopType": "MUNICIPAL_BUS",
    "shortStopName": null,
    "Position": {
      "stopLongitude": "72.566981",
      "stopLatitude": "23.030655"
    },
    "RouteCodes": null,
    "Sequence": 4,
    "routeFlow": null
  },
  {
    "stopName": "Pallav Society",
    "stopCode": 4195,
    "stationCode": 2287,
    "stopType": "MUNICIPAL_BUS",
    "shortStopName": null,
    "Position": {
      "stopLongitude": "72.552911",
      "stopLatitude": "23.061301"
    },
    "RouteCodes": null,
    "Sequence": 18,
    "routeFlow": null
  },
  {
    "stopName": "Mangalmurti Apartment",
    "stopCode": 4224,
    "stationCode": 2034,
    "stopType": "MUNICIPAL_BUS",
    "shortStopName": null,
    "Position": {
      "stopLongitude": "72.548161",
      "stopLatitude": "23.060538"
    },
    "RouteCodes": null,
    "Sequence": 20,
    "routeFlow": null
  },
  {
    "stopName": "Ishwar Bhuvan",
    "stopCode": 4696,
    "stationCode": 1728,
    "stopType": "MUNICIPAL_BUS",
    "shortStopName": null,
    "Position": {
      "stopLongitude": "72.554853",
      "stopLatitude": "23.040951"
    },
    "RouteCodes": null,
    "Sequence": 10,
    "routeFlow": null
  },
  {
    "stopName": "Swati Society",
    "stopCode": 4697,
    "stationCode": 2905,
    "stopType": "MUNICIPAL_BUS",
    "shortStopName": null,
    "Position": {
      "stopLongitude": "72.555193",
      "stopLatitude": "23.045046"
    },
    "RouteCodes": null,
    "Sequence": 11,
    "routeFlow": null
  },
  {
    "stopName": "Navrang School",
    "stopCode": 4698,
    "stationCode": 2198,
    "stopType": "MUNICIPAL_BUS",
    "shortStopName": null,
    "Position": {
      "stopLongitude": "72.556616",
      "stopLatitude": "23.048486"
    },
    "RouteCodes": null,
    "Sequence": 12,
    "routeFlow": null
  },
  {
    "stopName": "Lakshminagar",
    "stopCode": 4699,
    "stationCode": 1954,
    "stopType": "MUNICIPAL_BUS",
    "shortStopName": null,
    "Position": {
      "stopLongitude": "72.556281",
      "stopLatitude": "23.051424"
    },
    "RouteCodes": null,
    "Sequence": 13,
    "routeFlow": null
  },
  {
    "stopName": "Mirambika High School",
    "stopCode": 4700,
    "stationCode": 2086,
    "stopType": "MUNICIPAL_BUS",
    "shortStopName": null,
    "Position": {
      "stopLongitude": "72.555085",
      "stopLatitude": "23.055098"
    },
    "RouteCodes": null,
    "Sequence": 15,
    "routeFlow": null
  },
  {
    "stopName": "Bhavin Vidyalay",
    "stopCode": 4701,
    "stationCode": 1294,
    "stopType": "MUNICIPAL_BUS",
    "shortStopName": null,
    "Position": {
      "stopLongitude": "72.552591",
      "stopLatitude": "23.056325"
    },
    "RouteCodes": null,
    "Sequence": 16,
    "routeFlow": null
  },
  {
    "stopName": "Ankur Society",
    "stopCode": 4702,
    "stationCode": 1144,
    "stopType": "MUNICIPAL_BUS",
    "shortStopName": null,
    "Position": {
      "stopLongitude": "72.554623",
      "stopLatitude": "23.058833"
    },
    "RouteCodes": null,
    "Sequence": 17,
    "routeFlow": null
  },
  {
    "stopName": "Gujarat Housing Board Office",
    "stopCode": 4703,
    "stationCode": 1620,
    "stopType": "MUNICIPAL_BUS",
    "shortStopName": null,
    "Position": {
      "stopLongitude": "72.55052",
      "stopLatitude": "23.063113"
    },
    "RouteCodes": null,
    "Sequence": 19,
    "routeFlow": null
  },
  {
    "stopName": "Amikunj Society",
    "stopCode": 7099,
    "stationCode": 1117,
    "stopType": "MUNICIPAL_BUS",
    "shortStopName": null,
    "Position": {
      "stopLongitude": "72.556186",
      "stopLatitude": "23.052171"
    },
    "RouteCodes": null,
    "Sequence": 14,
    "routeFlow": null
  },
  {
    "stopName": "Lal Darwaja",
    "stopCode": 8431,
    "stationCode": 1961,
    "stopType": "MUNICIPAL_BUS",
    "shortStopName": null,
    "Position": {
      "stopLongitude": "72.578948",
      "stopLatitude": "23.02443"
    },
    "RouteCodes": null,
    "Sequence": 1,
    "routeFlow": null
  }
]