[
  {
    "stopName": "Sardarbag",
    "stopCode": 1075,
    "stationCode": 2611,
    "stopType": "MUNICIPAL_BUS",
    "shortStopName": null,
    "Position": {
      "stopLongitude": "72.578645",
      "stopLatitude": "23.027351"
    },
    "RouteCodes": null,
    "Sequence": 20,
    "routeFlow": "LINESTRING (72.54754 23.05975, 72.54845 23.06102, 72.54995 23.06299, 72.55029 23.06342, 72.5506 23.06321, 72.5506 23.06321, 72.55234 23.062, 72.55254 23.06182, 72.5529 23.06144, 72.5529 23.06144, 72.55396 23.06034, 72.55456 23.05976, 72.55471 23.05957, 72.55488 23.05941, 72.55511 23.05922, 72.55456 23.05864, 72.55456 23.05864, 72.55387 23.05784, 72.55335 23.05716, 72.55272 23.05636, 72.55272 23.05636, 72.55253 23.05613, 72.55253 23.05611, 72.55251 23.05608, 72.55303 23.05572, 72.55334 23.05555, 72.55353 23.05548, 72.55378 23.0554, 72.55431 23.05524, 72.55495 23.05512, 72.5554 23.05507, 72.5554 23.05507, 72.55579 23.05504, 72.55598 23.05409, 72.556 23.05392, 72.55613 23.05305, 72.55618 23.05293, 72.55623 23.05255, 72.55623 23.05255, 72.55642 23.05104, 72.55642 23.05104, 72.55658 23.04972, 72.55676 23.04832, 72.55676 23.04832, 72.55685 23.04757, 72.55692 23.04754, 72.55696 23.04751, 72.55699 23.04742, 72.55699 23.04736, 72.55692 23.0473, 72.55685 23.04728, 72.55657 23.04726, 72.55649 23.04726, 72.55624 23.04711, 72.55609 23.04697, 72.55592 23.04678, 72.5558 23.04663, 72.55564 23.04643, 72.55551 23.04619, 72.55548 23.04606, 72.55536 23.04577, 72.55536 23.04576, 72.55537 23.04575, 72.55537 23.04572, 72.55535 23.04568, 72.5553 23.04565, 72.55529 23.04559, 72.55531 23.04547, 72.55529 23.04538, 72.55523 23.0453, 72.55521 23.04522, 72.55516 23.045, 72.55516 23.045, 72.5551 23.04472, 72.55497 23.04382, 72.5549 23.04292, 72.55485 23.04217, 72.55484 23.04173, 72.55485 23.04113, 72.55486 23.0405, 72.55486 23.0405, 72.55493 23.0399, 72.55495 23.03989, 72.55498 23.03987, 72.55505 23.03976, 72.55503 23.03965, 72.55499 23.0396, 72.55517 23.03923, 72.55525 23.03908, 72.55541 23.03899, 72.55567 23.03891, 72.55597 23.03886, 72.55612 23.03883, 72.55612 23.03883, 72.5566 23.03871, 72.55694 23.03857, 72.55728 23.0384, 72.55776 23.03813, 72.55776 23.03813, 72.55893 23.03755, 72.55993 23.0371, 72.56066 23.0368, 72.56066 23.0368, 72.56123 23.03657, 72.563733 23.035522, 72.56387 23.03555, 72.56409 23.03551, 72.56418 23.03548, 72.56418 23.03548, 72.56445 23.03537, 72.56452 23.03534, 72.5645 23.03524, 72.56447 23.03515, 72.56423 23.03458, 72.56417 23.03436, 72.56409 23.03407, 72.56402 23.03378, 72.56396 23.03309, 72.56396 23.03266, 72.56398 23.03239, 72.56408 23.03182, 72.56409 23.03176, 72.56409 23.03176, 72.56416 23.03157, 72.5642 23.03134, 72.56422 23.03133, 72.56427 23.03129, 72.5643 23.03124, 72.56431 23.03106, 72.56432 23.03103, 72.56441 23.03096, 72.56452 23.03089, 72.56475 23.03083, 72.56497 23.0308, 72.56518 23.03079, 72.56546 23.03072, 72.56579 23.03069, 72.56592 23.03068, 72.56614 23.03068, 72.56614 23.03068, 72.56683 23.03069, 72.56721 23.03075, 72.56781 23.03086, 72.56846 23.03105, 72.56878 23.03108, 72.56932 23.03105, 72.56969 23.03097, 72.57053 23.03075, 72.57066 23.03073, 72.57065 23.03067, 72.57059 23.03014, 72.57057 23.02986, 72.57057 23.02986, 72.57056 23.02966, 72.57057 23.02946, 72.57083 23.02868, 72.57083 23.02868, 72.57102 23.02809, 72.57111 23.02766, 72.57116 23.02732, 72.57121 23.02694, 72.57123 23.02668, 72.57251 23.02678, 72.57808 23.02722, 72.57841 23.02725, 72.57865 23.02727, 72.57869 23.02727, 72.58005 23.02736, 72.58111 23.02732, 72.5813 23.02725, 72.58135 23.02722, 72.58136 23.02709, 72.5814 23.02643, 72.58107 23.0264, 72.58082 23.02643, 72.58059 23.02624, 72.58062 23.02571, 72.58064 23.02532, 72.58073 23.02532, 72.58063 23.02532, 72.58064 23.02513, 72.58067 23.02493, 72.58067 23.02476, 72.58066 23.02468, 72.58067 23.02463, 72.58068 23.02454, 72.58067 23.02445, 72.58059 23.02419, 72.58055 23.02411, 72.58047 23.02403, 72.58029 23.02389, 72.57971 23.02365, 72.57953 23.02355, 72.57944 23.02354, 72.57912 23.02353, 72.57912 23.02386, 72.5791 23.02408, 72.5791 23.02438, 72.57898 23.02438, 72.57898 23.02436)"
  },
  {
    "stopName": "Apna Bazar",
    "stopCode": 1076,
    "stationCode": 1150,
    "stopType": "MUNICIPAL_BUS",
    "shortStopName": null,
    "Position": {
      "stopLongitude": "72.580705",
      "stopLatitude": "23.025321"
    },
    "RouteCodes": null,
    "Sequence": 21,
    "routeFlow": null
  },
  {
    "stopName": "Commerce College",
    "stopCode": 1107,
    "stationCode": 1402,
    "stopType": "MUNICIPAL_BUS",
    "shortStopName": null,
    "Position": {
      "stopLongitude": "72.556131",
      "stopLatitude": "23.038873"
    },
    "RouteCodes": null,
    "Sequence": 12,
    "routeFlow": null
  },
  {
    "stopName": "Commerce College Hostel",
    "stopCode": 1108,
    "stationCode": 1403,
    "stopType": "MUNICIPAL_BUS",
    "shortStopName": null,
    "Position": {
      "stopLongitude": "72.55777",
      "stopLatitude": "23.038141"
    },
    "RouteCodes": null,
    "Sequence": 13,
    "routeFlow": null
  },
  {
    "stopName": "Swastik Society",
    "stopCode": 1109,
    "stationCode": 2903,
    "stopType": "MUNICIPAL_BUS",
    "shortStopName": null,
    "Position": {
      "stopLongitude": "72.560678",
      "stopLatitude": "23.036845"
    },
    "RouteCodes": null,
    "Sequence": 14,
    "routeFlow": null
  },
  {
    "stopName": "Navarangpura",
    "stopCode": 1150,
    "stationCode": 2189,
    "stopType": "MUNICIPAL_BUS",
    "shortStopName": null,
    "Position": {
      "stopLongitude": "72.564193",
      "stopLatitude": "23.03552"
    },
    "RouteCodes": null,
    "Sequence": 15,
    "routeFlow": null
  },
  {
    "stopName": "Vallabhsadan",
    "stopCode": 2220,
    "stationCode": 3005,
    "stopType": "MUNICIPAL_BUS",
    "shortStopName": null,
    "Position": {
      "stopLongitude": "72.570603",
      "stopLatitude": "23.029853"
    },
    "RouteCodes": null,
    "Sequence": 18,
    "routeFlow": null
  },
  {
    "stopName": "Nataraj Cinema",
    "stopCode": 2221,
    "stationCode": 2182,
    "stopType": "MUNICIPAL_BUS",
    "shortStopName": null,
    "Position": {
      "stopLongitude": "72.570805",
      "stopLatitude": "23.028671"
    },
    "RouteCodes": null,
    "Sequence": 19,
    "routeFlow": null
  },
  {
    "stopName": "Shrimali Society",
    "stopCode": 2825,
    "stationCode": 2750,
    "stopType": "MUNICIPAL_BUS",
    "shortStopName": null,
    "Position": {
      "stopLongitude": "72.564168",
      "stopLatitude": "23.031773"
    },
    "RouteCodes": null,
    "Sequence": 16,
    "routeFlow": null
  },
  {
    "stopName": "Mithakhali",
    "stopCode": 3252,
    "stationCode": 2088,
    "stopType": "MUNICIPAL_BUS",
    "shortStopName": null,
    "Position": {
      "stopLongitude": "72.566138",
      "stopLatitude": "23.030716"
    },
    "RouteCodes": null,
    "Sequence": 17,
    "routeFlow": null
  },
  {
    "stopName": "Pallav Society",
    "stopCode": 4986,
    "stationCode": 2287,
    "stopType": "MUNICIPAL_BUS",
    "shortStopName": null,
    "Position": {
      "stopLongitude": "72.55293",
      "stopLatitude": "23.061465"
    },
    "RouteCodes": null,
    "Sequence": 3,
    "routeFlow": null
  },
  {
    "stopName": "Bhavin Vidyalay",
    "stopCode": 5012,
    "stationCode": 1294,
    "stopType": "MUNICIPAL_BUS",
    "shortStopName": null,
    "Position": {
      "stopLongitude": "72.552736",
      "stopLatitude": "23.056345"
    },
    "RouteCodes": null,
    "Sequence": 5,
    "routeFlow": null
  },
  {
    "stopName": "Mangalmurti Apartment",
    "stopCode": 5500,
    "stationCode": 2034,
    "stopType": "MUNICIPAL_BUS",
    "shortStopName": null,
    "Position": {
      "stopLongitude": "72.5475",
      "stopLatitude": "23.059775"
    },
    "RouteCodes": null,
    "Sequence": 1,
    "routeFlow": null
  },
  {
    "stopName": "Gujarat Housing Board Office",
    "stopCode": 5501,
    "stationCode": 1620,
    "stopType": "MUNICIPAL_BUS",
    "shortStopName": null,
    "Position": {
      "stopLongitude": "72.550665",
      "stopLatitude": "23.063291"
    },
    "RouteCodes": null,
    "Sequence": 2,
    "routeFlow": null
  },
  {
    "stopName": "Ankur Society",
    "stopCode": 5502,
    "stationCode": 1144,
    "stopType": "MUNICIPAL_BUS",
    "shortStopName": null,
    "Position": {
      "stopLongitude": "72.554573",
      "stopLatitude": "23.058628"
    },
    "RouteCodes": null,
    "Sequence": 4,
    "routeFlow": null
  },
  {
    "stopName": "Mirambika High School",
    "stopCode": 5503,
    "stationCode": 2086,
    "stopType": "MUNICIPAL_BUS",
    "shortStopName": null,
    "Position": {
      "stopLongitude": "72.55541",
      "stopLatitude": "23.055133"
    },
    "RouteCodes": null,
    "Sequence": 6,
    "routeFlow": null
  },
  {
    "stopName": "Lakshminagar",
    "stopCode": 5504,
    "stationCode": 1954,
    "stopType": "MUNICIPAL_BUS",
    "shortStopName": null,
    "Position": {
      "stopLongitude": "72.556466",
      "stopLatitude": "23.051048"
    },
    "RouteCodes": null,
    "Sequence": 8,
    "routeFlow": null
  },
  {
    "stopName": "Navrang School",
    "stopCode": 5505,
    "stationCode": 2198,
    "stopType": "MUNICIPAL_BUS",
    "shortStopName": null,
    "Position": {
      "stopLongitude": "72.55678",
      "stopLatitude": "23.048325"
    },
    "RouteCodes": null,
    "Sequence": 9,
    "routeFlow": null
  },
  {
    "stopName": "Swati Society",
    "stopCode": 5506,
    "stationCode": 2905,
    "stopType": "MUNICIPAL_BUS",
    "shortStopName": null,
    "Position": {
      "stopLongitude": "72.55524",
      "stopLatitude": "23.044981"
    },
    "RouteCodes": null,
    "Sequence": 10,
    "routeFlow": null
  },
  {
    "stopName": "Ishwar Bhuvan",
    "stopCode": 5507,
    "stationCode": 1728,
    "stopType": "MUNICIPAL_BUS",
    "shortStopName": null,
    "Position": {
      "stopLongitude": "72.554925",
      "stopLatitude": "23.040506"
    },
    "RouteCodes": null,
    "Sequence": 11,
    "routeFlow": null
  },
  {
    "stopName": "Amikunj Society",
    "stopCode": 7098,
    "stationCode": 1117,
    "stopType": "MUNICIPAL_BUS",
    "shortStopName": null,
    "Position": {
      "stopLongitude": "72.556256",
      "stopLatitude": "23.052554"
    },
    "RouteCodes": null,
    "Sequence": 7,
    "routeFlow": null
  },
  {
    "stopName": "Lal Darwaja",
    "stopCode": 8431,
    "stationCode": 1961,
    "stopType": "MUNICIPAL_BUS",
    "shortStopName": null,
    "Position": {
      "stopLongitude": "72.578948",
      "stopLatitude": "23.02443"
    },
    "RouteCodes": null,
    "Sequence": 22,
    "routeFlow": null
  }
]