[
  {
    "stopName": "Lal Darwaja",
    "stopCode": 1077,
    "stationCode": 1961,
    "stopType": "MUNICIPAL_BUS",
    "shortStopName": null,
    "Position": {
      "stopLongitude": "72.578186",
      "stopLatitude": "23.025053"
    },
    "RouteCodes": null,
    "Sequence": 44,
    "routeFlow": "LINESTRING (72.55434 23.11379, 72.55343 23.11387, 72.55359 23.11317, 72.55365 23.11284, 72.5537 23.1125, 72.55373 23.11188, 72.55371 23.11126, 72.55371 23.11126, 72.55367 23.11093, 72.55359 23.11052, 72.55334 23.1097, 72.55308 23.1091, 72.55279 23.10859, 72.55258 23.10828, 72.55232 23.10797, 72.55232 23.10797, 72.55223 23.10787, 72.55207 23.10767, 72.55178 23.1074, 72.5512 23.10693, 72.55096 23.10677, 72.5507 23.10665, 72.55051 23.10655, 72.55022 23.10633, 72.55006 23.10614, 72.54988 23.10584, 72.54981 23.10567, 72.54975 23.10546, 72.54972 23.10521, 72.54979 23.10457, 72.54979 23.10429, 72.54983 23.10384, 72.54983 23.10384, 72.54996 23.10231, 72.54998 23.10198, 72.54992 23.10175, 72.54981 23.10155, 72.5497 23.1014, 72.54944 23.1011, 72.54925 23.10096, 72.54874 23.10062, 72.54862 23.10048, 72.54862 23.10048, 72.54844 23.10024, 72.54832 23.10003, 72.54809 23.09944, 72.54775 23.09852, 72.54771 23.09854, 72.54729 23.09737, 72.54729 23.09737, 72.54643 23.09498, 72.54643 23.09498, 72.54618 23.09438, 72.54594 23.09366, 72.54589 23.09352, 72.54589 23.09352, 72.54534 23.09197, 72.54534 23.09197, 72.5447 23.09012, 72.54454 23.08972, 72.54454 23.08972, 72.54434 23.08922, 72.54443 23.08922, 72.54695 23.08968, 72.54701 23.08971, 72.54703 23.08963, 72.54712 23.08933, 72.54712 23.08933, 72.5473 23.0887, 72.54739 23.08826, 72.54744 23.08807, 72.54754 23.08752, 72.54754 23.08752, 72.54784 23.08612, 72.54784 23.08612, 72.54809 23.08504, 72.54815 23.08456, 72.54815 23.08456, 72.54822 23.08397, 72.54822 23.08388, 72.54817 23.0838, 72.54767 23.08355, 72.54685 23.0832, 72.54685 23.0832, 72.54629 23.08295, 72.54653 23.08268, 72.5466 23.08261, 72.54678 23.08248, 72.54823 23.08148, 72.54823 23.08148, 72.5488 23.08111, 72.5491 23.08095, 72.54929 23.08086, 72.54994 23.08061, 72.54994 23.08061, 72.55024 23.08051, 72.55138 23.0802, 72.55171 23.08007, 72.55189 23.07993, 72.55254 23.0793, 72.55306 23.07883, 72.55306 23.07883, 72.55416 23.07785, 72.55457 23.07752, 72.55467 23.07742, 72.55544 23.07649, 72.55544 23.07649, 72.55588 23.07592, 72.55638 23.07537, 72.55656 23.07515, 72.55656 23.07515, 72.55688 23.0747, 72.55701 23.07446, 72.55718 23.07399, 72.55772 23.07256, 72.55786 23.07237, 72.55858 23.07168, 72.55881 23.0714, 72.55885 23.07136, 72.55942 23.07085, 72.55987 23.07046, 72.55987 23.07046, 72.56052 23.06981, 72.56141 23.06884, 72.56166 23.06854, 72.561914 23.068237, 72.562231 23.068344, 72.562422 23.068437, 72.562488 23.068364, 72.562527 23.068308, 72.56253 23.068308, 72.562624 23.068191, 72.562537 23.067844, 72.56253 23.06762, 72.56256 23.06761, 72.56261 23.0676, 72.56269 23.06755, 72.56275 23.06747, 72.56276 23.06738, 72.56274 23.0673, 72.56272 23.06728, 72.56271 23.06727, 72.56273 23.06713, 72.56275 23.06702, 72.56282 23.06686, 72.56314 23.06628, 72.56341 23.06591, 72.56356 23.06573, 72.56391 23.06533, 72.56391 23.06533, 72.5646 23.06459, 72.56534 23.06376, 72.56534 23.06376, 72.56605 23.06312, 72.56635 23.06277, 72.5665 23.06261, 72.56656 23.06245, 72.5666 23.06244, 72.56669 23.06238, 72.56674 23.06229, 72.56675 23.06225, 72.56723 23.06176, 72.56723 23.06176, 72.56741 23.06152, 72.56753 23.06124, 72.56765 23.06072, 72.56771 23.0603, 72.56778 23.06007, 72.56808 23.05946, 72.56808 23.05946, 72.56819 23.05928, 72.56829 23.05916, 72.56872 23.05864, 72.56926 23.05802, 72.56926 23.05802, 72.57001 23.05733, 72.57001 23.05733, 72.57051 23.05694, 72.57095 23.05665, 72.57159 23.05633, 72.57174 23.05621, 72.57181 23.0561, 72.57187 23.05596, 72.57189 23.05595, 72.57196 23.05593, 72.57202 23.05588, 72.57207 23.05582, 72.57208 23.05574, 72.57206 23.05567, 72.572 23.05558, 72.57192 23.05553, 72.5719 23.05552, 72.57175 23.05525, 72.57168 23.05505, 72.57161 23.05445, 72.57159 23.05413, 72.57159 23.05413, 72.57133 23.05054, 72.57133 23.05054, 72.57125 23.04946, 72.57117 23.04882, 72.57111 23.04821, 72.57104 23.04794, 72.57099 23.04781, 72.57074 23.04736, 72.57051 23.04698, 72.57033 23.04653, 72.57025 23.04612, 72.5702 23.04583, 72.57015 23.04523, 72.57015 23.04521, 72.57015 23.04521, 72.57004 23.04435, 72.56987 23.04341, 72.56987 23.04337, 72.56966 23.04209, 72.569593 23.041511, 72.569591 23.041518, 72.5695 23.04093, 72.56943 23.04037, 72.57049 23.04026, 72.57147 23.04023, 72.57286 23.04013, 72.57382 23.04005, 72.57564 23.03994, 72.5778 23.03976, 72.57814 23.0397, 72.57814 23.0397, 72.57986 23.03944, 72.58056 23.039375, 72.580547 23.039372, 72.5816 23.03927, 72.58184 23.03925, 72.5831 23.03909, 72.583573 23.039047, 72.58357 23.03901, 72.58385 23.03896, 72.58576 23.03853, 72.58576 23.03853, 72.5879 23.03803, 72.58808 23.038, 72.58807 23.03789, 72.58806 23.03772, 72.58791 23.03756, 72.58785 23.03722, 72.58774 23.03661, 72.58769 23.03634, 72.58761 23.03622, 72.58705 23.03579, 72.58685 23.03549, 72.58685 23.03549, 72.58664 23.03524, 72.58612 23.03473, 72.58572 23.03422, 72.58572 23.03422, 72.58501 23.0333, 72.58484 23.03303, 72.58461 23.03259, 72.58455 23.03248, 72.58455 23.03248, 72.58377 23.03091, 72.58357 23.03057, 72.58354 23.03052, 72.58349 23.03047, 72.58333 23.03038, 72.58313 23.03026, 72.58299 23.03014, 72.58299 23.03014, 72.58266 23.02982, 72.58244 23.02963, 72.58228 23.02936, 72.58218 23.02922, 72.58204 23.0291, 72.58177 23.02898, 72.58165 23.0289, 72.58159 23.02884, 72.58144 23.02827, 72.58144 23.02827, 72.58138 23.02789, 72.58136 23.02772, 72.58135 23.02737, 72.58136 23.02709, 72.58141 23.02642, 72.58082 23.02643, 72.58061 23.02662, 72.58062 23.02678, 72.58064 23.02715, 72.58054 23.02724, 72.5804 23.02727, 72.58014 23.02727, 72.57944 23.02724, 72.57851 23.02718, 72.57778 23.02714, 72.57778 23.02708, 72.57784 23.02589, 72.5779 23.02502, 72.5781 23.02502, 72.57818 23.02502)"
  },
  {
    "stopName": "Delhi Chakla",
    "stopCode": 1120,
    "stationCode": 1430,
    "stopType": "MUNICIPAL_BUS",
    "shortStopName": null,
    "Position": {
      "stopLongitude": "72.58691",
      "stopLatitude": "23.035448"
    },
    "RouteCodes": null,
    "Sequence": 39,
    "routeFlow": null
  },
  {
    "stopName": "Rentiyawadi",
    "stopCode": 1121,
    "stationCode": 2501,
    "stopType": "MUNICIPAL_BUS",
    "shortStopName": null,
    "Position": {
      "stopLongitude": "72.585791",
      "stopLatitude": "23.034176"
    },
    "RouteCodes": null,
    "Sequence": 40,
    "routeFlow": null
  },
  {
    "stopName": "Ahmedabad Gramya Jilla Nyayalay",
    "stopCode": 1122,
    "stationCode": 1077,
    "stopType": "MUNICIPAL_BUS",
    "shortStopName": null,
    "Position": {
      "stopLongitude": "72.584573",
      "stopLatitude": "23.032465"
    },
    "RouteCodes": null,
    "Sequence": 41,
    "routeFlow": null
  },
  {
    "stopName": "Jansatta Karyalay",
    "stopCode": 1123,
    "stationCode": 1761,
    "stopType": "MUNICIPAL_BUS",
    "shortStopName": null,
    "Position": {
      "stopLongitude": "72.583018",
      "stopLatitude": "23.030113"
    },
    "RouteCodes": null,
    "Sequence": 42,
    "routeFlow": null
  },
  {
    "stopName": "Dinbai Tower",
    "stopCode": 1124,
    "stationCode": 1463,
    "stopType": "MUNICIPAL_BUS",
    "shortStopName": null,
    "Position": {
      "stopLongitude": "72.581501",
      "stopLatitude": "23.02826"
    },
    "RouteCodes": null,
    "Sequence": 43,
    "routeFlow": null
  },
  {
    "stopName": "Shankar Bhuvan",
    "stopCode": 1153,
    "stationCode": 2696,
    "stopType": "MUNICIPAL_BUS",
    "shortStopName": null,
    "Position": {
      "stopLongitude": "72.578156",
      "stopLatitude": "23.039766"
    },
    "RouteCodes": null,
    "Sequence": 35,
    "routeFlow": null
  },
  {
    "stopName": "Shahpur Darwaja",
    "stopCode": 1154,
    "stationCode": 2683,
    "stopType": "MUNICIPAL_BUS",
    "shortStopName": null,
    "Position": {
      "stopLongitude": "72.580563",
      "stopLatitude": "23.039361"
    },
    "RouteCodes": null,
    "Sequence": 36,
    "routeFlow": null
  },
  {
    "stopName": "Halimni Khadki",
    "stopCode": 1155,
    "stationCode": 1646,
    "stopType": "MUNICIPAL_BUS",
    "shortStopName": null,
    "Position": {
      "stopLongitude": "72.583578",
      "stopLatitude": "23.039036"
    },
    "RouteCodes": null,
    "Sequence": 37,
    "routeFlow": null
  },
  {
    "stopName": "Delhi Darwaja (Rt.77 Stand)",
    "stopCode": 1156,
    "stationCode": 1432,
    "stopType": "MUNICIPAL_BUS",
    "shortStopName": null,
    "Position": {
      "stopLongitude": "72.585762",
      "stopLatitude": "23.038551"
    },
    "RouteCodes": null,
    "Sequence": 38,
    "routeFlow": null
  },
  {
    "stopName": "New Ranchhodraynagar",
    "stopCode": 2000,
    "stationCode": 2212,
    "stopType": "MUNICIPAL_BUS",
    "shortStopName": null,
    "Position": {
      "stopLongitude": "72.548692",
      "stopLatitude": "23.100437"
    },
    "RouteCodes": null,
    "Sequence": 5,
    "routeFlow": null
  },
  {
    "stopName": "Ramapirnu Mandir",
    "stopCode": 2100,
    "stationCode": 2463,
    "stopType": "MUNICIPAL_BUS",
    "shortStopName": null,
    "Position": {
      "stopLongitude": "72.559883",
      "stopLatitude": "23.070475"
    },
    "RouteCodes": null,
    "Sequence": 22,
    "routeFlow": null
  },
  {
    "stopName": "Nava Vadaj",
    "stopCode": 2101,
    "stationCode": 2185,
    "stopType": "MUNICIPAL_BUS",
    "shortStopName": null,
    "Position": {
      "stopLongitude": "72.562473",
      "stopLatitude": "23.068281"
    },
    "RouteCodes": null,
    "Sequence": 23,
    "routeFlow": null
  },
  {
    "stopName": "Krushnanagar (Nava Vadaj)",
    "stopCode": 2102,
    "stationCode": 3106,
    "stopType": "MUNICIPAL_BUS",
    "shortStopName": null,
    "Position": {
      "stopLongitude": "72.56392",
      "stopLatitude": "23.065333"
    },
    "RouteCodes": null,
    "Sequence": 24,
    "routeFlow": null
  },
  {
    "stopName": "Punam Party Plot",
    "stopCode": 2103,
    "stationCode": 2392,
    "stopType": "MUNICIPAL_BUS",
    "shortStopName": null,
    "Position": {
      "stopLongitude": "72.56536",
      "stopLatitude": "23.063785"
    },
    "RouteCodes": null,
    "Sequence": 25,
    "routeFlow": null
  },
  {
    "stopName": "Purushottamnagar (Nava Vadaj)",
    "stopCode": 2104,
    "stationCode": 2397,
    "stopType": "MUNICIPAL_BUS",
    "shortStopName": null,
    "Position": {
      "stopLongitude": "72.567251",
      "stopLatitude": "23.061778"
    },
    "RouteCodes": null,
    "Sequence": 26,
    "routeFlow": null
  },
  {
    "stopName": "Bhimjipura",
    "stopCode": 2105,
    "stationCode": 1299,
    "stopType": "MUNICIPAL_BUS",
    "shortStopName": null,
    "Position": {
      "stopLongitude": "72.568108",
      "stopLatitude": "23.059473"
    },
    "RouteCodes": null,
    "Sequence": 27,
    "routeFlow": null
  },
  {
    "stopName": "Tulsishyam Society",
    "stopCode": 2106,
    "stationCode": 2958,
    "stopType": "MUNICIPAL_BUS",
    "shortStopName": null,
    "Position": {
      "stopLongitude": "72.56928",
      "stopLatitude": "23.058035"
    },
    "RouteCodes": null,
    "Sequence": 28,
    "routeFlow": null
  },
  {
    "stopName": "Champaner Society",
    "stopCode": 2108,
    "stationCode": 1348,
    "stopType": "MUNICIPAL_BUS",
    "shortStopName": null,
    "Position": {
      "stopLongitude": "72.571363",
      "stopLatitude": "23.050541"
    },
    "RouteCodes": null,
    "Sequence": 31,
    "routeFlow": null
  },
  {
    "stopName": "Gujarat Vidyapith",
    "stopCode": 2110,
    "stationCode": 1627,
    "stopType": "MUNICIPAL_BUS",
    "shortStopName": null,
    "Position": {
      "stopLongitude": "72.569903",
      "stopLatitude": "23.043365"
    },
    "RouteCodes": null,
    "Sequence": 33,
    "routeFlow": null
  },
  {
    "stopName": "Sanjivani Hospital",
    "stopCode": 2272,
    "stationCode": 2581,
    "stopType": "MUNICIPAL_BUS",
    "shortStopName": null,
    "Position": {
      "stopLongitude": "72.570053",
      "stopLatitude": "23.057371"
    },
    "RouteCodes": null,
    "Sequence": 29,
    "routeFlow": null
  },
  {
    "stopName": "Income Tax Office",
    "stopCode": 2273,
    "stationCode": 1705,
    "stopType": "MUNICIPAL_BUS",
    "shortStopName": null,
    "Position": {
      "stopLongitude": "72.569608",
      "stopLatitude": "23.041513"
    },
    "RouteCodes": null,
    "Sequence": 34,
    "routeFlow": null
  },
  {
    "stopName": "Chuval Society",
    "stopCode": 2793,
    "stationCode": 1396,
    "stopType": "MUNICIPAL_BUS",
    "shortStopName": null,
    "Position": {
      "stopLongitude": "72.548245",
      "stopLatitude": "23.081501"
    },
    "RouteCodes": null,
    "Sequence": 17,
    "routeFlow": null
  },
  {
    "stopName": "Chandlodiya Gam",
    "stopCode": 2794,
    "stationCode": 1360,
    "stopType": "MUNICIPAL_BUS",
    "shortStopName": null,
    "Position": {
      "stopLongitude": "72.549953",
      "stopLatitude": "23.080638"
    },
    "RouteCodes": null,
    "Sequence": 18,
    "routeFlow": null
  },
  {
    "stopName": "Arjun Ashram",
    "stopCode": 2795,
    "stationCode": 1156,
    "stopType": "MUNICIPAL_BUS",
    "shortStopName": null,
    "Position": {
      "stopLongitude": "72.553091",
      "stopLatitude": "23.078856"
    },
    "RouteCodes": null,
    "Sequence": 19,
    "routeFlow": null
  },
  {
    "stopName": "Dhanjibhaino Kuvo",
    "stopCode": 2796,
    "stationCode": 1455,
    "stopType": "MUNICIPAL_BUS",
    "shortStopName": null,
    "Position": {
      "stopLongitude": "72.555455",
      "stopLatitude": "23.076505"
    },
    "RouteCodes": null,
    "Sequence": 20,
    "routeFlow": null
  },
  {
    "stopName": "Deshwali Society",
    "stopCode": 2797,
    "stationCode": 1433,
    "stopType": "MUNICIPAL_BUS",
    "shortStopName": null,
    "Position": {
      "stopLongitude": "72.556581",
      "stopLatitude": "23.075158"
    },
    "RouteCodes": null,
    "Sequence": 21,
    "routeFlow": null
  },
  {
    "stopName": "Usmanpura",
    "stopCode": 2863,
    "stationCode": 2975,
    "stopType": "MUNICIPAL_BUS",
    "shortStopName": null,
    "Position": {
      "stopLongitude": "72.570203",
      "stopLatitude": "23.045203"
    },
    "RouteCodes": null,
    "Sequence": 32,
    "routeFlow": null
  },
  {
    "stopName": "Vadaj",
    "stopCode": 3232,
    "stationCode": 2978,
    "stopType": "MUNICIPAL_BUS",
    "shortStopName": null,
    "Position": {
      "stopLongitude": "72.571758",
      "stopLatitude": "23.054121"
    },
    "RouteCodes": null,
    "Sequence": 30,
    "routeFlow": null
  },
  {
    "stopName": "Sayona Tilak-1 (Jagatpur)",
    "stopCode": 5035,
    "stationCode": 2666,
    "stopType": "MUNICIPAL_BUS",
    "shortStopName": null,
    "Position": {
      "stopLongitude": "72.547735",
      "stopLatitude": "23.09853"
    },
    "RouteCodes": null,
    "Sequence": 6,
    "routeFlow": null
  },
  {
    "stopName": "Vandematram Icon",
    "stopCode": 5036,
    "stationCode": 3008,
    "stopType": "MUNICIPAL_BUS",
    "shortStopName": null,
    "Position": {
      "stopLongitude": "72.54734",
      "stopLatitude": "23.097355"
    },
    "RouteCodes": null,
    "Sequence": 7,
    "routeFlow": null
  },
  {
    "stopName": "Vandematram Arcade",
    "stopCode": 5037,
    "stationCode": 3007,
    "stopType": "MUNICIPAL_BUS",
    "shortStopName": null,
    "Position": {
      "stopLongitude": "72.546485",
      "stopLatitude": "23.094961"
    },
    "RouteCodes": null,
    "Sequence": 8,
    "routeFlow": null
  },
  {
    "stopName": "Shukan Residency",
    "stopCode": 5038,
    "stationCode": 2775,
    "stopType": "MUNICIPAL_BUS",
    "shortStopName": null,
    "Position": {
      "stopLongitude": "72.545943",
      "stopLatitude": "23.093506"
    },
    "RouteCodes": null,
    "Sequence": 9,
    "routeFlow": null
  },
  {
    "stopName": "Shrinath Avenue",
    "stopCode": 5039,
    "stationCode": 2756,
    "stopType": "MUNICIPAL_BUS",
    "shortStopName": null,
    "Position": {
      "stopLongitude": "72.545391",
      "stopLatitude": "23.091956"
    },
    "RouteCodes": null,
    "Sequence": 10,
    "routeFlow": null
  },
  {
    "stopName": "Vishwas City-3",
    "stopCode": 5040,
    "stationCode": 3073,
    "stopType": "MUNICIPAL_BUS",
    "shortStopName": null,
    "Position": {
      "stopLongitude": "72.544596",
      "stopLatitude": "23.089698"
    },
    "RouteCodes": null,
    "Sequence": 11,
    "routeFlow": null
  },
  {
    "stopName": "Simran Avenue",
    "stopCode": 5041,
    "stationCode": 2800,
    "stopType": "MUNICIPAL_BUS",
    "shortStopName": null,
    "Position": {
      "stopLongitude": "72.547911",
      "stopLatitude": "23.086138"
    },
    "RouteCodes": null,
    "Sequence": 14,
    "routeFlow": null
  },
  {
    "stopName": "Shriji Residency",
    "stopCode": 5042,
    "stationCode": 2748,
    "stopType": "MUNICIPAL_BUS",
    "shortStopName": null,
    "Position": {
      "stopLongitude": "72.548196",
      "stopLatitude": "23.084568"
    },
    "RouteCodes": null,
    "Sequence": 15,
    "routeFlow": null
  },
  {
    "stopName": "Silver Star Mall",
    "stopCode": 5043,
    "stationCode": 2797,
    "stopType": "MUNICIPAL_BUS",
    "shortStopName": null,
    "Position": {
      "stopLongitude": "72.546859",
      "stopLatitude": "23.083183"
    },
    "RouteCodes": null,
    "Sequence": 16,
    "routeFlow": null
  },
  {
    "stopName": "Madhav Farm",
    "stopCode": 5298,
    "stationCode": 1984,
    "stopType": "MUNICIPAL_BUS",
    "shortStopName": null,
    "Position": {
      "stopLongitude": "72.547593",
      "stopLatitude": "23.087533"
    },
    "RouteCodes": null,
    "Sequence": 13,
    "routeFlow": null
  },
  {
    "stopName": "Shubhmangal society",
    "stopCode": 5729,
    "stationCode": 2771,
    "stopType": "MUNICIPAL_BUS",
    "shortStopName": null,
    "Position": {
      "stopLongitude": "72.547176",
      "stopLatitude": "23.089343"
    },
    "RouteCodes": null,
    "Sequence": 12,
    "routeFlow": null
  },
  {
    "stopName": "Godrejcity Phase-1",
    "stopCode": 8410,
    "stationCode": 1563,
    "stopType": "MUNICIPAL_BUS",
    "shortStopName": null,
    "Position": {
      "stopLongitude": "72.554341",
      "stopLatitude": "23.113851"
    },
    "RouteCodes": null,
    "Sequence": 1,
    "routeFlow": null
  },
  {
    "stopName": "Sevi Swaraj",
    "stopCode": 8413,
    "stationCode": 2674,
    "stopType": "MUNICIPAL_BUS",
    "shortStopName": null,
    "Position": {
      "stopLongitude": "72.549835",
      "stopLatitude": "23.103842"
    },
    "RouteCodes": null,
    "Sequence": 4,
    "routeFlow": null
  },
  {
    "stopName": "Jagatpur Cross Road",
    "stopCode": 9223,
    "stationCode": 6344,
    "stopType": "MUNICIPAL_BUS",
    "shortStopName": null,
    "Position": {
      "stopLongitude": "72.552334",
      "stopLatitude": "23.107959"
    },
    "RouteCodes": null,
    "Sequence": 3,
    "routeFlow": null
  },
  {
    "stopName": "Orchard Char Rasta",
    "stopCode": 9225,
    "stationCode": 6345,
    "stopType": "MUNICIPAL_BUS",
    "shortStopName": null,
    "Position": {
      "stopLongitude": "72.553707",
      "stopLatitude": "23.111245"
    },
    "RouteCodes": null,
    "Sequence": 2,
    "routeFlow": null
  }
]