[
  {
    "stopName": "Sardarbag",
    "stopCode": 1127,
    "stationCode": 2611,
    "stopType": "MUNICIPAL_BUS",
    "shortStopName": null,
    "Position": {
      "stopLongitude": "72.578883",
      "stopLatitude": "23.027145"
    },
    "RouteCodes": null,
    "Sequence": 21,
    "routeFlow": "LINESTRING (72.61106 22.99886, 72.6113 22.99836, 72.61107 22.99827, 72.61015 22.9978, 72.6094 22.99752, 72.60906 22.99742, 72.60852 22.9973, 72.60852 22.9973, 72.6082 22.99722, 72.60742 22.99715, 72.60597 22.99717, 72.60529 22.99721, 72.60466 22.99725, 72.60405 22.99742, 72.60372 22.99752, 72.60372 22.99747, 72.60372 22.99747, 72.60372 22.99752, 72.60353 22.9976, 72.60306 22.99783, 72.60274 22.99794, 72.60227 22.99821, 72.6019 22.99845, 72.60162 22.99866, 72.60162 22.99866, 72.60122 22.99907, 72.60084 22.99948, 72.60068 22.9997, 72.60048 23.00004, 72.60023 23.00048, 72.60023 23.00048, 72.59977 23.00127, 72.59946 23.00184, 72.59938 23.00202, 72.59917 23.00251, 72.59908 23.00261, 72.59833 23.00288, 72.5982 23.00296, 72.59811 23.00308, 72.59802 23.00326, 72.59802 23.00326, 72.59791 23.00355, 72.59726 23.00341, 72.59684 23.0033, 72.59639 23.00319, 72.59639 23.00319, 72.59536 23.00291, 72.59395 23.00259, 72.59395 23.00259, 72.5934 23.00247, 72.59258 23.00225, 72.59153 23.00202, 72.59153 23.00202, 72.58998 23.0017, 72.58998 23.0017, 72.58957 23.0016, 72.58945 23.00157, 72.58943 23.00164, 72.58943 23.00169, 72.5895 23.00237, 72.58963 23.00295, 72.58975 23.00332, 72.58987 23.00365, 72.58987 23.00365, 72.59005 23.00414, 72.59073 23.00586, 72.59073 23.00586, 72.59109 23.00682, 72.5914 23.00762, 72.59143 23.00775, 72.59149 23.00804, 72.59156 23.0093, 72.59156 23.0093, 72.59156 23.01009, 72.59155 23.01049, 72.59144 23.01135, 72.5913 23.01324, 72.5913 23.01324, 72.59129 23.01346, 72.59136 23.01363, 72.59133 23.01383, 72.59132 23.01392, 72.59144 23.01405, 72.59167 23.01422, 72.59212 23.01456, 72.59239 23.01486, 72.59264 23.01522, 72.59271 23.01539, 72.59275 23.01558, 72.59278 23.01655, 72.59272 23.0168, 72.59228 23.01678, 72.592181 23.016819, 72.591479 23.016803, 72.591226 23.016791, 72.591143 23.016767, 72.59107 23.01671, 72.59104 23.01669, 72.59096 23.01667, 72.59087 23.0167, 72.59081 23.01675, 72.590589 23.016843, 72.590368 23.016909, 72.590131 23.017065, 72.589977 23.017222, 72.589876 23.017367, 72.589708 23.017639, 72.589555 23.017981, 72.589486 23.018157, 72.589337 23.018293, 72.589074 23.018433, 72.588858 23.018517, 72.58862 23.018582, 72.588624 23.018588, 72.588165 23.018775, 72.587761 23.018906, 72.587329 23.019069, 72.587007 23.019178, 72.586716 23.019284, 72.586514 23.019386, 72.586372 23.019499, 72.586213 23.019557, 72.586217 23.01956, 72.586052 23.019819, 72.58588 23.020013, 72.585746 23.020152, 72.585596 23.020292, 72.585213 23.020666, 72.584854 23.020979, 72.58464 23.021102, 72.584446 23.021203, 72.584206 23.02131, 72.584101 23.02135, 72.583996 23.021378, 72.583456 23.021474, 72.583046 23.021533, 72.582758 23.021512, 72.582747 23.021522, 72.582155 23.021672, 72.581547 23.021793, 72.580838 23.021898, 72.58045 23.0219, 72.58045 23.0219, 72.57995 23.02198, 72.5796 23.02204, 72.5796 23.02212, 72.57959 23.02226, 72.57956 23.02302, 72.57949 23.02352, 72.57923 23.02351, 72.57914 23.02354, 72.57906 23.0237, 72.57904 23.02434, 72.57864 23.02437, 72.57853 23.02437, 72.57853 23.02444, 72.57853 23.02444, 72.57853 23.02437, 72.57864 23.02437, 72.57904 23.02434, 72.57904 23.02503, 72.57916 23.02504, 72.57974 23.02504, 72.58001 23.025, 72.58037 23.02497, 72.58054 23.02503, 72.58064 23.02513, 72.58063 23.02567, 72.58059 23.02624, 72.58064 23.02715, 72.58054 23.02724, 72.5804 23.02727, 72.5799 23.02726, 72.57888 23.0272, 72.57888 23.02719, 72.57778 23.02711, 72.57124 23.02658, 72.57112 23.02658, 72.57111 23.02667, 72.57103 23.02737, 72.57096 23.02782, 72.57084 23.02829, 72.57071 23.02865, 72.57071 23.02865, 72.57046 23.02941, 72.57045 23.02961, 72.57046 23.02994, 72.57046 23.02994, 72.57053 23.03069, 72.57056 23.03094, 72.57057 23.03125, 72.57051 23.03155, 72.57034 23.03195, 72.57018 23.03227, 72.56999 23.03272, 72.56998 23.03275, 72.56939 23.03413, 72.5691 23.03478, 72.56895 23.0352, 72.56895 23.0352, 72.56885 23.03561, 72.56882 23.03595, 72.5688 23.0364, 72.56882 23.03684, 72.56888 23.03738, 72.56888 23.03738, 72.56913 23.03902, 72.56925 23.0399, 72.56932 23.04063, 72.56952 23.04214, 72.56945 23.04214, 72.56961 23.04307, 72.56961 23.04307, 72.57001 23.0453, 72.57014 23.04614, 72.57024 23.0466, 72.57029 23.04674, 72.57043 23.04706, 72.57065 23.04743, 72.57082 23.04771, 72.57093 23.04794, 72.571 23.04824, 72.57101 23.0483, 72.57101 23.0483, 72.57112 23.04925, 72.57126 23.05088, 72.57126 23.05088, 72.57146 23.05381, 72.57153 23.05509, 72.57153 23.05509, 72.57157 23.0555, 72.5716 23.05564, 72.57158 23.05574, 72.5716 23.05583, 72.57167 23.0559, 72.57179 23.05595, 72.57187 23.05596, 72.57219 23.05598, 72.57245 23.05599, 72.57276 23.05604, 72.57488 23.05625, 72.5751 23.05628, 72.57549 23.05636, 72.57577 23.05647, 72.57591 23.05656, 72.57716 23.05761, 72.57835 23.05863, 72.57834 23.05865, 72.57904 23.05923, 72.5788 23.0594, 72.57858 23.05958, 72.5783 23.05998, 72.57776 23.06081, 72.57719 23.06169, 72.57697 23.06207, 72.57682 23.0624, 72.57648 23.06318, 72.5761 23.064, 72.57602 23.06414, 72.57587 23.06431, 72.5749 23.06513, 72.57467 23.06533, 72.57462 23.06537, 72.57467 23.06545, 72.57479 23.06559, 72.57503 23.0658, 72.57523 23.06595, 72.57548 23.06613, 72.57569 23.0663, 72.57592 23.06652, 72.5762 23.06693, 72.57629 23.06712, 72.57634 23.06729, 72.57638 23.06757, 72.57618 23.06756, 72.57541 23.06756, 72.57541 23.06756, 72.57503 23.06756, 72.57501 23.06761, 72.57498 23.06773, 72.57639 23.06777, 72.57655 23.06776, 72.57736 23.06776, 72.57763 23.06778, 72.5781 23.06788, 72.57863 23.06801, 72.58006 23.06835, 72.5802 23.06839, 72.5802 23.06839, 72.58098 23.06857, 72.58149 23.06875, 72.58154 23.06883, 72.58162 23.06888, 72.58172 23.06893, 72.58178 23.06896, 72.58205 23.06904, 72.58345 23.06925, 72.58418 23.06936, 72.58478 23.06946, 72.58508 23.06948, 72.58624 23.06942, 72.58701 23.06941, 72.58766 23.06955, 72.58887 23.06984, 72.58918 23.06996, 72.58936 23.0701, 72.58958 23.07036, 72.58975 23.07059, 72.59023 23.07123, 72.59156 23.07283, 72.59203 23.07344, 72.59176 23.07391, 72.59154 23.07422, 72.59154 23.07422, 72.59144 23.07438, 72.59136 23.07455, 72.59024 23.07734, 72.59 23.07786, 72.59 23.07786, 72.58966 23.07864, 72.58959 23.07879, 72.58959 23.07889, 72.58989 23.07977, 72.58994 23.07999, 72.58999 23.08031, 72.59003 23.08065, 72.59003 23.08065, 72.59008 23.08103, 72.59008 23.08114, 72.59029 23.08237, 72.5903 23.08247, 72.5903 23.08247, 72.59032 23.08272, 72.59036 23.08278, 72.59062 23.0831, 72.59074 23.08333, 72.59094 23.08331, 72.5917 23.08336, 72.5925 23.08342, 72.59264 23.08343, 72.5925 23.08386, 72.5925 23.08386, 72.59179 23.08604, 72.59147 23.0871, 72.59147 23.0871, 72.591 23.08863, 72.59058 23.09008, 72.59042 23.09059, 72.59042 23.09059, 72.5901 23.09164, 72.58955 23.09375, 72.58915 23.09521, 72.58904 23.09558, 72.58904 23.09558, 72.58858 23.09701, 72.58828 23.09806, 72.58823 23.0981, 72.58819 23.09818, 72.58819 23.09826, 72.58821 23.09832, 72.5881 23.09868, 72.58801 23.09898, 72.58801 23.09898, 72.58653 23.10356, 72.58632 23.10428, 72.58632 23.10428, 72.58502 23.10841, 72.58502 23.10841, 72.58435 23.11054, 72.58435 23.11054, 72.58408 23.1114, 72.58388 23.11201, 72.58356 23.1131, 72.58293 23.11525, 72.58259 23.11621, 72.58264 23.11625, 72.58234 23.11717, 72.58221 23.11751, 72.58211 23.11777, 72.58202 23.11813, 72.58199 23.11829, 72.58197 23.11864, 72.58195 23.11904, 72.58195 23.11948, 72.58196 23.11956, 72.58196 23.11956, 72.58199 23.11982, 72.582 23.11988, 72.58192 23.11992, 72.58163 23.11997, 72.58091 23.12007, 72.58042 23.12014, 72.58042 23.12014, 72.57989 23.12021, 72.5797 23.12025, 72.57952 23.12023, 72.57935 23.12025, 72.57922 23.12026, 72.57818 23.12041, 72.5776 23.12046, 72.57761 23.12055, 72.57762 23.12067, 72.57764 23.12067, 72.5778 23.12344, 72.57841 23.12333, 72.57841 23.12333, 72.57993 23.1231, 72.57993 23.1231, 72.58066 23.12298, 72.58101 23.12288)"
  },
  {
    "stopName": "Mount Carmel School",
    "stopCode": 1151,
    "stationCode": 2102,
    "stopType": "MUNICIPAL_BUS",
    "shortStopName": null,
    "Position": {
      "stopLongitude": "72.568942",
      "stopLatitude": "23.035201"
    },
    "RouteCodes": null,
    "Sequence": 25,
    "routeFlow": null
  },
  {
    "stopName": "Maninagar",
    "stopCode": 1310,
    "stationCode": 2042,
    "stopType": "MUNICIPAL_BUS",
    "shortStopName": null,
    "Position": {
      "stopLongitude": "72.610973",
      "stopLatitude": "22.998831"
    },
    "RouteCodes": null,
    "Sequence": 1,
    "routeFlow": null
  },
  {
    "stopName": "Chandkheda Gam",
    "stopCode": 1653,
    "stationCode": 1359,
    "stopType": "MUNICIPAL_BUS",
    "shortStopName": null,
    "Position": {
      "stopLongitude": "72.582648",
      "stopLatitude": "23.116256"
    },
    "RouteCodes": null,
    "Sequence": 47,
    "routeFlow": null
  },
  {
    "stopName": "Astodiya Darwaja (BRT)",
    "stopCode": 1719,
    "stationCode": 99,
    "stopType": "MUNICIPAL_BUS",
    "shortStopName": null,
    "Position": {
      "stopLongitude": "72.592286",
      "stopLatitude": "23.016735"
    },
    "RouteCodes": null,
    "Sequence": 15,
    "routeFlow": null
  },
  {
    "stopName": "Astodiya Chakla (BRT)",
    "stopCode": 1720,
    "stationCode": 98,
    "stopType": "MUNICIPAL_BUS",
    "shortStopName": null,
    "Position": {
      "stopLongitude": "72.58864",
      "stopLatitude": "23.018541"
    },
    "RouteCodes": null,
    "Sequence": 16,
    "routeFlow": null
  },
  {
    "stopName": "Municipal Corporation Office (BRT)",
    "stopCode": 1721,
    "stationCode": 97,
    "stopType": "MUNICIPAL_BUS",
    "shortStopName": null,
    "Position": {
      "stopLongitude": "72.586225",
      "stopLatitude": "23.019555"
    },
    "RouteCodes": null,
    "Sequence": 17,
    "routeFlow": null
  },
  {
    "stopName": "Raikhad Char Rasta (BRT)",
    "stopCode": 1722,
    "stationCode": 96,
    "stopType": "MUNICIPAL_BUS",
    "shortStopName": null,
    "Position": {
      "stopLongitude": "72.58282",
      "stopLatitude": "23.021478"
    },
    "RouteCodes": null,
    "Sequence": 18,
    "routeFlow": null
  },
  {
    "stopName": "Lokamanya Tilak Bag (BRT)",
    "stopCode": 1723,
    "stationCode": 95,
    "stopType": "MUNICIPAL_BUS",
    "shortStopName": null,
    "Position": {
      "stopLongitude": "72.580446",
      "stopLatitude": "23.021858"
    },
    "RouteCodes": null,
    "Sequence": 19,
    "routeFlow": null
  },
  {
    "stopName": "Income Tax Office",
    "stopCode": 2030,
    "stationCode": 1705,
    "stopType": "MUNICIPAL_BUS",
    "shortStopName": null,
    "Position": {
      "stopLongitude": "72.569513",
      "stopLatitude": "23.042136"
    },
    "RouteCodes": null,
    "Sequence": 27,
    "routeFlow": null
  },
  {
    "stopName": "Usmanpura",
    "stopCode": 2031,
    "stationCode": 2975,
    "stopType": "MUNICIPAL_BUS",
    "shortStopName": null,
    "Position": {
      "stopLongitude": "72.570955",
      "stopLatitude": "23.048301"
    },
    "RouteCodes": null,
    "Sequence": 29,
    "routeFlow": null
  },
  {
    "stopName": "Champaner Society",
    "stopCode": 2032,
    "stationCode": 1348,
    "stopType": "MUNICIPAL_BUS",
    "shortStopName": null,
    "Position": {
      "stopLongitude": "72.57131",
      "stopLatitude": "23.050876"
    },
    "RouteCodes": null,
    "Sequence": 30,
    "routeFlow": null
  },
  {
    "stopName": "Vadaj",
    "stopCode": 2033,
    "stationCode": 2978,
    "stopType": "MUNICIPAL_BUS",
    "shortStopName": null,
    "Position": {
      "stopLongitude": "72.571524",
      "stopLatitude": "23.055089"
    },
    "RouteCodes": null,
    "Sequence": 31,
    "routeFlow": null
  },
  {
    "stopName": "Maninagar Char Rasta",
    "stopCode": 2144,
    "stationCode": 2043,
    "stopType": "MUNICIPAL_BUS",
    "shortStopName": null,
    "Position": {
      "stopLongitude": "72.60852",
      "stopLatitude": "22.997301"
    },
    "RouteCodes": null,
    "Sequence": 2,
    "routeFlow": null
  },
  {
    "stopName": "Krushna bag",
    "stopCode": 2145,
    "stationCode": 1924,
    "stopType": "MUNICIPAL_BUS",
    "shortStopName": null,
    "Position": {
      "stopLongitude": "72.603748",
      "stopLatitude": "22.997472"
    },
    "RouteCodes": null,
    "Sequence": 3,
    "routeFlow": null
  },
  {
    "stopName": "Rambag",
    "stopCode": 2146,
    "stationCode": 2464,
    "stopType": "MUNICIPAL_BUS",
    "shortStopName": null,
    "Position": {
      "stopLongitude": "72.601631",
      "stopLatitude": "22.998668"
    },
    "RouteCodes": null,
    "Sequence": 4,
    "routeFlow": null
  },
  {
    "stopName": "Shelat Bhuvan",
    "stopCode": 2147,
    "stationCode": 2712,
    "stopType": "MUNICIPAL_BUS",
    "shortStopName": null,
    "Position": {
      "stopLongitude": "72.600238",
      "stopLatitude": "23.000483"
    },
    "RouteCodes": null,
    "Sequence": 5,
    "routeFlow": null
  },
  {
    "stopName": "Pushpakunj-Shukladada Chowk",
    "stopCode": 2148,
    "stationCode": 2400,
    "stopType": "MUNICIPAL_BUS",
    "shortStopName": null,
    "Position": {
      "stopLongitude": "72.598013",
      "stopLatitude": "23.003255"
    },
    "RouteCodes": null,
    "Sequence": 6,
    "routeFlow": null
  },
  {
    "stopName": "Gordhanwadi",
    "stopCode": 2149,
    "stationCode": 1587,
    "stopType": "MUNICIPAL_BUS",
    "shortStopName": null,
    "Position": {
      "stopLongitude": "72.596388",
      "stopLatitude": "23.003195"
    },
    "RouteCodes": null,
    "Sequence": 7,
    "routeFlow": null
  },
  {
    "stopName": "Amrakunj",
    "stopCode": 2150,
    "stationCode": 1120,
    "stopType": "MUNICIPAL_BUS",
    "shortStopName": null,
    "Position": {
      "stopLongitude": "72.593941",
      "stopLatitude": "23.002616"
    },
    "RouteCodes": null,
    "Sequence": 8,
    "routeFlow": null
  },
  {
    "stopName": "Shahalam Tollnaka",
    "stopCode": 2152,
    "stationCode": 2679,
    "stopType": "MUNICIPAL_BUS",
    "shortStopName": null,
    "Position": {
      "stopLongitude": "72.589975",
      "stopLatitude": "23.001698"
    },
    "RouteCodes": null,
    "Sequence": 10,
    "routeFlow": null
  },
  {
    "stopName": "Mangal Park",
    "stopCode": 2153,
    "stationCode": 2031,
    "stopType": "MUNICIPAL_BUS",
    "shortStopName": null,
    "Position": {
      "stopLongitude": "72.589883",
      "stopLatitude": "23.003648"
    },
    "RouteCodes": null,
    "Sequence": 11,
    "routeFlow": null
  },
  {
    "stopName": "Bhulabhai Park",
    "stopCode": 2154,
    "stationCode": 1302,
    "stopType": "MUNICIPAL_BUS",
    "shortStopName": null,
    "Position": {
      "stopLongitude": "72.590783",
      "stopLatitude": "23.005848"
    },
    "RouteCodes": null,
    "Sequence": 12,
    "routeFlow": null
  },
  {
    "stopName": "Majur Gam",
    "stopCode": 2155,
    "stationCode": 2016,
    "stopType": "MUNICIPAL_BUS",
    "shortStopName": null,
    "Position": {
      "stopLongitude": "72.591615",
      "stopLatitude": "23.009293"
    },
    "RouteCodes": null,
    "Sequence": 13,
    "routeFlow": null
  },
  {
    "stopName": "Nataraj Cinema",
    "stopCode": 2160,
    "stationCode": 2182,
    "stopType": "MUNICIPAL_BUS",
    "shortStopName": null,
    "Position": {
      "stopLongitude": "72.570706",
      "stopLatitude": "23.028653"
    },
    "RouteCodes": null,
    "Sequence": 22,
    "routeFlow": null
  },
  {
    "stopName": "Vallabhsadan",
    "stopCode": 2161,
    "stationCode": 3005,
    "stopType": "MUNICIPAL_BUS",
    "shortStopName": null,
    "Position": {
      "stopLongitude": "72.570475",
      "stopLatitude": "23.029938"
    },
    "RouteCodes": null,
    "Sequence": 23,
    "routeFlow": null
  },
  {
    "stopName": "Mill Owners Association",
    "stopCode": 2162,
    "stationCode": 2082,
    "stopType": "MUNICIPAL_BUS",
    "shortStopName": null,
    "Position": {
      "stopLongitude": "72.570033",
      "stopLatitude": "23.032731"
    },
    "RouteCodes": null,
    "Sequence": 24,
    "routeFlow": null
  },
  {
    "stopName": "Gujarat Vidyapith",
    "stopCode": 2163,
    "stationCode": 1627,
    "stopType": "MUNICIPAL_BUS",
    "shortStopName": null,
    "Position": {
      "stopLongitude": "72.56962",
      "stopLatitude": "23.043068"
    },
    "RouteCodes": null,
    "Sequence": 28,
    "routeFlow": null
  },
  {
    "stopName": "Chandrabhaga Bridge",
    "stopCode": 2164,
    "stationCode": 1364,
    "stopType": "MUNICIPAL_BUS",
    "shortStopName": null,
    "Position": {
      "stopLongitude": "72.578313",
      "stopLatitude": "23.058668"
    },
    "RouteCodes": null,
    "Sequence": 32,
    "routeFlow": null
  },
  {
    "stopName": "Dharmnagar",
    "stopCode": 2175,
    "stationCode": 1457,
    "stopType": "MUNICIPAL_BUS",
    "shortStopName": null,
    "Position": {
      "stopLongitude": "72.590011",
      "stopLatitude": "23.077861"
    },
    "RouteCodes": null,
    "Sequence": 36,
    "routeFlow": null
  },
  {
    "stopName": "Abu-Koba Cross Road",
    "stopCode": 2181,
    "stationCode": 1059,
    "stopType": "MUNICIPAL_BUS",
    "shortStopName": null,
    "Position": {
      "stopLongitude": "72.59147",
      "stopLatitude": "23.087103"
    },
    "RouteCodes": null,
    "Sequence": 40,
    "routeFlow": null
  },
  {
    "stopName": "Acher Depot",
    "stopCode": 2182,
    "stationCode": 1061,
    "stopType": "MUNICIPAL_BUS",
    "shortStopName": null,
    "Position": {
      "stopLongitude": "72.590408",
      "stopLatitude": "23.09059"
    },
    "RouteCodes": null,
    "Sequence": 41,
    "routeFlow": null
  },
  {
    "stopName": "Lakshminagar",
    "stopCode": 2183,
    "stationCode": 1954,
    "stopType": "MUNICIPAL_BUS",
    "shortStopName": null,
    "Position": {
      "stopLongitude": "72.589051",
      "stopLatitude": "23.095581"
    },
    "RouteCodes": null,
    "Sequence": 42,
    "routeFlow": null
  },
  {
    "stopName": "Motera Road",
    "stopCode": 2184,
    "stationCode": 2098,
    "stopType": "MUNICIPAL_BUS",
    "shortStopName": null,
    "Position": {
      "stopLongitude": "72.587993",
      "stopLatitude": "23.098973"
    },
    "RouteCodes": null,
    "Sequence": 43,
    "routeFlow": null
  },
  {
    "stopName": "O.N.G.C. Office",
    "stopCode": 2185,
    "stationCode": 2253,
    "stopType": "MUNICIPAL_BUS",
    "shortStopName": null,
    "Position": {
      "stopLongitude": "72.586303",
      "stopLatitude": "23.104276"
    },
    "RouteCodes": null,
    "Sequence": 44,
    "routeFlow": null
  },
  {
    "stopName": "Parshwanathnagar",
    "stopCode": 2186,
    "stationCode": 2317,
    "stopType": "MUNICIPAL_BUS",
    "shortStopName": null,
    "Position": {
      "stopLongitude": "72.585001",
      "stopLatitude": "23.108403"
    },
    "RouteCodes": null,
    "Sequence": 45,
    "routeFlow": null
  },
  {
    "stopName": "Shivshakti Nagar (Chandkheda)",
    "stopCode": 2187,
    "stationCode": 2730,
    "stopType": "MUNICIPAL_BUS",
    "shortStopName": null,
    "Position": {
      "stopLongitude": "72.584356",
      "stopLatitude": "23.110545"
    },
    "RouteCodes": null,
    "Sequence": 46,
    "routeFlow": null
  },
  {
    "stopName": "Satyamev Hospital",
    "stopCode": 2188,
    "stationCode": 2657,
    "stopType": "MUNICIPAL_BUS",
    "shortStopName": null,
    "Position": {
      "stopLongitude": "72.581965",
      "stopLatitude": "23.119554"
    },
    "RouteCodes": null,
    "Sequence": 48,
    "routeFlow": null
  },
  {
    "stopName": "Prahlad Park",
    "stopCode": 2189,
    "stationCode": 3109,
    "stopType": "MUNICIPAL_BUS",
    "shortStopName": null,
    "Position": {
      "stopLongitude": "72.580416",
      "stopLatitude": "23.120114"
    },
    "RouteCodes": null,
    "Sequence": 49,
    "routeFlow": null
  },
  {
    "stopName": "Suryan Hope Town",
    "stopCode": 2191,
    "stationCode": 2879,
    "stopType": "MUNICIPAL_BUS",
    "shortStopName": null,
    "Position": {
      "stopLongitude": "72.5776",
      "stopLatitude": "23.120671"
    },
    "RouteCodes": null,
    "Sequence": 50,
    "routeFlow": null
  },
  {
    "stopName": "Kumkum Residency",
    "stopCode": 2192,
    "stationCode": 1937,
    "stopType": "MUNICIPAL_BUS",
    "shortStopName": null,
    "Position": {
      "stopLongitude": "72.578404",
      "stopLatitude": "23.123324"
    },
    "RouteCodes": null,
    "Sequence": 51,
    "routeFlow": null
  },
  {
    "stopName": "Shyam Satya",
    "stopCode": 2193,
    "stationCode": 2778,
    "stopType": "MUNICIPAL_BUS",
    "shortStopName": null,
    "Position": {
      "stopLongitude": "72.579933",
      "stopLatitude": "23.123106"
    },
    "RouteCodes": null,
    "Sequence": 52,
    "routeFlow": null
  },
  {
    "stopName": "Chandkheda (Sarthi Bunglows)",
    "stopCode": 2194,
    "stationCode": 1357,
    "stopType": "MUNICIPAL_BUS",
    "shortStopName": null,
    "Position": {
      "stopLongitude": "72.581004",
      "stopLatitude": "23.122871"
    },
    "RouteCodes": null,
    "Sequence": 53,
    "routeFlow": null
  },
  {
    "stopName": "Ramnagar",
    "stopCode": 2425,
    "stationCode": 2471,
    "stopType": "MUNICIPAL_BUS",
    "shortStopName": null,
    "Position": {
      "stopLongitude": "72.590326",
      "stopLatitude": "23.082466"
    },
    "RouteCodes": null,
    "Sequence": 38,
    "routeFlow": null
  },
  {
    "stopName": "Chintamani Society",
    "stopCode": 2426,
    "stationCode": 1387,
    "stopType": "MUNICIPAL_BUS",
    "shortStopName": null,
    "Position": {
      "stopLongitude": "72.592505",
      "stopLatitude": "23.08386"
    },
    "RouteCodes": null,
    "Sequence": 39,
    "routeFlow": null
  },
  {
    "stopName": "Somnath Mahadev",
    "stopCode": 3907,
    "stationCode": 5090,
    "stopType": "MUNICIPAL_BUS",
    "shortStopName": null,
    "Position": {
      "stopLongitude": "72.591533",
      "stopLatitude": "23.002013"
    },
    "RouteCodes": null,
    "Sequence": 9,
    "routeFlow": null
  },
  {
    "stopName": "S.T. Stand",
    "stopCode": 3908,
    "stationCode": 2526,
    "stopType": "MUNICIPAL_BUS",
    "shortStopName": null,
    "Position": {
      "stopLongitude": "72.5913",
      "stopLatitude": "23.013236"
    },
    "RouteCodes": null,
    "Sequence": 14,
    "routeFlow": null
  },
  {
    "stopName": "Lal Darwaja",
    "stopCode": 4103,
    "stationCode": 1961,
    "stopType": "MUNICIPAL_BUS",
    "shortStopName": null,
    "Position": {
      "stopLongitude": "72.578531",
      "stopLatitude": "23.024445"
    },
    "RouteCodes": null,
    "Sequence": 20,
    "routeFlow": null
  },
  {
    "stopName": "varsoda ni chali",
    "stopCode": 5735,
    "stationCode": 3013,
    "stopType": "MUNICIPAL_BUS",
    "shortStopName": null,
    "Position": {
      "stopLongitude": "72.590073",
      "stopLatitude": "23.08065"
    },
    "RouteCodes": null,
    "Sequence": 37,
    "routeFlow": null
  },
  {
    "stopName": "Metro Station",
    "stopCode": 5974,
    "stationCode": 6545,
    "stopType": "MUNICIPAL_BUS",
    "shortStopName": null,
    "Position": {
      "stopLongitude": "72.568877",
      "stopLatitude": "23.037383"
    },
    "RouteCodes": null,
    "Sequence": 26,
    "routeFlow": null
  },
  {
    "stopName": "RTO Circle",
    "stopCode": 8335,
    "stationCode": 7273,
    "stopType": "MUNICIPAL_BUS",
    "shortStopName": null,
    "Position": {
      "stopLongitude": "72.58019",
      "stopLatitude": "23.068418"
    },
    "RouteCodes": null,
    "Sequence": 34,
    "routeFlow": null
  },
  {
    "stopName": "Kailadevi Dham (Power House)",
    "stopCode": 8337,
    "stationCode": 7274,
    "stopType": "MUNICIPAL_BUS",
    "shortStopName": null,
    "Position": {
      "stopLongitude": "72.591491",
      "stopLatitude": "23.074197"
    },
    "RouteCodes": null,
    "Sequence": 35,
    "routeFlow": null
  },
  {
    "stopName": "Ranip ST Bus Stand",
    "stopCode": 8519,
    "stationCode": 6041,
    "stopType": "MUNICIPAL_BUS",
    "shortStopName": null,
    "Position": {
      "stopLongitude": "72.575408",
      "stopLatitude": "23.067582"
    },
    "RouteCodes": null,
    "Sequence": 33,
    "routeFlow": null
  }
]