[
  {
    "stopName": "Vadaj",
    "stopCode": 2033,
    "stationCode": 2978,
    "stopType": "MUNICIPAL_BUS",
    "shortStopName": null,
    "Position": {
      "stopLongitude": "72.571524",
      "stopLatitude": "23.055089"
    },
    "RouteCodes": null,
    "Sequence": 1,
    "routeFlow": "LINESTRING (72.57153 23.05509, 72.57157 23.0555, 72.5716 23.05564, 72.57158 23.05574, 72.5716 23.05583, 72.57162 23.05586, 72.57159 23.05633, 72.57158 23.05883, 72.5716 23.06022, 72.5716 23.06132, 72.5716 23.06132, 72.57164 23.06278, 72.57163 23.06354, 72.57163 23.06354, 72.57165 23.06411, 72.57165 23.06532, 72.57161 23.06693, 72.57161 23.06693, 72.5716 23.06733, 72.5716 23.06733, 72.5716 23.06755, 72.5704 23.06754, 72.56973 23.06753, 72.56955 23.06753, 72.56955 23.06753, 72.56853 23.06752, 72.56766 23.06754, 72.56669 23.06755, 72.56652 23.06811, 72.56655 23.06811, 72.56636 23.06884, 72.56612 23.06959, 72.5661 23.06959, 72.56606 23.06962, 72.56604 23.06969, 72.56607 23.06973, 72.56608 23.06974, 72.56605 23.06998, 72.56583 23.07073, 72.56583 23.07073, 72.56544 23.0721, 72.56568 23.07216, 72.56589 23.07217, 72.56643 23.07218, 72.56643 23.07216, 72.5693 23.07228, 72.56924 23.07261, 72.56924 23.07261, 72.56894 23.07351, 72.56858 23.07452, 72.5684 23.07492, 72.5684 23.07492, 72.56821 23.07529, 72.56797 23.07571, 72.56777 23.07597, 72.56755 23.07618, 72.56732 23.07635, 72.56732 23.07635, 72.56695 23.07658, 72.5669 23.07662, 72.56693 23.07669, 72.5674 23.07786, 72.56764 23.0784, 72.56764 23.0784, 72.56781 23.07874, 72.5683 23.07973, 72.56842 23.07992, 72.56842 23.07992, 72.56851 23.08009, 72.5685 23.08011, 72.56851 23.08015, 72.56856 23.08019, 72.56857 23.08019, 72.56868 23.08038, 72.5689 23.08086, 72.56953 23.08213, 72.56953 23.08213, 72.56985 23.08282, 72.57007 23.08328, 72.57061 23.08434, 72.57109 23.08526, 72.57129 23.08568, 72.5713 23.08579, 72.57125 23.08615, 72.57114 23.08675, 72.5711 23.08688, 72.57103 23.08698, 72.57091 23.08709, 72.57048 23.0873, 72.56822 23.08833, 72.568 23.08842, 72.56727 23.08877, 72.56714 23.08882, 72.56714 23.08882, 72.56647 23.08911, 72.5656 23.08948, 72.56545 23.08911, 72.56539 23.08898, 72.56539 23.08898, 72.56518 23.08855, 72.56502 23.0881, 72.56485 23.08736, 72.5648 23.08693, 72.56479 23.08663, 72.56479 23.08659, 72.56479 23.08659, 72.56482 23.08552, 72.56461 23.08549, 72.56451 23.08564, 72.564497 23.085657, 72.56436 23.08586, 72.56419 23.08622, 72.56405 23.08647, 72.563815 23.087029, 72.56381 23.08699, 72.56258 23.08678, 72.5617 23.08658, 72.56138 23.08646, 72.56106 23.08638, 72.56073 23.0863, 72.56029 23.08621, 72.56029 23.08621, 72.56007 23.08727, 72.5599 23.08801, 72.55984 23.08828, 72.55982 23.08827, 72.56006 23.08727, 72.56025 23.08672, 72.56031 23.0864, 72.56035 23.08623, 72.56026 23.08622, 72.56017 23.08672, 72.55998 23.08725, 72.55993 23.08752, 72.55972 23.08836, 72.55951 23.08955, 72.55935 23.09049, 72.55935 23.09049, 72.55927 23.0909, 72.55926 23.09091, 72.55925 23.09093, 72.55925 23.09098, 72.55925 23.09099, 72.55925 23.09172, 72.55925 23.09238, 72.5593 23.09239, 72.55929 23.09292, 72.55933 23.09302, 72.56107 23.09322, 72.56107 23.09326, 72.56227 23.09342, 72.56224 23.09388, 72.56216 23.09407, 72.56198 23.09431, 72.56125 23.09512, 72.56096 23.09543, 72.56068 23.0958, 72.56047 23.09612, 72.56018 23.09655, 72.56009 23.09677, 72.5601 23.09677, 72.55989 23.09726, 72.55975 23.09785, 72.55958 23.09883, 72.55937 23.09953, 72.5593 23.09999, 72.5593 23.10001)"
  },
  {
    "stopName": "Shrinath Apartment",
    "stopCode": 3431,
    "stationCode": 2755,
    "stopType": "MUNICIPAL_BUS",
    "shortStopName": null,
    "Position": {
      "stopLongitude": "72.56584",
      "stopLatitude": "23.070728"
    },
    "RouteCodes": null,
    "Sequence": 8,
    "routeFlow": null
  },
  {
    "stopName": "Ramapirno Tekro",
    "stopCode": 3455,
    "stationCode": 2462,
    "stopType": "MUNICIPAL_BUS",
    "shortStopName": null,
    "Position": {
      "stopLongitude": "72.571621",
      "stopLatitude": "23.061318"
    },
    "RouteCodes": null,
    "Sequence": 2,
    "routeFlow": null
  },
  {
    "stopName": "Nava Vadaj Police Chowki",
    "stopCode": 3456,
    "stationCode": 2186,
    "stopType": "MUNICIPAL_BUS",
    "shortStopName": null,
    "Position": {
      "stopLongitude": "72.571636",
      "stopLatitude": "23.063536"
    },
    "RouteCodes": null,
    "Sequence": 3,
    "routeFlow": null
  },
  {
    "stopName": "N.R.Patel Park",
    "stopCode": 3457,
    "stationCode": 2135,
    "stopType": "MUNICIPAL_BUS",
    "shortStopName": null,
    "Position": {
      "stopLongitude": "72.571615",
      "stopLatitude": "23.06693"
    },
    "RouteCodes": null,
    "Sequence": 4,
    "routeFlow": null
  },
  {
    "stopName": "Bhavsar Hostel",
    "stopCode": 3458,
    "stationCode": 1295,
    "stopType": "MUNICIPAL_BUS",
    "shortStopName": null,
    "Position": {
      "stopLongitude": "72.569548",
      "stopLatitude": "23.067526"
    },
    "RouteCodes": null,
    "Sequence": 6,
    "routeFlow": null
  },
  {
    "stopName": "Vyaswadi",
    "stopCode": 3459,
    "stationCode": 3084,
    "stopType": "MUNICIPAL_BUS",
    "shortStopName": null,
    "Position": {
      "stopLongitude": "72.566513",
      "stopLatitude": "23.068106"
    },
    "RouteCodes": null,
    "Sequence": 7,
    "routeFlow": null
  },
  {
    "stopName": "Chandrabhaga Raw House",
    "stopCode": 3461,
    "stationCode": 1365,
    "stopType": "MUNICIPAL_BUS",
    "shortStopName": null,
    "Position": {
      "stopLongitude": "72.566431",
      "stopLatitude": "23.072193"
    },
    "RouteCodes": null,
    "Sequence": 9,
    "routeFlow": null
  },
  {
    "stopName": "R.H.Patel College (Ganesh Vidyalay)",
    "stopCode": 3462,
    "stationCode": 2407,
    "stopType": "MUNICIPAL_BUS",
    "shortStopName": null,
    "Position": {
      "stopLongitude": "72.569196",
      "stopLatitude": "23.072601"
    },
    "RouteCodes": null,
    "Sequence": 10,
    "routeFlow": null
  },
  {
    "stopName": "Kalptaru Apartment (Shrirang Apartment)",
    "stopCode": 3463,
    "stationCode": 1835,
    "stopType": "MUNICIPAL_BUS",
    "shortStopName": null,
    "Position": {
      "stopLongitude": "72.568363",
      "stopLatitude": "23.074906"
    },
    "RouteCodes": null,
    "Sequence": 11,
    "routeFlow": null
  },
  {
    "stopName": "Sahajanand Bunglows (Tarveni Vidyalay)",
    "stopCode": 3464,
    "stationCode": 2541,
    "stopType": "MUNICIPAL_BUS",
    "shortStopName": null,
    "Position": {
      "stopLongitude": "72.56734",
      "stopLatitude": "23.076366"
    },
    "RouteCodes": null,
    "Sequence": 12,
    "routeFlow": null
  },
  {
    "stopName": "Balolnagar",
    "stopCode": 3465,
    "stationCode": 1240,
    "stopType": "MUNICIPAL_BUS",
    "shortStopName": null,
    "Position": {
      "stopLongitude": "72.567628",
      "stopLatitude": "23.078401"
    },
    "RouteCodes": null,
    "Sequence": 13,
    "routeFlow": null
  },
  {
    "stopName": "Karan Complex Char Rasta",
    "stopCode": 3466,
    "stationCode": 1854,
    "stopType": "MUNICIPAL_BUS",
    "shortStopName": null,
    "Position": {
      "stopLongitude": "72.56842",
      "stopLatitude": "23.079913"
    },
    "RouteCodes": null,
    "Sequence": 14,
    "routeFlow": null
  },
  {
    "stopName": "Sai Duplex",
    "stopCode": 3467,
    "stationCode": 2547,
    "stopType": "MUNICIPAL_BUS",
    "shortStopName": null,
    "Position": {
      "stopLongitude": "72.56954",
      "stopLatitude": "23.082131"
    },
    "RouteCodes": null,
    "Sequence": 15,
    "routeFlow": null
  },
  {
    "stopName": "Narnarayan Complex",
    "stopCode": 3476,
    "stationCode": 2168,
    "stopType": "MUNICIPAL_BUS",
    "shortStopName": null,
    "Position": {
      "stopLongitude": "72.560121",
      "stopLatitude": "23.096778"
    },
    "RouteCodes": null,
    "Sequence": 26,
    "routeFlow": null
  },
  {
    "stopName": "Chenpur Gam",
    "stopCode": 3477,
    "stationCode": 1374,
    "stopType": "MUNICIPAL_BUS",
    "shortStopName": null,
    "Position": {
      "stopLongitude": "72.559313",
      "stopLatitude": "23.100011"
    },
    "RouteCodes": null,
    "Sequence": 27,
    "routeFlow": null
  },
  {
    "stopName": "Rajmandir Society",
    "stopCode": 4749,
    "stationCode": 2452,
    "stopType": "MUNICIPAL_BUS",
    "shortStopName": null,
    "Position": {
      "stopLongitude": "72.564476",
      "stopLatitude": "23.085621"
    },
    "RouteCodes": null,
    "Sequence": 19,
    "routeFlow": null
  },
  {
    "stopName": "Devbhumi Society (Ranip)",
    "stopCode": 4751,
    "stationCode": 1438,
    "stopType": "MUNICIPAL_BUS",
    "shortStopName": null,
    "Position": {
      "stopLongitude": "72.560266",
      "stopLatitude": "23.086202"
    },
    "RouteCodes": null,
    "Sequence": 21,
    "routeFlow": null
  },
  {
    "stopName": "Yogeshwar Kutir",
    "stopCode": 4752,
    "stationCode": 1915,
    "stopType": "MUNICIPAL_BUS",
    "shortStopName": null,
    "Position": {
      "stopLongitude": "72.559806",
      "stopLatitude": "23.08827"
    },
    "RouteCodes": null,
    "Sequence": 22,
    "routeFlow": null
  },
  {
    "stopName": "Alok Residency",
    "stopCode": 4754,
    "stationCode": 1096,
    "stopType": "MUNICIPAL_BUS",
    "shortStopName": null,
    "Position": {
      "stopLongitude": "72.559248",
      "stopLatitude": "23.092385"
    },
    "RouteCodes": null,
    "Sequence": 24,
    "routeFlow": null
  },
  {
    "stopName": "Ravi Tenament",
    "stopCode": 4755,
    "stationCode": 2495,
    "stopType": "MUNICIPAL_BUS",
    "shortStopName": null,
    "Position": {
      "stopLongitude": "72.561066",
      "stopLatitude": "23.093271"
    },
    "RouteCodes": null,
    "Sequence": 25,
    "routeFlow": null
  },
  {
    "stopName": "Nishan Residency",
    "stopCode": 5557,
    "stationCode": 2244,
    "stopType": "MUNICIPAL_BUS",
    "shortStopName": null,
    "Position": {
      "stopLongitude": "72.559335",
      "stopLatitude": "23.09049"
    },
    "RouteCodes": null,
    "Sequence": 23,
    "routeFlow": null
  },
  {
    "stopName": "Ahvadiya Talav(New Ranip)",
    "stopCode": 5873,
    "stationCode": 6502,
    "stopType": "MUNICIPAL_BUS",
    "shortStopName": null,
    "Position": {
      "stopLongitude": "72.563812",
      "stopLatitude": "23.086966"
    },
    "RouteCodes": null,
    "Sequence": 20,
    "routeFlow": null
  },
  {
    "stopName": "Nil Complex (Nandanvan Apartment)",
    "stopCode": 7404,
    "stationCode": 2222,
    "stopType": "MUNICIPAL_BUS",
    "shortStopName": null,
    "Position": {
      "stopLongitude": "72.571558",
      "stopLatitude": "23.067334"
    },
    "RouteCodes": null,
    "Sequence": 5,
    "routeFlow": null
  },
  {
    "stopName": "SunRiyal Homes",
    "stopCode": 8513,
    "stationCode": 6038,
    "stopType": "MUNICIPAL_BUS",
    "shortStopName": null,
    "Position": {
      "stopLongitude": "72.567126",
      "stopLatitude": "23.088784"
    },
    "RouteCodes": null,
    "Sequence": 16,
    "routeFlow": null
  },
  {
    "stopName": "Savan Bugloz Char Rasta",
    "stopCode": 8515,
    "stationCode": 6039,
    "stopType": "MUNICIPAL_BUS",
    "shortStopName": null,
    "Position": {
      "stopLongitude": "72.565414",
      "stopLatitude": "23.088973"
    },
    "RouteCodes": null,
    "Sequence": 17,
    "routeFlow": null
  },
  {
    "stopName": "Anand Tenament",
    "stopCode": 8518,
    "stationCode": 6040,
    "stopType": "MUNICIPAL_BUS",
    "shortStopName": null,
    "Position": {
      "stopLongitude": "72.564837",
      "stopLatitude": "23.086594"
    },
    "RouteCodes": null,
    "Sequence": 18,
    "routeFlow": null
  }
]