[
  {
    "stopName": "Dinbai Tower",
    "stopCode": 1078,
    "stationCode": 1463,
    "stopType": "MUNICIPAL_BUS",
    "shortStopName": null,
    "Position": {
      "stopLongitude": "72.581381",
      "stopLatitude": "23.028206"
    },
    "RouteCodes": null,
    "Sequence": 2,
    "routeFlow": "LINESTRING (72.57853 23.02444, 72.57848 23.02502, 72.57854 23.02503, 72.57877 23.02503, 72.57896 23.02503, 72.57896 23.025, 72.57896 23.02503, 72.57904 23.02503, 72.5796 23.02504, 72.57976 23.02504, 72.58002 23.02499, 72.58037 23.02497, 72.58045 23.02499, 72.58058 23.02506, 72.58064 23.02513, 72.58063 23.02551, 72.58062 23.02571, 72.58059 23.02624, 72.58061 23.02662, 72.58062 23.02679, 72.58064 23.02715, 72.58069 23.02721, 72.58084 23.02734, 72.58119 23.02748, 72.58135 23.02761, 72.58138 23.02785, 72.58141 23.02815, 72.58142 23.0282, 72.58138 23.02821, 72.58142 23.0282, 72.58159 23.02884, 72.58165 23.0289, 72.58177 23.02898, 72.58204 23.0291, 72.58218 23.02922, 72.58243 23.02958, 72.58263 23.02979, 72.58266 23.02982, 72.58268 23.02992, 72.58276 23.03027, 72.58283 23.03037, 72.58306 23.03044, 72.5832 23.03047, 72.5832 23.03047, 72.58348 23.03053, 72.58354 23.03053, 72.58357 23.03057, 72.58377 23.03091, 72.58409 23.03156, 72.58461 23.03259, 72.58461 23.03259, 72.58484 23.03303, 72.58501 23.0333, 72.58579 23.0343, 72.58579 23.0343, 72.58612 23.03473, 72.58644 23.03505, 72.5868 23.03542, 72.58702 23.03575, 72.58711 23.03584, 72.58714 23.03586, 72.58714 23.03586, 72.58745 23.03608, 72.58761 23.03622, 72.58768 23.03632, 72.58774 23.0366, 72.58776 23.03674, 72.58789 23.03747, 72.58791 23.03756, 72.58788 23.03766, 72.58785 23.03774, 72.58787 23.03793, 72.58831 23.03963, 72.58831 23.03963, 72.58862 23.04078, 72.58874 23.04128, 72.58883 23.0415, 72.58924 23.0424, 72.58924 23.0424, 72.58937 23.04273, 72.58936 23.04274, 72.58934 23.04277, 72.58933 23.04281, 72.58951 23.04325, 72.58955 23.04509, 72.58955 23.04509, 72.5896 23.04669, 72.5896 23.04669, 72.58966 23.04862, 72.58966 23.04862, 72.58968 23.04953, 72.5897 23.04994, 72.58973 23.05023, 72.5898 23.05055, 72.5899 23.05092, 72.59035 23.05238, 72.59035 23.05238, 72.59047 23.05278, 72.59055 23.05314, 72.59054 23.05315, 72.59052 23.05317, 72.59051 23.05323, 72.59017 23.0542, 72.59007 23.05459, 72.59002 23.05475, 72.58992 23.05486, 72.58945 23.05526, 72.58845 23.05607, 72.58845 23.05607, 72.5883 23.05624, 72.58808 23.05663, 72.58711 23.05859, 72.58711 23.05859, 72.58623 23.06032, 72.58503 23.06268, 72.58447 23.06373, 72.58447 23.06373, 72.58379 23.06504, 72.58329 23.06593, 72.58312 23.06613, 72.5831 23.06613, 72.583 23.06618, 72.58295 23.06627, 72.58295 23.06634, 72.58297 23.06639, 72.58302 23.06644, 72.58301 23.06663, 72.58339 23.06711, 72.58361 23.06744)"
  },
  {
    "stopName": "Jansatta Karyalay",
    "stopCode": 1079,
    "stationCode": 1761,
    "stopType": "MUNICIPAL_BUS",
    "shortStopName": null,
    "Position": {
      "stopLongitude": "72.583185",
      "stopLatitude": "23.030511"
    },
    "RouteCodes": null,
    "Sequence": 3,
    "routeFlow": null
  },
  {
    "stopName": "Ahmedabad Gramya Jilla Nyayalay",
    "stopCode": 1080,
    "stationCode": 1077,
    "stopType": "MUNICIPAL_BUS",
    "shortStopName": null,
    "Position": {
      "stopLongitude": "72.58455",
      "stopLatitude": "23.032603"
    },
    "RouteCodes": null,
    "Sequence": 4,
    "routeFlow": null
  },
  {
    "stopName": "Rentiyawadi",
    "stopCode": 1081,
    "stationCode": 2501,
    "stopType": "MUNICIPAL_BUS",
    "shortStopName": null,
    "Position": {
      "stopLongitude": "72.585701",
      "stopLatitude": "23.03436"
    },
    "RouteCodes": null,
    "Sequence": 5,
    "routeFlow": null
  },
  {
    "stopName": "Delhi Darwaja (Rt.105 Stand)",
    "stopCode": 1580,
    "stationCode": 1431,
    "stopType": "MUNICIPAL_BUS",
    "shortStopName": null,
    "Position": {
      "stopLongitude": "72.588341",
      "stopLatitude": "23.03962"
    },
    "RouteCodes": null,
    "Sequence": 7,
    "routeFlow": null
  },
  {
    "stopName": "Swaminarayan Mandir (Shahibag)",
    "stopCode": 1581,
    "stationCode": 2893,
    "stopType": "MUNICIPAL_BUS",
    "shortStopName": null,
    "Position": {
      "stopLongitude": "72.589541",
      "stopLatitude": "23.045086"
    },
    "RouteCodes": null,
    "Sequence": 9,
    "routeFlow": null
  },
  {
    "stopName": "Hirabag",
    "stopCode": 1582,
    "stationCode": 1687,
    "stopType": "MUNICIPAL_BUS",
    "shortStopName": null,
    "Position": {
      "stopLongitude": "72.589593",
      "stopLatitude": "23.046686"
    },
    "RouteCodes": null,
    "Sequence": 10,
    "routeFlow": null
  },
  {
    "stopName": "Police Commissioner Office",
    "stopCode": 1583,
    "stationCode": 2346,
    "stopType": "MUNICIPAL_BUS",
    "shortStopName": null,
    "Position": {
      "stopLongitude": "72.58968",
      "stopLatitude": "23.048623"
    },
    "RouteCodes": null,
    "Sequence": 11,
    "routeFlow": null
  },
  {
    "stopName": "Shahibag Underbridge",
    "stopCode": 1584,
    "stationCode": 2681,
    "stopType": "MUNICIPAL_BUS",
    "shortStopName": null,
    "Position": {
      "stopLongitude": "72.590366",
      "stopLatitude": "23.052375"
    },
    "RouteCodes": null,
    "Sequence": 12,
    "routeFlow": null
  },
  {
    "stopName": "Subhash Bridge Circle",
    "stopCode": 2168,
    "stationCode": 2848,
    "stopType": "MUNICIPAL_BUS",
    "shortStopName": null,
    "Position": {
      "stopLongitude": "72.583601",
      "stopLatitude": "23.067446"
    },
    "RouteCodes": null,
    "Sequence": 16,
    "routeFlow": null
  },
  {
    "stopName": "Delhi Chakla",
    "stopCode": 2353,
    "stationCode": 1430,
    "stopType": "MUNICIPAL_BUS",
    "shortStopName": null,
    "Position": {
      "stopLongitude": "72.587115",
      "stopLatitude": "23.035895"
    },
    "RouteCodes": null,
    "Sequence": 6,
    "routeFlow": null
  },
  {
    "stopName": "Hathisingni Wadi",
    "stopCode": 2354,
    "stationCode": 1671,
    "stopType": "MUNICIPAL_BUS",
    "shortStopName": null,
    "Position": {
      "stopLongitude": "72.589176",
      "stopLatitude": "23.042425"
    },
    "RouteCodes": null,
    "Sequence": 8,
    "routeFlow": null
  },
  {
    "stopName": "Police Stadium",
    "stopCode": 3543,
    "stationCode": 2347,
    "stopType": "MUNICIPAL_BUS",
    "shortStopName": null,
    "Position": {
      "stopLongitude": "72.588465",
      "stopLatitude": "23.056085"
    },
    "RouteCodes": null,
    "Sequence": 13,
    "routeFlow": null
  },
  {
    "stopName": "Naranghat",
    "stopCode": 3544,
    "stationCode": 2151,
    "stopType": "MUNICIPAL_BUS",
    "shortStopName": null,
    "Position": {
      "stopLongitude": "72.587023",
      "stopLatitude": "23.058553"
    },
    "RouteCodes": null,
    "Sequence": 14,
    "routeFlow": null
  },
  {
    "stopName": "Ghanshyamnagar",
    "stopCode": 3545,
    "stationCode": 1546,
    "stopType": "MUNICIPAL_BUS",
    "shortStopName": null,
    "Position": {
      "stopLongitude": "72.584437",
      "stopLatitude": "23.063714"
    },
    "RouteCodes": null,
    "Sequence": 15,
    "routeFlow": null
  },
  {
    "stopName": "Lal Darwaja",
    "stopCode": 4103,
    "stationCode": 1961,
    "stopType": "MUNICIPAL_BUS",
    "shortStopName": null,
    "Position": {
      "stopLongitude": "72.578531",
      "stopLatitude": "23.024445"
    },
    "RouteCodes": null,
    "Sequence": 1,
    "routeFlow": null
  }
]