[
  {
    "stopName": "Prem Darwaja",
    "stopCode": 1205,
    "stationCode": 2378,
    "stopType": "MUNICIPAL_BUS",
    "shortStopName": null,
    "Position": {
      "stopLongitude": "72.596563",
      "stopLatitude": "23.035823"
    },
    "RouteCodes": null,
    "Sequence": 8,
    "routeFlow": "LINESTRING (72.61365 23.04398, 72.614 23.04364, 72.61416 23.04345, 72.61436 23.04314, 72.61441 23.0431, 72.61416 23.04291, 72.61416 23.04291, 72.61243 23.04163, 72.61146 23.04095, 72.61146 23.04095, 72.61101 23.04063, 72.6092 23.03929, 72.60892 23.03908, 72.60892 23.03908, 72.60855 23.03877, 72.60817 23.03838, 72.60759 23.03775, 72.60759 23.03775, 72.60673 23.03673, 72.60611 23.03604, 72.60516 23.03503, 72.60516 23.03503, 72.60454 23.0344, 72.60446 23.03433, 72.60434 23.03429, 72.60335 23.0332, 72.60313 23.03302, 72.60314 23.03301, 72.60314 23.033, 72.60314 23.03299, 72.60313 23.03297, 72.60312 23.03296, 72.60307 23.03295, 72.60303 23.03297, 72.60302 23.03301, 72.60303 23.03301, 72.60303 23.03302, 72.60273 23.0331, 72.60258 23.03311, 72.6018 23.03318, 72.60113 23.03322, 72.60102 23.0332, 72.60085 23.03314, 72.60074 23.0331, 72.60052 23.03299, 72.60033 23.03284, 72.60014 23.03268, 72.59946 23.03193, 72.59913 23.0316, 72.59906 23.03154, 72.5991 23.03143, 72.59913 23.03139, 72.59917 23.03136, 72.59923 23.03132, 72.59939 23.03124, 72.60007 23.03139, 72.60013 23.03139, 72.60024 23.03134, 72.6003 23.03124, 72.60033 23.03077, 72.60032 23.03024, 72.60044 23.03018, 72.60032 23.03018, 72.60027 23.02851, 72.60009 23.02849, 72.59968 23.02931, 72.59879 23.03114, 72.59848 23.03108, 72.59831 23.03104, 72.59822 23.03104, 72.59802 23.0314, 72.59792 23.03175, 72.59776 23.03252, 72.59759 23.03308, 72.59748 23.03355, 72.59732 23.034, 72.59719 23.03425, 72.5971 23.03464, 72.59699 23.03485, 72.59694 23.03492, 72.59671 23.03507, 72.59712 23.03522, 72.59699 23.03536, 72.59671 23.03572, 72.59662 23.03584, 72.5966 23.03582, 72.59659 23.03584, 72.59629 23.03621, 72.59604 23.03644, 72.5958 23.03664, 72.59544 23.03688, 72.59504 23.03711, 72.59454 23.03732, 72.59399 23.03748, 72.59399 23.03748, 72.59357 23.03758, 72.59354 23.03758, 72.59296 23.03765, 72.59293 23.03766, 72.59274 23.03763, 72.59219 23.03763, 72.59166 23.03763, 72.5914 23.03763, 72.59078 23.03756, 72.59027 23.03751, 72.59015 23.03752, 72.59015 23.03752, 72.58983 23.03757, 72.58939 23.03767, 72.58807 23.03789, 72.58787 23.03793, 72.5879 23.03803, 72.58805 23.03864, 72.58831 23.03963, 72.58831 23.03963, 72.58862 23.04078, 72.58874 23.04128, 72.58883 23.0415, 72.58924 23.0424, 72.58924 23.0424, 72.58937 23.04273, 72.58936 23.04274, 72.58934 23.04277, 72.58933 23.04281, 72.58951 23.04325, 72.58955 23.04509, 72.58955 23.04509, 72.5896 23.04669, 72.5896 23.04669, 72.58966 23.04862, 72.58966 23.04862, 72.58968 23.04953, 72.5897 23.04994, 72.58973 23.05023, 72.5898 23.05055, 72.5899 23.05092, 72.59035 23.05238, 72.59035 23.05238, 72.59047 23.05278, 72.59055 23.05314, 72.59054 23.05315, 72.59052 23.05317, 72.59051 23.05323, 72.59017 23.0542, 72.59007 23.05459, 72.59002 23.05475, 72.58992 23.05486, 72.58945 23.05526, 72.58845 23.05607, 72.58845 23.05607, 72.5883 23.05624, 72.58808 23.05663, 72.58711 23.05859, 72.58711 23.05859, 72.58623 23.06032, 72.58503 23.06268, 72.58447 23.06373, 72.58447 23.06373, 72.58379 23.06504, 72.58329 23.06593, 72.58312 23.06613, 72.5831 23.06613, 72.583 23.06618, 72.58295 23.06627, 72.58295 23.06634, 72.58297 23.06639, 72.58302 23.06644, 72.58301 23.06663, 72.58302 23.0669, 72.58299 23.06709, 72.58295 23.06716, 72.58277 23.06734, 72.58205 23.06794, 72.58205 23.06794, 72.58158 23.06834, 72.58154 23.06836, 72.58149 23.06842, 72.58144 23.06855, 72.58146 23.0687, 72.58153 23.06881, 72.58168 23.06892, 72.5819 23.06901, 72.58229 23.0691, 72.58345 23.06927, 72.5848 23.06944, 72.585 23.06945, 72.58577 23.06941, 72.58685 23.06937, 72.58701 23.06938, 72.58796 23.06958, 72.58895 23.06983, 72.58914 23.06992, 72.58936 23.0701, 72.58958 23.07037, 72.58987 23.07076, 72.59023 23.07124, 72.59101 23.0722, 72.59154 23.07285, 72.59194 23.07328, 72.59206 23.07339, 72.59194 23.07361, 72.59176 23.07341, 72.59177 23.07341, 72.59192 23.07359, 72.59191 23.07373, 72.59189 23.0738, 72.59148 23.0744, 72.59103 23.07541, 72.59062 23.07642, 72.59024 23.07734, 72.59003 23.0778, 72.59 23.07786, 72.59 23.07786, 72.58966 23.07864, 72.58959 23.07879, 72.58959 23.07889, 72.58989 23.07977, 72.58994 23.07999, 72.58999 23.08031, 72.59003 23.08065, 72.59003 23.08065, 72.59008 23.08103, 72.59008 23.08114, 72.59029 23.08237, 72.5903 23.08247, 72.5903 23.08247, 72.59032 23.08272, 72.59036 23.08278, 72.59062 23.0831, 72.59074 23.08333, 72.59094 23.08331, 72.5917 23.08336, 72.5925 23.08342, 72.59264 23.08343, 72.5925 23.08386, 72.5925 23.08386, 72.59179 23.08604, 72.59147 23.0871, 72.59147 23.0871, 72.591 23.08863, 72.59097 23.08872, 72.59106 23.08875, 72.59131 23.08882, 72.59151 23.08894, 72.59167 23.08914, 72.59167 23.08914, 72.59288 23.09096, 72.59288 23.09096, 72.59388 23.09249, 72.59388 23.09249, 72.5946 23.09359, 72.59475 23.09383, 72.59503 23.09424, 72.59507 23.09427, 72.59522 23.09448, 72.59528 23.09458, 72.59528 23.09475, 72.59534 23.09484, 72.59541 23.09493, 72.59541 23.09493, 72.5958 23.09541, 72.59608 23.09582, 72.59621 23.09601, 72.5962 23.09606, 72.59621 23.09609, 72.59657 23.09667, 72.59658 23.09667, 72.59682 23.09704, 72.59711 23.09744, 72.59759 23.09792, 72.59783 23.09818, 72.5983 23.09863, 72.5983 23.09863, 72.60054 23.10076, 72.60054 23.10076, 72.60106 23.10127, 72.60128 23.10155, 72.60138 23.10178, 72.60218 23.10339, 72.60218 23.10339, 72.60243 23.1039, 72.60278 23.1047, 72.60283 23.10478, 72.60283 23.10478, 72.60292 23.10497, 72.60333 23.10576, 72.60375 23.10664, 72.60392 23.107, 72.60395 23.10705, 72.60395 23.10705, 72.60469 23.10857, 72.60469 23.10857, 72.60521 23.10974, 72.60558 23.11046, 72.60567 23.1106, 72.60581 23.1107, 72.60581 23.1107, 72.60595 23.11085, 72.60585 23.11093, 72.60548 23.11125, 72.6052 23.11155, 72.60485 23.11128, 72.60485 23.11128, 72.60327 23.10999, 72.60032 23.10766, 72.59986 23.10728, 72.59986 23.10728, 72.59876 23.10639, 72.59876 23.10639, 72.59764 23.10553, 72.5976 23.10548, 72.5976 23.10546, 72.5976 23.10542, 72.59758 23.10537, 72.59752 23.10531, 72.59744 23.10528, 72.59736 23.10529, 72.5973 23.10532, 72.59725 23.10539, 72.59724 23.10548, 72.59726 23.10553, 72.59724 23.10579, 72.59718 23.10591, 72.59712 23.10608, 72.59701 23.10657, 72.59701 23.10657, 72.5969 23.10731, 72.59686 23.10746, 72.59674 23.10774, 72.59658 23.10799, 72.59636 23.1083, 72.59605 23.10861, 72.59589 23.10874, 72.59589 23.10874, 72.59545 23.10898, 72.5949 23.10916, 72.59457 23.10921, 72.59446 23.10921, 72.59345 23.10918, 72.593 23.10918, 72.593 23.10918, 72.59135 23.10912, 72.59095 23.10911, 72.59095 23.10911, 72.58909 23.10907, 72.58909 23.10907, 72.58747 23.10907, 72.58631 23.10906, 72.5856 23.10908, 72.5856 23.10908, 72.58516 23.1091, 72.58501 23.10908, 72.58482 23.10904, 72.58479 23.10916, 72.58435 23.11054, 72.58435 23.11054, 72.58408 23.1114, 72.58388 23.11201, 72.58356 23.1131, 72.58293 23.11525, 72.58259 23.11621)"
  },
  {
    "stopName": "Dariyapur Darwaja",
    "stopCode": 1206,
    "stationCode": 1423,
    "stopType": "MUNICIPAL_BUS",
    "shortStopName": null,
    "Position": {
      "stopLongitude": "72.593976",
      "stopLatitude": "23.037433"
    },
    "RouteCodes": null,
    "Sequence": 9,
    "routeFlow": null
  },
  {
    "stopName": "Madhupura",
    "stopCode": 1207,
    "stationCode": 1991,
    "stopType": "MUNICIPAL_BUS",
    "shortStopName": null,
    "Position": {
      "stopLongitude": "72.590148",
      "stopLatitude": "23.03751"
    },
    "RouteCodes": null,
    "Sequence": 10,
    "routeFlow": null
  },
  {
    "stopName": "Delhi Darwaja (Rt.105 Stand)",
    "stopCode": 1580,
    "stationCode": 1431,
    "stopType": "MUNICIPAL_BUS",
    "shortStopName": null,
    "Position": {
      "stopLongitude": "72.588341",
      "stopLatitude": "23.03962"
    },
    "RouteCodes": null,
    "Sequence": 11,
    "routeFlow": null
  },
  {
    "stopName": "Swaminarayan Mandir (Shahibag)",
    "stopCode": 1581,
    "stationCode": 2893,
    "stopType": "MUNICIPAL_BUS",
    "shortStopName": null,
    "Position": {
      "stopLongitude": "72.589541",
      "stopLatitude": "23.045086"
    },
    "RouteCodes": null,
    "Sequence": 13,
    "routeFlow": null
  },
  {
    "stopName": "Hirabag",
    "stopCode": 1582,
    "stationCode": 1687,
    "stopType": "MUNICIPAL_BUS",
    "shortStopName": null,
    "Position": {
      "stopLongitude": "72.589593",
      "stopLatitude": "23.046686"
    },
    "RouteCodes": null,
    "Sequence": 14,
    "routeFlow": null
  },
  {
    "stopName": "Police Commissioner Office",
    "stopCode": 1583,
    "stationCode": 2346,
    "stopType": "MUNICIPAL_BUS",
    "shortStopName": null,
    "Position": {
      "stopLongitude": "72.58968",
      "stopLatitude": "23.048623"
    },
    "RouteCodes": null,
    "Sequence": 15,
    "routeFlow": null
  },
  {
    "stopName": "Shahibag Underbridge",
    "stopCode": 1584,
    "stationCode": 2681,
    "stopType": "MUNICIPAL_BUS",
    "shortStopName": null,
    "Position": {
      "stopLongitude": "72.590366",
      "stopLatitude": "23.052375"
    },
    "RouteCodes": null,
    "Sequence": 16,
    "routeFlow": null
  },
  {
    "stopName": "Chandkheda Gam",
    "stopCode": 1653,
    "stationCode": 1359,
    "stopType": "MUNICIPAL_BUS",
    "shortStopName": null,
    "Position": {
      "stopLongitude": "72.582648",
      "stopLatitude": "23.116256"
    },
    "RouteCodes": null,
    "Sequence": 49,
    "routeFlow": null
  },
  {
    "stopName": "Amdupura",
    "stopCode": 1712,
    "stationCode": 1116,
    "stopType": "MUNICIPAL_BUS",
    "shortStopName": null,
    "Position": {
      "stopLongitude": "72.605198",
      "stopLatitude": "23.035001"
    },
    "RouteCodes": null,
    "Sequence": 6,
    "routeFlow": null
  },
  {
    "stopName": "Kalupur Terminus",
    "stopCode": 1715,
    "stationCode": 1840,
    "stopType": "MUNICIPAL_BUS",
    "shortStopName": null,
    "Position": {
      "stopLongitude": "72.600373",
      "stopLatitude": "23.030241"
    },
    "RouteCodes": null,
    "Sequence": 7,
    "routeFlow": null
  },
  {
    "stopName": "Dharmnagar",
    "stopCode": 2175,
    "stationCode": 1457,
    "stopType": "MUNICIPAL_BUS",
    "shortStopName": null,
    "Position": {
      "stopLongitude": "72.590011",
      "stopLatitude": "23.077861"
    },
    "RouteCodes": null,
    "Sequence": 22,
    "routeFlow": null
  },
  {
    "stopName": "Abu-Koba Cross Road",
    "stopCode": 2181,
    "stationCode": 1059,
    "stopType": "MUNICIPAL_BUS",
    "shortStopName": null,
    "Position": {
      "stopLongitude": "72.59147",
      "stopLatitude": "23.087103"
    },
    "RouteCodes": null,
    "Sequence": 26,
    "routeFlow": null
  },
  {
    "stopName": "Shivshakti Nagar (Chandkheda)",
    "stopCode": 2187,
    "stationCode": 2730,
    "stopType": "MUNICIPAL_BUS",
    "shortStopName": null,
    "Position": {
      "stopLongitude": "72.584356",
      "stopLatitude": "23.110545"
    },
    "RouteCodes": null,
    "Sequence": 48,
    "routeFlow": null
  },
  {
    "stopName": "Hathisingni Wadi",
    "stopCode": 2354,
    "stationCode": 1671,
    "stopType": "MUNICIPAL_BUS",
    "shortStopName": null,
    "Position": {
      "stopLongitude": "72.589176",
      "stopLatitude": "23.042425"
    },
    "RouteCodes": null,
    "Sequence": 12,
    "routeFlow": null
  },
  {
    "stopName": "Ramnagar",
    "stopCode": 2425,
    "stationCode": 2471,
    "stopType": "MUNICIPAL_BUS",
    "shortStopName": null,
    "Position": {
      "stopLongitude": "72.590326",
      "stopLatitude": "23.082466"
    },
    "RouteCodes": null,
    "Sequence": 24,
    "routeFlow": null
  },
  {
    "stopName": "Chintamani Society",
    "stopCode": 2426,
    "stationCode": 1387,
    "stopType": "MUNICIPAL_BUS",
    "shortStopName": null,
    "Position": {
      "stopLongitude": "72.592505",
      "stopLatitude": "23.08386"
    },
    "RouteCodes": null,
    "Sequence": 25,
    "routeFlow": null
  },
  {
    "stopName": "Gandhibag (Acher)",
    "stopCode": 2427,
    "stationCode": 1521,
    "stopType": "MUNICIPAL_BUS",
    "shortStopName": null,
    "Position": {
      "stopLongitude": "72.591656",
      "stopLatitude": "23.08915"
    },
    "RouteCodes": null,
    "Sequence": 27,
    "routeFlow": null
  },
  {
    "stopName": "Nirantnagar",
    "stopCode": 2428,
    "stationCode": 2235,
    "stopType": "MUNICIPAL_BUS",
    "shortStopName": null,
    "Position": {
      "stopLongitude": "72.592861",
      "stopLatitude": "23.090968"
    },
    "RouteCodes": null,
    "Sequence": 28,
    "routeFlow": null
  },
  {
    "stopName": "Indiranagar",
    "stopCode": 2429,
    "stationCode": 1711,
    "stopType": "MUNICIPAL_BUS",
    "shortStopName": null,
    "Position": {
      "stopLongitude": "72.59389",
      "stopLatitude": "23.092485"
    },
    "RouteCodes": null,
    "Sequence": 29,
    "routeFlow": null
  },
  {
    "stopName": "Narendra Modi Stadium",
    "stopCode": 2430,
    "stationCode": 1624,
    "stopType": "MUNICIPAL_BUS",
    "shortStopName": null,
    "Position": {
      "stopLongitude": "72.595405",
      "stopLatitude": "23.094935"
    },
    "RouteCodes": null,
    "Sequence": 30,
    "routeFlow": null
  },
  {
    "stopName": "Sangath Bunglows",
    "stopCode": 2431,
    "stationCode": 2573,
    "stopType": "MUNICIPAL_BUS",
    "shortStopName": null,
    "Position": {
      "stopLongitude": "72.596568",
      "stopLatitude": "23.096675"
    },
    "RouteCodes": null,
    "Sequence": 31,
    "routeFlow": null
  },
  {
    "stopName": "Shri Ashrambapu Ashram Cross Road",
    "stopCode": 2432,
    "stationCode": 2736,
    "stopType": "MUNICIPAL_BUS",
    "shortStopName": null,
    "Position": {
      "stopLongitude": "72.5983",
      "stopLatitude": "23.098631"
    },
    "RouteCodes": null,
    "Sequence": 32,
    "routeFlow": null
  },
  {
    "stopName": "Sahajanand Park",
    "stopCode": 2433,
    "stationCode": 2544,
    "stopType": "MUNICIPAL_BUS",
    "shortStopName": null,
    "Position": {
      "stopLongitude": "72.600513",
      "stopLatitude": "23.100778"
    },
    "RouteCodes": null,
    "Sequence": 33,
    "routeFlow": null
  },
  {
    "stopName": "Akashdarshan Society",
    "stopCode": 2434,
    "stationCode": 1088,
    "stopType": "MUNICIPAL_BUS",
    "shortStopName": null,
    "Position": {
      "stopLongitude": "72.602195",
      "stopLatitude": "23.103386"
    },
    "RouteCodes": null,
    "Sequence": 34,
    "routeFlow": null
  },
  {
    "stopName": "Motera Gam",
    "stopCode": 2435,
    "stationCode": 2097,
    "stopType": "MUNICIPAL_BUS",
    "shortStopName": null,
    "Position": {
      "stopLongitude": "72.602833",
      "stopLatitude": "23.10478"
    },
    "RouteCodes": null,
    "Sequence": 35,
    "routeFlow": null
  },
  {
    "stopName": "Maruti Nandan-1",
    "stopCode": 2436,
    "stationCode": 2060,
    "stopType": "MUNICIPAL_BUS",
    "shortStopName": null,
    "Position": {
      "stopLongitude": "72.603935",
      "stopLatitude": "23.10705"
    },
    "RouteCodes": null,
    "Sequence": 36,
    "routeFlow": null
  },
  {
    "stopName": "Narnarayan Party Plot",
    "stopCode": 2437,
    "stationCode": 2169,
    "stopType": "MUNICIPAL_BUS",
    "shortStopName": null,
    "Position": {
      "stopLongitude": "72.604658",
      "stopLatitude": "23.108585"
    },
    "RouteCodes": null,
    "Sequence": 37,
    "routeFlow": null
  },
  {
    "stopName": "Shrushti Arcade",
    "stopCode": 2438,
    "stationCode": 2766,
    "stopType": "MUNICIPAL_BUS",
    "shortStopName": null,
    "Position": {
      "stopLongitude": "72.605803",
      "stopLatitude": "23.110708"
    },
    "RouteCodes": null,
    "Sequence": 38,
    "routeFlow": null
  },
  {
    "stopName": "Fire Station Cross Road",
    "stopCode": 2439,
    "stationCode": 2096,
    "stopType": "MUNICIPAL_BUS",
    "shortStopName": null,
    "Position": {
      "stopLongitude": "72.604875",
      "stopLatitude": "23.111246"
    },
    "RouteCodes": null,
    "Sequence": 39,
    "routeFlow": null
  },
  {
    "stopName": "Visamo Society",
    "stopCode": 2440,
    "stationCode": 3062,
    "stopType": "MUNICIPAL_BUS",
    "shortStopName": null,
    "Position": {
      "stopLongitude": "72.599871",
      "stopLatitude": "23.107261"
    },
    "RouteCodes": null,
    "Sequence": 40,
    "routeFlow": null
  },
  {
    "stopName": "Ashok Vihar",
    "stopCode": 2441,
    "stationCode": 1181,
    "stopType": "MUNICIPAL_BUS",
    "shortStopName": null,
    "Position": {
      "stopLongitude": "72.59877",
      "stopLatitude": "23.106383"
    },
    "RouteCodes": null,
    "Sequence": 41,
    "routeFlow": null
  },
  {
    "stopName": "Sarkari Engg. College",
    "stopCode": 2442,
    "stationCode": 2620,
    "stopType": "MUNICIPAL_BUS",
    "shortStopName": null,
    "Position": {
      "stopLongitude": "72.597056",
      "stopLatitude": "23.10658"
    },
    "RouteCodes": null,
    "Sequence": 42,
    "routeFlow": null
  },
  {
    "stopName": "Shitiratna Bunglows",
    "stopCode": 2443,
    "stationCode": 2721,
    "stopType": "MUNICIPAL_BUS",
    "shortStopName": null,
    "Position": {
      "stopLongitude": "72.595915",
      "stopLatitude": "23.108763"
    },
    "RouteCodes": null,
    "Sequence": 43,
    "routeFlow": null
  },
  {
    "stopName": "Swagat Bunglows",
    "stopCode": 2444,
    "stationCode": 2884,
    "stopType": "MUNICIPAL_BUS",
    "shortStopName": null,
    "Position": {
      "stopLongitude": "72.592998",
      "stopLatitude": "23.109165"
    },
    "RouteCodes": null,
    "Sequence": 44,
    "routeFlow": null
  },
  {
    "stopName": "Sakar School",
    "stopCode": 2445,
    "stationCode": 2557,
    "stopType": "MUNICIPAL_BUS",
    "shortStopName": null,
    "Position": {
      "stopLongitude": "72.590953",
      "stopLatitude": "23.109111"
    },
    "RouteCodes": null,
    "Sequence": 45,
    "routeFlow": null
  },
  {
    "stopName": "Sahajanand Bunglows (Chandkheda)",
    "stopCode": 2446,
    "stationCode": 2539,
    "stopType": "MUNICIPAL_BUS",
    "shortStopName": null,
    "Position": {
      "stopLongitude": "72.589088",
      "stopLatitude": "23.109066"
    },
    "RouteCodes": null,
    "Sequence": 46,
    "routeFlow": null
  },
  {
    "stopName": "Santokba Hospital",
    "stopCode": 2447,
    "stationCode": 2587,
    "stopType": "MUNICIPAL_BUS",
    "shortStopName": null,
    "Position": {
      "stopLongitude": "72.585598",
      "stopLatitude": "23.109086"
    },
    "RouteCodes": null,
    "Sequence": 47,
    "routeFlow": null
  },
  {
    "stopName": "Police Stadium",
    "stopCode": 3543,
    "stationCode": 2347,
    "stopType": "MUNICIPAL_BUS",
    "shortStopName": null,
    "Position": {
      "stopLongitude": "72.588465",
      "stopLatitude": "23.056085"
    },
    "RouteCodes": null,
    "Sequence": 17,
    "routeFlow": null
  },
  {
    "stopName": "Naranghat",
    "stopCode": 3544,
    "stationCode": 2151,
    "stopType": "MUNICIPAL_BUS",
    "shortStopName": null,
    "Position": {
      "stopLongitude": "72.587023",
      "stopLatitude": "23.058553"
    },
    "RouteCodes": null,
    "Sequence": 18,
    "routeFlow": null
  },
  {
    "stopName": "Ghanshyamnagar",
    "stopCode": 3545,
    "stationCode": 1546,
    "stopType": "MUNICIPAL_BUS",
    "shortStopName": null,
    "Position": {
      "stopLongitude": "72.584437",
      "stopLatitude": "23.063714"
    },
    "RouteCodes": null,
    "Sequence": 19,
    "routeFlow": null
  },
  {
    "stopName": "Arvind Mills (Naroda)",
    "stopCode": 3745,
    "stationCode": 1165,
    "stopType": "MUNICIPAL_BUS",
    "shortStopName": null,
    "Position": {
      "stopLongitude": "72.614175",
      "stopLatitude": "23.042893"
    },
    "RouteCodes": null,
    "Sequence": 2,
    "routeFlow": null
  },
  {
    "stopName": "Subhash Bridge Circle",
    "stopCode": 3959,
    "stationCode": 2848,
    "stopType": "MUNICIPAL_BUS",
    "shortStopName": null,
    "Position": {
      "stopLongitude": "72.582066",
      "stopLatitude": "23.067963"
    },
    "RouteCodes": null,
    "Sequence": 20,
    "routeFlow": null
  },
  {
    "stopName": "Power House",
    "stopCode": 4761,
    "stationCode": 2353,
    "stopType": "MUNICIPAL_BUS",
    "shortStopName": null,
    "Position": {
      "stopLongitude": "72.591733",
      "stopLatitude": "23.073436"
    },
    "RouteCodes": null,
    "Sequence": 21,
    "routeFlow": null
  },
  {
    "stopName": "varsoda ni chali",
    "stopCode": 5735,
    "stationCode": 3013,
    "stopType": "MUNICIPAL_BUS",
    "shortStopName": null,
    "Position": {
      "stopLongitude": "72.590073",
      "stopLatitude": "23.08065"
    },
    "RouteCodes": null,
    "Sequence": 23,
    "routeFlow": null
  },
  {
    "stopName": "Asarva Railway Station",
    "stopCode": 6472,
    "stationCode": 7176,
    "stopType": "MUNICIPAL_BUS",
    "shortStopName": null,
    "Position": {
      "stopLongitude": "72.613655",
      "stopLatitude": "23.043979"
    },
    "RouteCodes": null,
    "Sequence": 1,
    "routeFlow": null
  },
  {
    "stopName": "Chamunda",
    "stopCode": 7190,
    "stationCode": 1349,
    "stopType": "MUNICIPAL_BUS",
    "shortStopName": null,
    "Position": {
      "stopLongitude": "72.611485",
      "stopLatitude": "23.040946"
    },
    "RouteCodes": null,
    "Sequence": 3,
    "routeFlow": null
  },
  {
    "stopName": "D.R.M.Office (Swadeshi Mill)",
    "stopCode": 7191,
    "stationCode": 1410,
    "stopType": "MUNICIPAL_BUS",
    "shortStopName": null,
    "Position": {
      "stopLongitude": "72.608935",
      "stopLatitude": "23.03906"
    },
    "RouteCodes": null,
    "Sequence": 4,
    "routeFlow": null
  },
  {
    "stopName": "Kutbi Mazar (Vorano Rozo)",
    "stopCode": 8910,
    "stationCode": 1940,
    "stopType": "MUNICIPAL_BUS",
    "shortStopName": null,
    "Position": {
      "stopLongitude": "72.60761",
      "stopLatitude": "23.037738"
    },
    "RouteCodes": null,
    "Sequence": 5,
    "routeFlow": null
  }
]