[
  {
    "stopName": "Chhinkaniwala Estate",
    "stopCode": 1200,
    "stationCode": 1380,
    "stopType": "MUNICIPAL_BUS",
    "shortStopName": null,
    "Position": {
      "stopLongitude": "72.617886",
      "stopLatitude": "23.01717"
    },
    "RouteCodes": null,
    "Sequence": 21,
    "routeFlow": "LINESTRING (72.65598 22.98025, 72.65582 22.98026, 72.65558 22.98091, 72.65528 22.98152, 72.65496 22.98206, 72.65484 22.98223, 72.65457 22.98254, 72.65423 22.98281, 72.65401 22.983, 72.65373 22.98317, 72.65307 22.98356, 72.65307 22.98356, 72.65216 22.98417, 72.65148 22.98472, 72.65117 22.98499, 72.65081 22.98528, 72.6505 22.98547, 72.6505 22.98547, 72.64968 22.98594, 72.64928 22.9862, 72.64871 22.98661, 72.64801 22.98708, 72.64746 22.98744, 72.64713 22.98761, 72.64693 22.98767, 72.64693 22.98767, 72.64649 22.98781, 72.6458 22.98799, 72.64532 22.98809, 72.64532 22.98809, 72.64464 22.98825, 72.64428 22.98836, 72.64294 22.9889, 72.64273 22.98898, 72.64253 22.98904, 72.64205 22.98915, 72.64205 22.98915, 72.64148 22.98926, 72.6409 22.98941, 72.64065 22.98949, 72.64054 22.98947, 72.64029 22.98944, 72.63959 22.98977, 72.63928 22.98991, 72.63916 22.98996, 72.63916 22.98996, 72.63892 22.99005, 72.63877 22.99008, 72.63833 22.9901, 72.63727 22.99015, 72.63619 22.99018, 72.63619 22.99018, 72.63584 22.99018, 72.63571 22.99024, 72.63557 22.99024, 72.63541 22.9903, 72.63479 22.99088, 72.63455 22.99112, 72.63396 22.9917, 72.63288 22.99266, 72.63235 22.99301, 72.63235 22.99301, 72.63144 22.9937, 72.63051 22.99421, 72.63043 22.99426, 72.63039 22.99432, 72.62943 22.99496, 72.62933 22.99502, 72.62925 22.99506, 72.62925 22.99506, 72.6288 22.99532, 72.62841 22.99559, 72.62759 22.99628, 72.62639 22.9973, 72.62622 22.99746, 72.62618 22.99742, 72.62508 22.99841, 72.62457 22.99884, 72.62451 22.99888, 72.62444 22.99889, 72.6247 22.99922, 72.62501 22.99975, 72.62521 23.00015, 72.62553 23.00085, 72.62578 23.00125, 72.62579 23.00127, 72.62579 23.00127, 72.62631 23.00227, 72.6265 23.00274, 72.62694 23.00404, 72.62699 23.00423, 72.62688 23.00425, 72.62621 23.00435, 72.62573 23.0044, 72.62574 23.0048, 72.62574 23.00514, 72.62574 23.00535, 72.62541 23.00567, 72.6249 23.00637, 72.62468 23.00648, 72.62447 23.00663, 72.62429 23.00681, 72.62429 23.00681, 72.62421 23.00694, 72.62419 23.00702, 72.62421 23.00789, 72.62428 23.00891, 72.62398 23.00902, 72.62398 23.00902, 72.62198 23.00979, 72.62198 23.00979, 72.62114 23.0101, 72.62015 23.01045, 72.62015 23.01045, 72.6199 23.01054, 72.61987 23.01059, 72.61972 23.01062, 72.61938 23.01068, 72.61891 23.0107, 72.61835 23.01073, 72.61801 23.01077, 72.61786 23.01076, 72.61699 23.0108, 72.61692 23.01076, 72.61692 23.01076, 72.61706 23.01085, 72.61725 23.01102, 72.61741 23.01114, 72.61757 23.01133, 72.61774 23.01161, 72.61803 23.01217, 72.6181 23.01226, 72.61847 23.01305, 72.61901 23.01425, 72.61932 23.01492, 72.61939 23.01512, 72.6194 23.01515, 72.61956 23.01563, 72.61986 23.01665, 72.61998 23.017, 72.62004 23.01733, 72.6195 23.0173, 72.6195 23.0173, 72.61835 23.01721, 72.61788 23.01718, 72.61654 23.0171, 72.61595 23.01712, 72.61499 23.01712, 72.61419 23.01717, 72.61403 23.0172, 72.61403 23.0172, 72.61373 23.01727, 72.61356 23.01732, 72.61361 23.01741, 72.61384 23.01781, 72.61383 23.01782, 72.61382 23.01783, 72.6138 23.01787, 72.6138 23.0179, 72.61384 23.01796, 72.61386 23.01797, 72.61387 23.01798, 72.61386 23.01884, 72.61382 23.01911, 72.61376 23.01928, 72.61367 23.01943, 72.61351 23.01961, 72.61322 23.01992, 72.61322 23.01992, 72.61311 23.02004, 72.61297 23.02038, 72.61273 23.02098, 72.61266 23.02121, 72.61266 23.02121, 72.61247 23.02184, 72.60954 23.0212, 72.60954 23.0212, 72.609233 23.021118, 72.60841 23.02092, 72.60841 23.02093, 72.60823 23.02094, 72.60792 23.02088, 72.60742 23.02079, 72.60709 23.0207, 72.60709 23.0207, 72.607 23.02067, 72.60699 23.02077, 72.60688 23.02155, 72.60675 23.02227, 72.60667 23.02293, 72.60658 23.02387, 72.60657 23.02397, 72.60661 23.02411, 72.60658 23.02437, 72.60655 23.02455, 72.60656 23.02458, 72.60656 23.02458, 72.60629 23.02495, 72.60611 23.02518, 72.6059 23.02539, 72.60577 23.02543, 72.60519 23.0255, 72.60505 23.02553, 72.60497 23.02557, 72.60486 23.0257, 72.60478 23.02584, 72.60468 23.02612, 72.60459 23.02664, 72.60456 23.02681, 72.60458 23.02698, 72.60446 23.02758, 72.60448 23.02761, 72.60443 23.02768, 72.60451 23.02775, 72.60447 23.02792, 72.60447 23.02792, 72.60446 23.02841, 72.60446 23.02889, 72.60448 23.02956, 72.60447 23.03043, 72.60445 23.03065, 72.60445 23.03065, 72.60433 23.03094, 72.6043 23.03104, 72.60429 23.03116, 72.60396 23.03149, 72.60362 23.03186, 72.6035 23.03206, 72.60323 23.03271, 72.60314 23.03298, 72.60313 23.03298, 72.60312 23.03298, 72.6031 23.03298, 72.60308 23.03299, 72.60306 23.03303, 72.60306 23.03305, 72.60277 23.03312, 72.60121 23.03322, 72.60092 23.03318, 72.60073 23.0331, 72.60053 23.03297, 72.60028 23.03274, 72.5995 23.03192, 72.5995 23.03192, 72.59928 23.0317, 72.59906 23.03154, 72.59873 23.03129, 72.59875 23.03126, 72.59879 23.03114, 72.59864 23.03111, 72.59841 23.03106, 72.59822 23.03104, 72.59802 23.0314, 72.59798 23.03156, 72.59791 23.0318, 72.59791 23.0318, 72.59777 23.03255, 72.59755 23.03328, 72.59748 23.03355, 72.59732 23.034, 72.59714 23.03437, 72.59707 23.03469, 72.59703 23.0348, 72.59694 23.03492, 72.59719 23.03502, 72.59729 23.03511, 72.59712 23.03522, 72.59685 23.03554, 72.59661 23.03585, 72.59659 23.03584, 72.59629 23.03621, 72.59604 23.03644, 72.5958 23.03664, 72.59544 23.03688, 72.59504 23.03711, 72.59454 23.03732, 72.59399 23.03748, 72.59399 23.03748, 72.59357 23.03758, 72.59354 23.03758, 72.59296 23.03765, 72.59293 23.03766, 72.59274 23.03763, 72.59219 23.03763, 72.59166 23.03763, 72.5914 23.03763, 72.59078 23.03756, 72.59027 23.03751, 72.59015 23.03752, 72.59015 23.03752, 72.58983 23.03757, 72.58939 23.03767, 72.58807 23.03789, 72.58787 23.03793, 72.5879 23.03803, 72.58805 23.03864, 72.58831 23.03963, 72.58831 23.03963, 72.58862 23.04078, 72.58874 23.04128, 72.58883 23.0415, 72.58937 23.04272, 72.58936 23.04273, 72.58934 23.04276, 72.58933 23.04279, 72.58945 23.04311, 72.58951 23.04325, 72.58952 23.04371, 72.58954 23.04451, 72.58955 23.04509, 72.58955 23.04509, 72.5896 23.04669, 72.5896 23.04669, 72.58966 23.04862, 72.58966 23.04862, 72.58968 23.04953, 72.5897 23.04994, 72.58973 23.05023, 72.5898 23.05055, 72.5899 23.05092, 72.59035 23.05238, 72.59035 23.05238, 72.59047 23.05278, 72.59055 23.05314, 72.59054 23.05315, 72.59052 23.05317, 72.59051 23.05323, 72.59017 23.0542, 72.59007 23.05459, 72.59002 23.05475, 72.58992 23.05486, 72.58945 23.05526, 72.58845 23.05607, 72.58845 23.05607, 72.5883 23.05624, 72.58808 23.05663, 72.58711 23.05859, 72.58711 23.05859, 72.58623 23.06032, 72.58503 23.06268, 72.58369 23.06523, 72.58374 23.06525, 72.58336 23.06593, 72.58326 23.06602, 72.58319 23.06612, 72.58315 23.06612, 72.58309 23.06614, 72.58305 23.06617, 72.583 23.06623, 72.58298 23.0663, 72.583 23.06641, 72.58303 23.06644, 72.58301 23.06656, 72.58302 23.0669, 72.58299 23.06709, 72.58295 23.06716, 72.58277 23.06734, 72.58158 23.06834, 72.58149 23.06842, 72.58144 23.06855, 72.58146 23.0687, 72.58153 23.06881, 72.5816 23.06887, 72.58168 23.06892, 72.58196 23.06902, 72.58302 23.06917, 72.58416 23.06935, 72.58454 23.06941, 72.58494 23.06948, 72.58506 23.06948, 72.58577 23.06944, 72.58692 23.0694, 72.5871 23.06942, 72.58742 23.0695, 72.58877 23.06981, 72.58913 23.06993, 72.58924 23.07001, 72.58943 23.07018, 72.58974 23.07057, 72.59008 23.07103, 72.59091 23.07206, 72.59129 23.0725, 72.59187 23.07324, 72.59203 23.07344, 72.59194 23.07361, 72.59159 23.07414, 72.59159 23.07414, 72.59144 23.07438, 72.59136 23.07455, 72.59024 23.07734, 72.59 23.07786, 72.59 23.07786, 72.58966 23.07864, 72.58959 23.07879, 72.58959 23.07889, 72.5896 23.07892, 72.5895 23.07899, 72.58943 23.07905, 72.58876 23.0799, 72.58796 23.08083, 72.58776 23.08106, 72.58776 23.08106, 72.58726 23.08167, 72.58647 23.08271, 72.58567 23.08379, 72.58563 23.08397, 72.58562 23.08424, 72.58555 23.08461, 72.5855 23.08478, 72.58544 23.08489, 72.58542 23.08492, 72.58542 23.08492, 72.58521 23.08517, 72.58512 23.08542, 72.5851 23.08559, 72.5851 23.08593, 72.58509 23.08621, 72.58505 23.08647, 72.58504 23.08685, 72.58507 23.08714, 72.58511 23.08742, 72.58513 23.08755, 72.58513 23.08755, 72.58521 23.08794, 72.58529 23.08825, 72.58538 23.08876, 72.58559 23.09007, 72.58556 23.09019, 72.58555 23.09019, 72.58554 23.09019, 72.58552 23.0902, 72.58551 23.09021, 72.58549 23.09023, 72.58548 23.09026, 72.58552 23.09031, 72.58553 23.09035, 72.58541 23.09078, 72.58541 23.09078, 72.5853 23.09119, 72.58523 23.09161, 72.58515 23.09219, 72.58502 23.09288, 72.58503 23.09298, 72.58503 23.09298, 72.5851 23.09315, 72.58562 23.09412, 72.58567 23.09431, 72.58563 23.09442, 72.58555 23.0945, 72.58545 23.09454, 72.58531 23.09455, 72.58515 23.09453, 72.58487 23.0944, 72.58486 23.09443, 72.58386 23.09395, 72.58386 23.09395, 72.58321 23.09362, 72.58282 23.09342, 72.58273 23.09357, 72.58211 23.09464, 72.58211 23.09464, 72.58143 23.09587, 72.58043 23.09762, 72.58043 23.09762, 72.5794 23.09946, 72.5791 23.09996, 72.5781 23.10173, 72.5781 23.10173, 72.57781 23.10219, 72.57773 23.10221, 72.57767 23.10219, 72.57695 23.10167, 72.57695 23.10167, 72.57633 23.1012, 72.57607 23.10098, 72.5756 23.10064, 72.57544 23.10055, 72.57538 23.10054, 72.57486 23.10073, 72.57486 23.10073, 72.57241 23.1016, 72.57135 23.10198, 72.57108 23.10209, 72.57031 23.1025, 72.57009 23.10262, 72.57008 23.10261, 72.56782 23.10386, 72.56783 23.10387, 72.56726 23.10419, 72.56706 23.10433, 72.56698 23.10442, 72.56686 23.1047, 72.56673 23.10488, 72.56645 23.10526, 72.56637 23.10532, 72.56623 23.10556, 72.56548 23.10709, 72.56543 23.10733, 72.56543 23.10742, 72.5655 23.10755, 72.5657 23.10783, 72.56553 23.10818, 72.56555 23.10815, 72.5645 23.11073, 72.5645 23.11073, 72.56384 23.1123, 72.56384 23.1123, 72.56279 23.11491, 72.5627 23.11504, 72.56256 23.11507, 72.56238 23.11504, 72.56215 23.11502, 72.56205 23.11508, 72.56197 23.11523, 72.56193 23.11539, 72.56188 23.11572, 72.56164 23.11748, 72.56154 23.11813, 72.56143 23.11834, 72.56129 23.11851, 72.56118 23.11861, 72.56118 23.11861, 72.56076 23.11895, 72.56067 23.11908, 72.5606 23.11923, 72.56049 23.11978, 72.56029 23.12044, 72.56023 23.12064, 72.56018 23.12098, 72.56008 23.12214, 72.56006 23.12261, 72.56015 23.12323, 72.56016 23.12357, 72.5601 23.12422, 72.55995 23.12519, 72.55991 23.12533, 72.55991 23.12533, 72.55988 23.12542, 72.55965 23.12563, 72.55894 23.12615, 72.55887 23.12627, 72.55884 23.1264, 72.55879 23.12662, 72.55873 23.12675, 72.55854 23.12699, 72.55847 23.12706)"
  },
  {
    "stopName": "Gomtipur Darwaja",
    "stopCode": 1201,
    "stationCode": 1576,
    "stopType": "MUNICIPAL_BUS",
    "shortStopName": null,
    "Position": {
      "stopLongitude": "72.614021",
      "stopLatitude": "23.017171"
    },
    "RouteCodes": null,
    "Sequence": 22,
    "routeFlow": null
  },
  {
    "stopName": "Shuddodhannagar",
    "stopCode": 1202,
    "stationCode": 2772,
    "stopType": "MUNICIPAL_BUS",
    "shortStopName": null,
    "Position": {
      "stopLongitude": "72.613233",
      "stopLatitude": "23.019933"
    },
    "RouteCodes": null,
    "Sequence": 23,
    "routeFlow": null
  },
  {
    "stopName": "Patel Mills",
    "stopCode": 1203,
    "stationCode": 2323,
    "stopType": "MUNICIPAL_BUS",
    "shortStopName": null,
    "Position": {
      "stopLongitude": "72.612637",
      "stopLatitude": "23.0212"
    },
    "RouteCodes": null,
    "Sequence": 24,
    "routeFlow": null
  },
  {
    "stopName": "Prem Darwaja",
    "stopCode": 1205,
    "stationCode": 2378,
    "stopType": "MUNICIPAL_BUS",
    "shortStopName": null,
    "Position": {
      "stopLongitude": "72.596563",
      "stopLatitude": "23.035823"
    },
    "RouteCodes": null,
    "Sequence": 34,
    "routeFlow": null
  },
  {
    "stopName": "Dariyapur Darwaja",
    "stopCode": 1206,
    "stationCode": 1423,
    "stopType": "MUNICIPAL_BUS",
    "shortStopName": null,
    "Position": {
      "stopLongitude": "72.593976",
      "stopLatitude": "23.037433"
    },
    "RouteCodes": null,
    "Sequence": 35,
    "routeFlow": null
  },
  {
    "stopName": "Madhupura",
    "stopCode": 1207,
    "stationCode": 1991,
    "stopType": "MUNICIPAL_BUS",
    "shortStopName": null,
    "Position": {
      "stopLongitude": "72.590148",
      "stopLatitude": "23.03751"
    },
    "RouteCodes": null,
    "Sequence": 36,
    "routeFlow": null
  },
  {
    "stopName": "Bombay Housing Police Line",
    "stopCode": 1485,
    "stationCode": 1319,
    "stopType": "MUNICIPAL_BUS",
    "shortStopName": null,
    "Position": {
      "stopLongitude": "72.609546",
      "stopLatitude": "23.021163"
    },
    "RouteCodes": null,
    "Sequence": 25,
    "routeFlow": null
  },
  {
    "stopName": "Hathi Khai",
    "stopCode": 1486,
    "stationCode": 1669,
    "stopType": "MUNICIPAL_BUS",
    "shortStopName": null,
    "Position": {
      "stopLongitude": "72.608411",
      "stopLatitude": "23.020918"
    },
    "RouteCodes": null,
    "Sequence": 26,
    "routeFlow": null
  },
  {
    "stopName": "Delhi Darwaja (Rt.105 Stand)",
    "stopCode": 1580,
    "stationCode": 1431,
    "stopType": "MUNICIPAL_BUS",
    "shortStopName": null,
    "Position": {
      "stopLongitude": "72.588341",
      "stopLatitude": "23.03962"
    },
    "RouteCodes": null,
    "Sequence": 37,
    "routeFlow": null
  },
  {
    "stopName": "Swaminarayan Mandir (Shahibag)",
    "stopCode": 1581,
    "stationCode": 2893,
    "stopType": "MUNICIPAL_BUS",
    "shortStopName": null,
    "Position": {
      "stopLongitude": "72.589541",
      "stopLatitude": "23.045086"
    },
    "RouteCodes": null,
    "Sequence": 38,
    "routeFlow": null
  },
  {
    "stopName": "Hirabag",
    "stopCode": 1582,
    "stationCode": 1687,
    "stopType": "MUNICIPAL_BUS",
    "shortStopName": null,
    "Position": {
      "stopLongitude": "72.589593",
      "stopLatitude": "23.046686"
    },
    "RouteCodes": null,
    "Sequence": 39,
    "routeFlow": null
  },
  {
    "stopName": "Police Commissioner Office",
    "stopCode": 1583,
    "stationCode": 2346,
    "stopType": "MUNICIPAL_BUS",
    "shortStopName": null,
    "Position": {
      "stopLongitude": "72.58968",
      "stopLatitude": "23.048623"
    },
    "RouteCodes": null,
    "Sequence": 40,
    "routeFlow": null
  },
  {
    "stopName": "Shahibag Underbridge",
    "stopCode": 1584,
    "stationCode": 2681,
    "stopType": "MUNICIPAL_BUS",
    "shortStopName": null,
    "Position": {
      "stopLongitude": "72.590366",
      "stopLatitude": "23.052375"
    },
    "RouteCodes": null,
    "Sequence": 41,
    "routeFlow": null
  },
  {
    "stopName": "Kalupur Overbridge",
    "stopCode": 1713,
    "stationCode": 1838,
    "stopType": "MUNICIPAL_BUS",
    "shortStopName": null,
    "Position": {
      "stopLongitude": "72.599526",
      "stopLatitude": "23.031896"
    },
    "RouteCodes": null,
    "Sequence": 31,
    "routeFlow": null
  },
  {
    "stopName": "Power House",
    "stopCode": 2174,
    "stationCode": 2353,
    "stopType": "MUNICIPAL_BUS",
    "shortStopName": null,
    "Position": {
      "stopLongitude": "72.591618",
      "stopLatitude": "23.07416"
    },
    "RouteCodes": null,
    "Sequence": 45,
    "routeFlow": null
  },
  {
    "stopName": "Dharmnagar",
    "stopCode": 2175,
    "stationCode": 1457,
    "stopType": "MUNICIPAL_BUS",
    "shortStopName": null,
    "Position": {
      "stopLongitude": "72.590011",
      "stopLatitude": "23.077861"
    },
    "RouteCodes": null,
    "Sequence": 46,
    "routeFlow": null
  },
  {
    "stopName": "Gram Panchayat Office",
    "stopCode": 2176,
    "stationCode": 1601,
    "stopType": "MUNICIPAL_BUS",
    "shortStopName": null,
    "Position": {
      "stopLongitude": "72.587765",
      "stopLatitude": "23.081056"
    },
    "RouteCodes": null,
    "Sequence": 47,
    "routeFlow": null
  },
  {
    "stopName": "Church",
    "stopCode": 2177,
    "stationCode": 1395,
    "stopType": "MUNICIPAL_BUS",
    "shortStopName": null,
    "Position": {
      "stopLongitude": "72.585415",
      "stopLatitude": "23.084916"
    },
    "RouteCodes": null,
    "Sequence": 48,
    "routeFlow": null
  },
  {
    "stopName": "Kabir Chowk",
    "stopCode": 2178,
    "stationCode": 1814,
    "stopType": "MUNICIPAL_BUS",
    "shortStopName": null,
    "Position": {
      "stopLongitude": "72.585085",
      "stopLatitude": "23.087555"
    },
    "RouteCodes": null,
    "Sequence": 49,
    "routeFlow": null
  },
  {
    "stopName": "Hatkeshwar Mahadev",
    "stopCode": 2257,
    "stationCode": 1673,
    "stopType": "MUNICIPAL_BUS",
    "shortStopName": null,
    "Position": {
      "stopLongitude": "72.624486",
      "stopLatitude": "22.998852"
    },
    "RouteCodes": null,
    "Sequence": 12,
    "routeFlow": null
  },
  {
    "stopName": "Kalupur",
    "stopCode": 2271,
    "stationCode": 1836,
    "stopType": "MUNICIPAL_BUS",
    "shortStopName": null,
    "Position": {
      "stopLongitude": "72.59866",
      "stopLatitude": "23.031238"
    },
    "RouteCodes": null,
    "Sequence": 32,
    "routeFlow": null
  },
  {
    "stopName": "Ramol Gam",
    "stopCode": 2302,
    "stationCode": 2473,
    "stopType": "MUNICIPAL_BUS",
    "shortStopName": null,
    "Position": {
      "stopLongitude": "72.65598",
      "stopLatitude": "22.980271"
    },
    "RouteCodes": null,
    "Sequence": 1,
    "routeFlow": null
  },
  {
    "stopName": "Paper Mill",
    "stopCode": 2303,
    "stationCode": 2299,
    "stopType": "MUNICIPAL_BUS",
    "shortStopName": null,
    "Position": {
      "stopLongitude": "72.653014",
      "stopLatitude": "22.983481"
    },
    "RouteCodes": null,
    "Sequence": 2,
    "routeFlow": null
  },
  {
    "stopName": "Janatanagar(Ramol)",
    "stopCode": 2304,
    "stationCode": 1760,
    "stopType": "MUNICIPAL_BUS",
    "shortStopName": null,
    "Position": {
      "stopLongitude": "72.650503",
      "stopLatitude": "22.985476"
    },
    "RouteCodes": null,
    "Sequence": 3,
    "routeFlow": null
  },
  {
    "stopName": "Talavdi (Ramol)",
    "stopCode": 2305,
    "stationCode": 3100,
    "stopType": "MUNICIPAL_BUS",
    "shortStopName": null,
    "Position": {
      "stopLongitude": "72.646907",
      "stopLatitude": "22.987618"
    },
    "RouteCodes": null,
    "Sequence": 4,
    "routeFlow": null
  },
  {
    "stopName": "Krushnamacharini Chali",
    "stopCode": 2306,
    "stationCode": 1927,
    "stopType": "MUNICIPAL_BUS",
    "shortStopName": null,
    "Position": {
      "stopLongitude": "72.645301",
      "stopLatitude": "22.988023"
    },
    "RouteCodes": null,
    "Sequence": 5,
    "routeFlow": null
  },
  {
    "stopName": "Garnala (Sindhavaimata)",
    "stopCode": 2307,
    "stationCode": 1531,
    "stopType": "MUNICIPAL_BUS",
    "shortStopName": null,
    "Position": {
      "stopLongitude": "72.642044",
      "stopLatitude": "22.989115"
    },
    "RouteCodes": null,
    "Sequence": 6,
    "routeFlow": null
  },
  {
    "stopName": "Sindhavainagar",
    "stopCode": 2308,
    "stationCode": 2802,
    "stopType": "MUNICIPAL_BUS",
    "shortStopName": null,
    "Position": {
      "stopLongitude": "72.639148",
      "stopLatitude": "22.989935"
    },
    "RouteCodes": null,
    "Sequence": 7,
    "routeFlow": null
  },
  {
    "stopName": "Sindhavaimata",
    "stopCode": 2309,
    "stationCode": 2801,
    "stopType": "MUNICIPAL_BUS",
    "shortStopName": null,
    "Position": {
      "stopLongitude": "72.636185",
      "stopLatitude": "22.990123"
    },
    "RouteCodes": null,
    "Sequence": 8,
    "routeFlow": null
  },
  {
    "stopName": "C.T.M. Cross Road",
    "stopCode": 2310,
    "stationCode": 1326,
    "stopType": "MUNICIPAL_BUS",
    "shortStopName": null,
    "Position": {
      "stopLongitude": "72.632331",
      "stopLatitude": "22.992985"
    },
    "RouteCodes": null,
    "Sequence": 9,
    "routeFlow": null
  },
  {
    "stopName": "Lal Bangla (Ctm)",
    "stopCode": 2311,
    "stationCode": 1960,
    "stopType": "MUNICIPAL_BUS",
    "shortStopName": null,
    "Position": {
      "stopLongitude": "72.629233",
      "stopLatitude": "22.995045"
    },
    "RouteCodes": null,
    "Sequence": 10,
    "routeFlow": null
  },
  {
    "stopName": "Hatkeshwar Depo",
    "stopCode": 2312,
    "stationCode": 1672,
    "stopType": "MUNICIPAL_BUS",
    "shortStopName": null,
    "Position": {
      "stopLongitude": "72.62607",
      "stopLatitude": "22.99732"
    },
    "RouteCodes": null,
    "Sequence": 11,
    "routeFlow": null
  },
  {
    "stopName": "Jawahar School",
    "stopCode": 3488,
    "stationCode": 1770,
    "stopType": "MUNICIPAL_BUS",
    "shortStopName": null,
    "Position": {
      "stopLongitude": "72.585426",
      "stopLatitude": "23.090781"
    },
    "RouteCodes": null,
    "Sequence": 50,
    "routeFlow": null
  },
  {
    "stopName": "Jawahar Chowk (Sabarmati)",
    "stopCode": 3489,
    "stationCode": 1769,
    "stopType": "MUNICIPAL_BUS",
    "shortStopName": null,
    "Position": {
      "stopLongitude": "72.585031",
      "stopLatitude": "23.092983"
    },
    "RouteCodes": null,
    "Sequence": 51,
    "routeFlow": null
  },
  {
    "stopName": "Siddheshwar Ganesh Mandir",
    "stopCode": 3490,
    "stationCode": 2788,
    "stopType": "MUNICIPAL_BUS",
    "shortStopName": null,
    "Position": {
      "stopLongitude": "72.584875",
      "stopLatitude": "23.094395"
    },
    "RouteCodes": null,
    "Sequence": 52,
    "routeFlow": null
  },
  {
    "stopName": "Railway Colony Hospital",
    "stopCode": 3491,
    "stationCode": 2430,
    "stopType": "MUNICIPAL_BUS",
    "shortStopName": null,
    "Position": {
      "stopLongitude": "72.583882",
      "stopLatitude": "23.093906"
    },
    "RouteCodes": null,
    "Sequence": 53,
    "routeFlow": null
  },
  {
    "stopName": "Railway School",
    "stopCode": 3492,
    "stationCode": 2434,
    "stopType": "MUNICIPAL_BUS",
    "shortStopName": null,
    "Position": {
      "stopLongitude": "72.5821",
      "stopLatitude": "23.094639"
    },
    "RouteCodes": null,
    "Sequence": 54,
    "routeFlow": null
  },
  {
    "stopName": "Railway Colony (Kali Bridge Cross Road)",
    "stopCode": 3493,
    "stationCode": 2428,
    "stopType": "MUNICIPAL_BUS",
    "shortStopName": null,
    "Position": {
      "stopLongitude": "72.580372",
      "stopLatitude": "23.09759"
    },
    "RouteCodes": null,
    "Sequence": 55,
    "routeFlow": null
  },
  {
    "stopName": "Chandkheda Cross Road",
    "stopCode": 3495,
    "stationCode": 1358,
    "stopType": "MUNICIPAL_BUS",
    "shortStopName": null,
    "Position": {
      "stopLongitude": "72.578038",
      "stopLatitude": "23.101698"
    },
    "RouteCodes": null,
    "Sequence": 56,
    "routeFlow": null
  },
  {
    "stopName": "Vallabh Park",
    "stopCode": 3496,
    "stationCode": 3002,
    "stopType": "MUNICIPAL_BUS",
    "shortStopName": null,
    "Position": {
      "stopLongitude": "72.576973",
      "stopLatitude": "23.101643"
    },
    "RouteCodes": null,
    "Sequence": 57,
    "routeFlow": null
  },
  {
    "stopName": "Police Stadium",
    "stopCode": 3543,
    "stationCode": 2347,
    "stopType": "MUNICIPAL_BUS",
    "shortStopName": null,
    "Position": {
      "stopLongitude": "72.588465",
      "stopLatitude": "23.056085"
    },
    "RouteCodes": null,
    "Sequence": 42,
    "routeFlow": null
  },
  {
    "stopName": "Naranghat",
    "stopCode": 3544,
    "stationCode": 2151,
    "stopType": "MUNICIPAL_BUS",
    "shortStopName": null,
    "Position": {
      "stopLongitude": "72.587023",
      "stopLatitude": "23.058553"
    },
    "RouteCodes": null,
    "Sequence": 43,
    "routeFlow": null
  },
  {
    "stopName": "Sanskar Society",
    "stopCode": 3554,
    "stationCode": 2583,
    "stopType": "MUNICIPAL_BUS",
    "shortStopName": null,
    "Position": {
      "stopLongitude": "72.565541",
      "stopLatitude": "23.108183"
    },
    "RouteCodes": null,
    "Sequence": 61,
    "routeFlow": null
  },
  {
    "stopName": "Manibhadra Tenaments",
    "stopCode": 3555,
    "stationCode": 2037,
    "stopType": "MUNICIPAL_BUS",
    "shortStopName": null,
    "Position": {
      "stopLongitude": "72.564508",
      "stopLatitude": "23.110733"
    },
    "RouteCodes": null,
    "Sequence": 62,
    "routeFlow": null
  },
  {
    "stopName": "Tejendranagar Society",
    "stopCode": 3558,
    "stationCode": 2923,
    "stopType": "MUNICIPAL_BUS",
    "shortStopName": null,
    "Position": {
      "stopLongitude": "72.563827",
      "stopLatitude": "23.112298"
    },
    "RouteCodes": null,
    "Sequence": 63,
    "routeFlow": null
  },
  {
    "stopName": "Bhathiji Maharajnu Mandir",
    "stopCode": 3559,
    "stationCode": 1282,
    "stopType": "MUNICIPAL_BUS",
    "shortStopName": null,
    "Position": {
      "stopLongitude": "72.561154",
      "stopLatitude": "23.118581"
    },
    "RouteCodes": null,
    "Sequence": 64,
    "routeFlow": null
  },
  {
    "stopName": "Tragad Gam",
    "stopCode": 3562,
    "stationCode": 2947,
    "stopType": "MUNICIPAL_BUS",
    "shortStopName": null,
    "Position": {
      "stopLongitude": "72.558458",
      "stopLatitude": "23.127056"
    },
    "RouteCodes": null,
    "Sequence": 66,
    "routeFlow": null
  },
  {
    "stopName": "Fruit Market",
    "stopCode": 3921,
    "stationCode": 1501,
    "stopType": "MUNICIPAL_BUS",
    "shortStopName": null,
    "Position": {
      "stopLongitude": "72.59793",
      "stopLatitude": "23.031806"
    },
    "RouteCodes": null,
    "Sequence": 33,
    "routeFlow": null
  },
  {
    "stopName": "Sabarmati 'D' Cabin",
    "stopCode": 4259,
    "stationCode": 2530,
    "stopType": "MUNICIPAL_BUS",
    "shortStopName": null,
    "Position": {
      "stopLongitude": "72.57006",
      "stopLatitude": "23.102583"
    },
    "RouteCodes": null,
    "Sequence": 59,
    "routeFlow": null
  },
  {
    "stopName": "Subhash Bridge Circle",
    "stopCode": 5598,
    "stationCode": 2848,
    "stopType": "MUNICIPAL_BUS",
    "shortStopName": null,
    "Position": {
      "stopLongitude": "72.583691",
      "stopLatitude": "23.06523"
    },
    "RouteCodes": null,
    "Sequence": 44,
    "routeFlow": null
  },
  {
    "stopName": "Varahi Society",
    "stopCode": 5599,
    "stationCode": 3012,
    "stopType": "MUNICIPAL_BUS",
    "shortStopName": null,
    "Position": {
      "stopLongitude": "72.574839",
      "stopLatitude": "23.100676"
    },
    "RouteCodes": null,
    "Sequence": 58,
    "routeFlow": null
  },
  {
    "stopName": "Abunagar Society (Ioc Road)",
    "stopCode": 5600,
    "stationCode": 1060,
    "stopType": "MUNICIPAL_BUS",
    "shortStopName": null,
    "Position": {
      "stopLongitude": "72.567845",
      "stopLatitude": "23.10389"
    },
    "RouteCodes": null,
    "Sequence": 60,
    "routeFlow": null
  },
  {
    "stopName": "Ravalwas",
    "stopCode": 5601,
    "stationCode": 2492,
    "stopType": "MUNICIPAL_BUS",
    "shortStopName": null,
    "Position": {
      "stopLongitude": "72.559896",
      "stopLatitude": "23.125327"
    },
    "RouteCodes": null,
    "Sequence": 65,
    "routeFlow": null
  },
  {
    "stopName": "Rudreshwar Mahadev",
    "stopCode": 7413,
    "stationCode": 3108,
    "stopType": "MUNICIPAL_BUS",
    "shortStopName": null,
    "Position": {
      "stopLongitude": "72.625788",
      "stopLatitude": "23.001269"
    },
    "RouteCodes": null,
    "Sequence": 13,
    "routeFlow": null
  },
  {
    "stopName": "Government Quarters (Gomtipur)",
    "stopCode": 7703,
    "stationCode": 1596,
    "stopType": "MUNICIPAL_BUS",
    "shortStopName": null,
    "Position": {
      "stopLongitude": "72.619501",
      "stopLatitude": "23.017258"
    },
    "RouteCodes": null,
    "Sequence": 20,
    "routeFlow": null
  },
  {
    "stopName": "Shrinagar Mill (Gurudwara)",
    "stopCode": 8106,
    "stationCode": 7193,
    "stopType": "MUNICIPAL_BUS",
    "shortStopName": null,
    "Position": {
      "stopLongitude": "72.604418",
      "stopLatitude": "23.030643"
    },
    "RouteCodes": null,
    "Sequence": 30,
    "routeFlow": null
  },
  {
    "stopName": "Kalupur Metro Station",
    "stopCode": 8107,
    "stationCode": 7194,
    "stopType": "MUNICIPAL_BUS",
    "shortStopName": null,
    "Position": {
      "stopLongitude": "72.604451",
      "stopLatitude": "23.02791"
    },
    "RouteCodes": null,
    "Sequence": 29,
    "routeFlow": null
  },
  {
    "stopName": "Kamdar Medan Char Rasta",
    "stopCode": 8110,
    "stationCode": 7195,
    "stopType": "MUNICIPAL_BUS",
    "shortStopName": null,
    "Position": {
      "stopLongitude": "72.607102",
      "stopLatitude": "23.020658"
    },
    "RouteCodes": null,
    "Sequence": 27,
    "routeFlow": null
  },
  {
    "stopName": "Chartoda Kbrstan Char Rasta",
    "stopCode": 8113,
    "stationCode": 7196,
    "stopType": "MUNICIPAL_BUS",
    "shortStopName": null,
    "Position": {
      "stopLongitude": "72.606532",
      "stopLatitude": "23.024584"
    },
    "RouteCodes": null,
    "Sequence": 28,
    "routeFlow": null
  },
  {
    "stopName": "Sukhramnagar",
    "stopCode": 8464,
    "stationCode": 6016,
    "stopType": "MUNICIPAL_BUS",
    "shortStopName": null,
    "Position": {
      "stopLongitude": "72.61932",
      "stopLatitude": "23.015176"
    },
    "RouteCodes": null,
    "Sequence": 19,
    "routeFlow": null
  },
  {
    "stopName": "New Cotton Mill",
    "stopCode": 8498,
    "stationCode": 6029,
    "stopType": "MUNICIPAL_BUS",
    "shortStopName": null,
    "Position": {
      "stopLongitude": "72.616946",
      "stopLatitude": "23.010728"
    },
    "RouteCodes": null,
    "Sequence": 18,
    "routeFlow": null
  },
  {
    "stopName": "Bunglow",
    "stopCode": 8500,
    "stationCode": 6030,
    "stopType": "MUNICIPAL_BUS",
    "shortStopName": null,
    "Position": {
      "stopLongitude": "72.621974",
      "stopLatitude": "23.009779"
    },
    "RouteCodes": null,
    "Sequence": 16,
    "routeFlow": null
  },
  {
    "stopName": "Indiranagar (Naranmitha ni chali)",
    "stopCode": 8502,
    "stationCode": 6031,
    "stopType": "MUNICIPAL_BUS",
    "shortStopName": null,
    "Position": {
      "stopLongitude": "72.623976",
      "stopLatitude": "23.009004"
    },
    "RouteCodes": null,
    "Sequence": 15,
    "routeFlow": null
  },
  {
    "stopName": "Amraiwadi",
    "stopCode": 8504,
    "stationCode": 6032,
    "stopType": "MUNICIPAL_BUS",
    "shortStopName": null,
    "Position": {
      "stopLongitude": "72.624275",
      "stopLatitude": "23.006791"
    },
    "RouteCodes": null,
    "Sequence": 14,
    "routeFlow": null
  },
  {
    "stopName": "Society ni chali",
    "stopCode": 8506,
    "stationCode": 6033,
    "stopType": "MUNICIPAL_BUS",
    "shortStopName": null,
    "Position": {
      "stopLongitude": "72.620142",
      "stopLatitude": "23.010437"
    },
    "RouteCodes": null,
    "Sequence": 17,
    "routeFlow": null
  }
]