[
  {
    "stopName": "Chhinkaniwala Estate",
    "stopCode": 1200,
    "stationCode": 1380,
    "stopType": "MUNICIPAL_BUS",
    "shortStopName": null,
    "Position": {
      "stopLongitude": "72.617886",
      "stopLatitude": "23.01717"
    },
    "RouteCodes": null,
    "Sequence": 21,
    "routeFlow": "LINESTRING (72.65598 22.98025, 72.65582 22.98026, 72.65558 22.98091, 72.65528 22.98152, 72.65496 22.98206, 72.65484 22.98223, 72.65457 22.98254, 72.65423 22.98281, 72.65401 22.983, 72.65373 22.98317, 72.65307 22.98356, 72.65307 22.98356, 72.65216 22.98417, 72.65148 22.98472, 72.65117 22.98499, 72.65081 22.98528, 72.6505 22.98547, 72.6505 22.98547, 72.64968 22.98594, 72.64928 22.9862, 72.64871 22.98661, 72.64801 22.98708, 72.64746 22.98744, 72.64713 22.98761, 72.64693 22.98767, 72.64693 22.98767, 72.64649 22.98781, 72.6458 22.98799, 72.64532 22.98809, 72.64532 22.98809, 72.64464 22.98825, 72.64428 22.98836, 72.64294 22.9889, 72.64273 22.98898, 72.64253 22.98904, 72.64205 22.98915, 72.64205 22.98915, 72.64148 22.98926, 72.6409 22.98941, 72.64065 22.98949, 72.64054 22.98947, 72.64029 22.98944, 72.63959 22.98977, 72.63928 22.98991, 72.63916 22.98996, 72.63916 22.98996, 72.63892 22.99005, 72.63877 22.99008, 72.63833 22.9901, 72.63727 22.99015, 72.63619 22.99018, 72.63619 22.99018, 72.63584 22.99018, 72.63571 22.99024, 72.63557 22.99024, 72.63541 22.9903, 72.63479 22.99088, 72.63455 22.99112, 72.63396 22.9917, 72.63288 22.99266, 72.63235 22.99301, 72.63235 22.99301, 72.63144 22.9937, 72.63051 22.99421, 72.63043 22.99426, 72.63039 22.99432, 72.62943 22.99496, 72.62933 22.99502, 72.62925 22.99506, 72.62925 22.99506, 72.6288 22.99532, 72.62841 22.99559, 72.62759 22.99628, 72.62639 22.9973, 72.62622 22.99746, 72.62618 22.99742, 72.62508 22.99841, 72.62457 22.99884, 72.62451 22.99888, 72.62444 22.99889, 72.6247 22.99922, 72.62501 22.99975, 72.62521 23.00015, 72.62553 23.00085, 72.62578 23.00125, 72.62579 23.00127, 72.62579 23.00127, 72.62631 23.00227, 72.6265 23.00274, 72.62694 23.00404, 72.62699 23.00423, 72.62688 23.00425, 72.62621 23.00435, 72.62573 23.0044, 72.62574 23.0048, 72.62574 23.00514, 72.62574 23.00535, 72.62541 23.00567, 72.6249 23.00637, 72.62468 23.00648, 72.62447 23.00663, 72.62429 23.00681, 72.62429 23.00681, 72.62421 23.00694, 72.62419 23.00702, 72.62421 23.00789, 72.62428 23.00891, 72.62398 23.00902, 72.62398 23.00902, 72.62198 23.00979, 72.62198 23.00979, 72.62114 23.0101, 72.62015 23.01045, 72.62015 23.01045, 72.6199 23.01054, 72.61987 23.01059, 72.61972 23.01062, 72.61938 23.01068, 72.61891 23.0107, 72.61835 23.01073, 72.61801 23.01077, 72.61786 23.01076, 72.61699 23.0108, 72.61692 23.01076, 72.61692 23.01076, 72.61706 23.01085, 72.61725 23.01102, 72.61741 23.01114, 72.61757 23.01133, 72.61774 23.01161, 72.61803 23.01217, 72.6181 23.01226, 72.61847 23.01305, 72.61901 23.01425, 72.61932 23.01492, 72.61939 23.01512, 72.6194 23.01515, 72.61956 23.01563, 72.61986 23.01665, 72.61998 23.017, 72.62004 23.01733, 72.6195 23.0173, 72.6195 23.0173, 72.61835 23.01721, 72.61788 23.01718, 72.61654 23.0171, 72.61595 23.01712, 72.61499 23.01712, 72.61419 23.01717, 72.61403 23.0172, 72.61403 23.0172, 72.61373 23.01727, 72.61356 23.01732, 72.61361 23.01741, 72.61384 23.01781, 72.61383 23.01782, 72.61382 23.01783, 72.6138 23.01787, 72.6138 23.0179, 72.61384 23.01796, 72.61386 23.01797, 72.61387 23.01798, 72.61386 23.01884, 72.61382 23.01911, 72.61376 23.01928, 72.61367 23.01943, 72.61351 23.01961, 72.61322 23.01992, 72.61322 23.01992, 72.61311 23.02004, 72.61297 23.02038, 72.61273 23.02098, 72.61266 23.02121, 72.61266 23.02121, 72.61247 23.02184, 72.60954 23.0212, 72.60954 23.0212, 72.609233 23.021118, 72.60841 23.02092, 72.60841 23.02092, 72.60823 23.02094, 72.60794 23.02088, 72.60777 23.02085, 72.60742 23.02079, 72.607 23.02067, 72.6062 23.02057, 72.60604 23.02057, 72.60595 23.02056, 72.60602 23.02031, 72.60562 23.02032, 72.60553 23.02034, 72.60553 23.02032, 72.60515 23.02037, 72.60513 23.02047, 72.60311 23.02052, 72.6028 23.02054, 72.60251 23.0206, 72.60186 23.02079, 72.60148 23.02093, 72.60111 23.02112, 72.59906 23.02226, 72.59896 23.0223, 72.59881 23.02232, 72.59863 23.02266, 72.59854 23.02284, 72.59852 23.02295, 72.59853 23.02309, 72.59858 23.02322, 72.59861 23.02324, 72.59871 23.02329, 72.59893 23.02336, 72.59914 23.02352, 72.59958 23.02418)"
  },
  {
    "stopName": "Gomtipur Darwaja",
    "stopCode": 1201,
    "stationCode": 1576,
    "stopType": "MUNICIPAL_BUS",
    "shortStopName": null,
    "Position": {
      "stopLongitude": "72.614021",
      "stopLatitude": "23.017171"
    },
    "RouteCodes": null,
    "Sequence": 22,
    "routeFlow": null
  },
  {
    "stopName": "Shuddodhannagar",
    "stopCode": 1202,
    "stationCode": 2772,
    "stopType": "MUNICIPAL_BUS",
    "shortStopName": null,
    "Position": {
      "stopLongitude": "72.613233",
      "stopLatitude": "23.019933"
    },
    "RouteCodes": null,
    "Sequence": 23,
    "routeFlow": null
  },
  {
    "stopName": "Patel Mills",
    "stopCode": 1203,
    "stationCode": 2323,
    "stopType": "MUNICIPAL_BUS",
    "shortStopName": null,
    "Position": {
      "stopLongitude": "72.612637",
      "stopLatitude": "23.0212"
    },
    "RouteCodes": null,
    "Sequence": 24,
    "routeFlow": null
  },
  {
    "stopName": "Bombay Housing Police Line",
    "stopCode": 1485,
    "stationCode": 1319,
    "stopType": "MUNICIPAL_BUS",
    "shortStopName": null,
    "Position": {
      "stopLongitude": "72.609546",
      "stopLatitude": "23.021163"
    },
    "RouteCodes": null,
    "Sequence": 25,
    "routeFlow": null
  },
  {
    "stopName": "Hathi Khai",
    "stopCode": 1486,
    "stationCode": 1669,
    "stopType": "MUNICIPAL_BUS",
    "shortStopName": null,
    "Position": {
      "stopLongitude": "72.608411",
      "stopLatitude": "23.020918"
    },
    "RouteCodes": null,
    "Sequence": 26,
    "routeFlow": null
  },
  {
    "stopName": "Kamdar Medan",
    "stopCode": 1487,
    "stationCode": 1845,
    "stopType": "MUNICIPAL_BUS",
    "shortStopName": null,
    "Position": {
      "stopLongitude": "72.605533",
      "stopLatitude": "23.020345"
    },
    "RouteCodes": null,
    "Sequence": 27,
    "routeFlow": null
  },
  {
    "stopName": "Hatkeshwar Mahadev",
    "stopCode": 2257,
    "stationCode": 1673,
    "stopType": "MUNICIPAL_BUS",
    "shortStopName": null,
    "Position": {
      "stopLongitude": "72.624486",
      "stopLatitude": "22.998852"
    },
    "RouteCodes": null,
    "Sequence": 12,
    "routeFlow": null
  },
  {
    "stopName": "Sarangpur",
    "stopCode": 2270,
    "stationCode": 2593,
    "stopType": "MUNICIPAL_BUS",
    "shortStopName": null,
    "Position": {
      "stopLongitude": "72.599565",
      "stopLatitude": "23.024185"
    },
    "RouteCodes": null,
    "Sequence": 28,
    "routeFlow": null
  },
  {
    "stopName": "Ramol Gam",
    "stopCode": 2302,
    "stationCode": 2473,
    "stopType": "MUNICIPAL_BUS",
    "shortStopName": null,
    "Position": {
      "stopLongitude": "72.65598",
      "stopLatitude": "22.980271"
    },
    "RouteCodes": null,
    "Sequence": 1,
    "routeFlow": null
  },
  {
    "stopName": "Paper Mill",
    "stopCode": 2303,
    "stationCode": 2299,
    "stopType": "MUNICIPAL_BUS",
    "shortStopName": null,
    "Position": {
      "stopLongitude": "72.653014",
      "stopLatitude": "22.983481"
    },
    "RouteCodes": null,
    "Sequence": 2,
    "routeFlow": null
  },
  {
    "stopName": "Janatanagar(Ramol)",
    "stopCode": 2304,
    "stationCode": 1760,
    "stopType": "MUNICIPAL_BUS",
    "shortStopName": null,
    "Position": {
      "stopLongitude": "72.650503",
      "stopLatitude": "22.985476"
    },
    "RouteCodes": null,
    "Sequence": 3,
    "routeFlow": null
  },
  {
    "stopName": "Talavdi (Ramol)",
    "stopCode": 2305,
    "stationCode": 3100,
    "stopType": "MUNICIPAL_BUS",
    "shortStopName": null,
    "Position": {
      "stopLongitude": "72.646907",
      "stopLatitude": "22.987618"
    },
    "RouteCodes": null,
    "Sequence": 4,
    "routeFlow": null
  },
  {
    "stopName": "Krushnamacharini Chali",
    "stopCode": 2306,
    "stationCode": 1927,
    "stopType": "MUNICIPAL_BUS",
    "shortStopName": null,
    "Position": {
      "stopLongitude": "72.645301",
      "stopLatitude": "22.988023"
    },
    "RouteCodes": null,
    "Sequence": 5,
    "routeFlow": null
  },
  {
    "stopName": "Garnala (Sindhavaimata)",
    "stopCode": 2307,
    "stationCode": 1531,
    "stopType": "MUNICIPAL_BUS",
    "shortStopName": null,
    "Position": {
      "stopLongitude": "72.642044",
      "stopLatitude": "22.989115"
    },
    "RouteCodes": null,
    "Sequence": 6,
    "routeFlow": null
  },
  {
    "stopName": "Sindhavainagar",
    "stopCode": 2308,
    "stationCode": 2802,
    "stopType": "MUNICIPAL_BUS",
    "shortStopName": null,
    "Position": {
      "stopLongitude": "72.639148",
      "stopLatitude": "22.989935"
    },
    "RouteCodes": null,
    "Sequence": 7,
    "routeFlow": null
  },
  {
    "stopName": "Sindhavaimata",
    "stopCode": 2309,
    "stationCode": 2801,
    "stopType": "MUNICIPAL_BUS",
    "shortStopName": null,
    "Position": {
      "stopLongitude": "72.636185",
      "stopLatitude": "22.990123"
    },
    "RouteCodes": null,
    "Sequence": 8,
    "routeFlow": null
  },
  {
    "stopName": "C.T.M. Cross Road",
    "stopCode": 2310,
    "stationCode": 1326,
    "stopType": "MUNICIPAL_BUS",
    "shortStopName": null,
    "Position": {
      "stopLongitude": "72.632331",
      "stopLatitude": "22.992985"
    },
    "RouteCodes": null,
    "Sequence": 9,
    "routeFlow": null
  },
  {
    "stopName": "Lal Bangla (Ctm)",
    "stopCode": 2311,
    "stationCode": 1960,
    "stopType": "MUNICIPAL_BUS",
    "shortStopName": null,
    "Position": {
      "stopLongitude": "72.629233",
      "stopLatitude": "22.995045"
    },
    "RouteCodes": null,
    "Sequence": 10,
    "routeFlow": null
  },
  {
    "stopName": "Hatkeshwar Depo",
    "stopCode": 2312,
    "stationCode": 1672,
    "stopType": "MUNICIPAL_BUS",
    "shortStopName": null,
    "Position": {
      "stopLongitude": "72.62607",
      "stopLatitude": "22.99732"
    },
    "RouteCodes": null,
    "Sequence": 11,
    "routeFlow": null
  },
  {
    "stopName": "Rudreshwar Mahadev",
    "stopCode": 7413,
    "stationCode": 3108,
    "stopType": "MUNICIPAL_BUS",
    "shortStopName": null,
    "Position": {
      "stopLongitude": "72.625788",
      "stopLatitude": "23.001269"
    },
    "RouteCodes": null,
    "Sequence": 13,
    "routeFlow": null
  },
  {
    "stopName": "Government Quarters (Gomtipur)",
    "stopCode": 7703,
    "stationCode": 1596,
    "stopType": "MUNICIPAL_BUS",
    "shortStopName": null,
    "Position": {
      "stopLongitude": "72.619501",
      "stopLatitude": "23.017258"
    },
    "RouteCodes": null,
    "Sequence": 20,
    "routeFlow": null
  },
  {
    "stopName": "Sukhramnagar",
    "stopCode": 8464,
    "stationCode": 6016,
    "stopType": "MUNICIPAL_BUS",
    "shortStopName": null,
    "Position": {
      "stopLongitude": "72.61932",
      "stopLatitude": "23.015176"
    },
    "RouteCodes": null,
    "Sequence": 19,
    "routeFlow": null
  },
  {
    "stopName": "New Cotton Mill",
    "stopCode": 8498,
    "stationCode": 6029,
    "stopType": "MUNICIPAL_BUS",
    "shortStopName": null,
    "Position": {
      "stopLongitude": "72.616946",
      "stopLatitude": "23.010728"
    },
    "RouteCodes": null,
    "Sequence": 18,
    "routeFlow": null
  },
  {
    "stopName": "Bunglow",
    "stopCode": 8500,
    "stationCode": 6030,
    "stopType": "MUNICIPAL_BUS",
    "shortStopName": null,
    "Position": {
      "stopLongitude": "72.621974",
      "stopLatitude": "23.009779"
    },
    "RouteCodes": null,
    "Sequence": 16,
    "routeFlow": null
  },
  {
    "stopName": "Indiranagar (Naranmitha ni chali)",
    "stopCode": 8502,
    "stationCode": 6031,
    "stopType": "MUNICIPAL_BUS",
    "shortStopName": null,
    "Position": {
      "stopLongitude": "72.623976",
      "stopLatitude": "23.009004"
    },
    "RouteCodes": null,
    "Sequence": 15,
    "routeFlow": null
  },
  {
    "stopName": "Amraiwadi",
    "stopCode": 8504,
    "stationCode": 6032,
    "stopType": "MUNICIPAL_BUS",
    "shortStopName": null,
    "Position": {
      "stopLongitude": "72.624275",
      "stopLatitude": "23.006791"
    },
    "RouteCodes": null,
    "Sequence": 14,
    "routeFlow": null
  },
  {
    "stopName": "Society ni chali",
    "stopCode": 8506,
    "stationCode": 6033,
    "stopType": "MUNICIPAL_BUS",
    "shortStopName": null,
    "Position": {
      "stopLongitude": "72.620142",
      "stopLatitude": "23.010437"
    },
    "RouteCodes": null,
    "Sequence": 17,
    "routeFlow": null
  }
]