[
  {
    "stopName": "Madhupura",
    "stopCode": 1157,
    "stationCode": 1991,
    "stopType": "MUNICIPAL_BUS",
    "shortStopName": null,
    "Position": {
      "stopLongitude": "72.589655",
      "stopLatitude": "23.037773"
    },
    "RouteCodes": null,
    "Sequence": 31,
    "routeFlow": "LINESTRING (72.55854 23.12699, 72.55873 23.12675, 72.55879 23.12662, 72.55884 23.1264, 72.55887 23.12627, 72.55894 23.12615, 72.55965 23.12563, 72.55988 23.12542, 72.55991 23.12533, 72.55991 23.12533, 72.55997 23.12504, 72.56011 23.1241, 72.56016 23.12339, 72.56007 23.12269, 72.56006 23.12251, 72.56009 23.12203, 72.56021 23.12076, 72.56035 23.12026, 72.56044 23.11997, 72.56052 23.11965, 72.56058 23.11932, 72.56063 23.11916, 72.56072 23.11901, 72.56084 23.11888, 72.56125 23.11854, 72.56125 23.11854, 72.56137 23.11843, 72.56148 23.11827, 72.56155 23.11806, 72.56193 23.11539, 72.56197 23.11523, 72.56205 23.11508, 72.56215 23.11502, 72.56223 23.11502, 72.5625 23.11507, 72.56264 23.11506, 72.5627 23.11504, 72.56275 23.11499, 72.56307 23.11421, 72.56385 23.11228, 72.56385 23.11228, 72.56461 23.11048, 72.56461 23.11048, 72.56556 23.10812, 72.56556 23.10812, 72.5657 23.10783, 72.56576 23.10777, 72.56562 23.10758, 72.56555 23.10744, 72.56553 23.10733, 72.56554 23.10722, 72.56558 23.10707, 72.56574 23.10673, 72.56642 23.10535, 72.56645 23.10526, 72.56682 23.10476, 72.56702 23.10436, 72.56711 23.10428, 72.56749 23.10404, 72.5679 23.10381, 72.5679 23.10381, 72.57004 23.10262, 72.57004 23.10262, 72.57107 23.10208, 72.5714 23.10193, 72.57209 23.10168, 72.57277 23.10146, 72.57453 23.10084, 72.57497 23.10068, 72.57497 23.10068, 72.57538 23.10054, 72.57544 23.10055, 72.5756 23.10064, 72.57607 23.10098, 72.57633 23.1012, 72.57655 23.10137, 72.57655 23.10137, 72.57768 23.1022, 72.57776 23.10221, 72.57781 23.10219, 72.5779 23.10207, 72.57806 23.10179, 72.57806 23.10179, 72.58047 23.09754, 72.58047 23.09754, 72.58119 23.0963, 72.58178 23.09521, 72.58211 23.09464, 72.58211 23.09464, 72.58273 23.09357, 72.58282 23.09342, 72.58321 23.0936, 72.58331 23.09365, 72.58331 23.09365, 72.58437 23.09417, 72.58501 23.09446, 72.58501 23.09446, 72.58515 23.09453, 72.58526 23.09455, 72.58532 23.09455, 72.58549 23.09453, 72.58558 23.09448, 72.58564 23.0944, 72.58567 23.09428, 72.58554 23.09397, 72.58508 23.0931, 72.58502 23.09293, 72.58507 23.0926, 72.58507 23.0926, 72.58523 23.09161, 72.5853 23.09119, 72.58548 23.09052, 72.58548 23.09052, 72.58553 23.09035, 72.58554 23.09032, 72.58555 23.09032, 72.58557 23.09032, 72.5856 23.09031, 72.58563 23.09026, 72.58561 23.09022, 72.58557 23.0902, 72.58559 23.09007, 72.58538 23.08876, 72.58529 23.08825, 72.58521 23.08794, 72.58512 23.08751, 72.58512 23.08751, 72.58504 23.08685, 72.58505 23.08647, 72.58508 23.0863, 72.5851 23.08609, 72.58511 23.08545, 72.58519 23.08521, 72.58541 23.08494, 72.58547 23.08485, 72.58547 23.08485, 72.58552 23.08473, 72.58558 23.08446, 72.58564 23.08394, 72.5857 23.08377, 72.58647 23.08271, 72.58727 23.08169, 72.58784 23.08103, 72.58784 23.08103, 72.58845 23.08031, 72.58938 23.07913, 72.58946 23.07903, 72.5896 23.07892, 72.58969 23.07888, 72.58969 23.07885, 72.58971 23.07873, 72.59017 23.07769, 72.59017 23.07769, 72.59046 23.07706, 72.59075 23.0763, 72.59104 23.07548, 72.59125 23.07502, 72.59155 23.07437, 72.59156 23.07434, 72.59156 23.07434, 72.59213 23.07358, 72.59223 23.07345, 72.59215 23.07339, 72.59193 23.07317, 72.59135 23.07246, 72.59076 23.07175, 72.59011 23.07095, 72.58987 23.07063, 72.5897 23.07039, 72.58955 23.07021, 72.58933 23.06998, 72.5891 23.06984, 72.58876 23.06973, 72.58744 23.06942, 72.58711 23.06935, 72.58691 23.06933, 72.58554 23.06938, 72.5849 23.06939, 72.58424 23.0693, 72.58253 23.06902, 72.58242 23.06899, 72.58227 23.06892, 72.58199 23.0686, 72.58197 23.06848, 72.58206 23.06839, 72.58213 23.06819, 72.58217 23.06813, 72.58265 23.06764, 72.58308 23.06728, 72.58321 23.06712, 72.58331 23.0669, 72.58334 23.06673, 72.58334 23.06646, 72.58339 23.06641, 72.58341 23.06634, 72.58339 23.06623, 72.58368 23.06563, 72.58366 23.06562, 72.58465 23.06369, 72.58472 23.06352, 72.58477 23.06334, 72.58509 23.06271, 72.58529 23.06234, 72.5863 23.06035, 72.58721 23.05858, 72.58721 23.05858, 72.58753 23.05796, 72.58822 23.05655, 72.5884 23.05624, 72.58869 23.056, 72.58869 23.056, 72.58956 23.05531, 72.58996 23.05497, 72.5901 23.05481, 72.59021 23.05454, 72.59043 23.05374, 72.59059 23.05331, 72.5906 23.05331, 72.59064 23.05331, 72.59069 23.05327, 72.59071 23.05321, 72.59069 23.05316, 72.59067 23.05315, 72.59061 23.05289, 72.59036 23.05207, 72.59027 23.05178, 72.59027 23.05178, 72.58997 23.05084, 72.58991 23.05064, 72.58984 23.05031, 72.58981 23.05009, 72.58977 23.04914, 72.58977 23.0491, 72.58977 23.0491, 72.58974 23.04703, 72.58974 23.04689, 72.58974 23.04689, 72.58966 23.04497, 72.58966 23.04497, 72.5896 23.04382, 72.58961 23.04359, 72.5897 23.04331, 72.58972 23.0433, 72.58975 23.04326, 72.58979 23.04317, 72.58979 23.04314, 72.58962 23.04275, 72.58959 23.04272, 72.58955 23.04269, 72.5895 23.04268, 72.58948 23.04268, 72.58946 23.04268, 72.58926 23.0422, 72.58893 23.04149, 72.58885 23.04127, 72.58845 23.03971, 72.58845 23.03971, 72.58816 23.03863, 72.58807 23.03813, 72.58808 23.038, 72.58836 23.03794, 72.58962 23.03775, 72.58965 23.03775, 72.58965 23.03775, 72.59011 23.03765, 72.59033 23.03762, 72.59088 23.03767, 72.59148 23.03771, 72.59216 23.03771, 72.59216 23.03771, 72.59274 23.03771, 72.59288 23.03775, 72.59289 23.0378, 72.59291 23.03782, 72.59293 23.03784, 72.59299 23.03786, 72.59302 23.03787, 72.59355 23.03781, 72.5936 23.03777, 72.59362 23.03774, 72.59386 23.03767, 72.59462 23.03743, 72.595 23.03729, 72.59538 23.0371, 72.59573 23.03689, 72.59589 23.03675, 72.5964 23.03629, 72.59662 23.03605, 72.59662 23.03605, 72.59706 23.03543, 72.59718 23.03529, 72.59725 23.03521, 72.59736 23.03516, 72.59746 23.03513, 72.59753 23.03506, 72.59759 23.03497, 72.59763 23.03477, 72.5976 23.03469, 72.59764 23.0346, 72.59784 23.03376, 72.59819 23.0325, 72.59833 23.03207, 72.5988 23.03109, 72.59939 23.03124, 72.60007 23.03139, 72.60018 23.03137, 72.60027 23.0313, 72.60032 23.03117, 72.60032 23.03024, 72.60032 23.03024, 72.60029 23.02853, 72.6003 23.02786, 72.60029 23.02661, 72.60029 23.02623, 72.60026 23.0256, 72.60024 23.02532, 72.60018 23.02505, 72.60013 23.02486, 72.60007 23.02477, 72.59925 23.02349)"
  },
  {
    "stopName": "Dariyapur Darwaja",
    "stopCode": 1158,
    "stationCode": 1423,
    "stopType": "MUNICIPAL_BUS",
    "shortStopName": null,
    "Position": {
      "stopLongitude": "72.592156",
      "stopLatitude": "23.037796"
    },
    "RouteCodes": null,
    "Sequence": 32,
    "routeFlow": null
  },
  {
    "stopName": "Prem Darwaja",
    "stopCode": 1159,
    "stationCode": 2378,
    "stopType": "MUNICIPAL_BUS",
    "shortStopName": null,
    "Position": {
      "stopLongitude": "72.596685",
      "stopLatitude": "23.036086"
    },
    "RouteCodes": null,
    "Sequence": 33,
    "routeFlow": null
  },
  {
    "stopName": "Police Commissioner Office",
    "stopCode": 1396,
    "stationCode": 2346,
    "stopType": "MUNICIPAL_BUS",
    "shortStopName": null,
    "Position": {
      "stopLongitude": "72.589805",
      "stopLatitude": "23.049103"
    },
    "RouteCodes": null,
    "Sequence": 27,
    "routeFlow": null
  },
  {
    "stopName": "Hirabag",
    "stopCode": 1397,
    "stationCode": 1687,
    "stopType": "MUNICIPAL_BUS",
    "shortStopName": null,
    "Position": {
      "stopLongitude": "72.589701",
      "stopLatitude": "23.046896"
    },
    "RouteCodes": null,
    "Sequence": 28,
    "routeFlow": null
  },
  {
    "stopName": "Swaminarayan Mandir (Shahibag)",
    "stopCode": 1398,
    "stationCode": 2893,
    "stopType": "MUNICIPAL_BUS",
    "shortStopName": null,
    "Position": {
      "stopLongitude": "72.589651",
      "stopLatitude": "23.044973"
    },
    "RouteCodes": null,
    "Sequence": 29,
    "routeFlow": null
  },
  {
    "stopName": "Delhi Darwaja (Rt.105 Stand)",
    "stopCode": 1399,
    "stationCode": 1431,
    "stopType": "MUNICIPAL_BUS",
    "shortStopName": null,
    "Position": {
      "stopLongitude": "72.58844",
      "stopLatitude": "23.039713"
    },
    "RouteCodes": null,
    "Sequence": 30,
    "routeFlow": null
  },
  {
    "stopName": "Kalupur Terminus",
    "stopCode": 1715,
    "stationCode": 1840,
    "stopType": "MUNICIPAL_BUS",
    "shortStopName": null,
    "Position": {
      "stopLongitude": "72.600373",
      "stopLatitude": "23.030241"
    },
    "RouteCodes": null,
    "Sequence": 34,
    "routeFlow": null
  },
  {
    "stopName": "Subhash Bridge Circle",
    "stopCode": 1821,
    "stationCode": 2848,
    "stopType": "MUNICIPAL_BUS",
    "shortStopName": null,
    "Position": {
      "stopLongitude": "72.583698",
      "stopLatitude": "23.065633"
    },
    "RouteCodes": null,
    "Sequence": 23,
    "routeFlow": null
  },
  {
    "stopName": "Naranghat",
    "stopCode": 1822,
    "stationCode": 2151,
    "stopType": "MUNICIPAL_BUS",
    "shortStopName": null,
    "Position": {
      "stopLongitude": "72.587301",
      "stopLatitude": "23.058626"
    },
    "RouteCodes": null,
    "Sequence": 24,
    "routeFlow": null
  },
  {
    "stopName": "Police Stadium",
    "stopCode": 1823,
    "stationCode": 2347,
    "stopType": "MUNICIPAL_BUS",
    "shortStopName": null,
    "Position": {
      "stopLongitude": "72.588718",
      "stopLatitude": "23.05603"
    },
    "RouteCodes": null,
    "Sequence": 25,
    "routeFlow": null
  },
  {
    "stopName": "Sarangpur",
    "stopCode": 1844,
    "stationCode": 2593,
    "stopType": "MUNICIPAL_BUS",
    "shortStopName": null,
    "Position": {
      "stopLongitude": "72.5993",
      "stopLatitude": "23.023465"
    },
    "RouteCodes": null,
    "Sequence": 35,
    "routeFlow": null
  },
  {
    "stopName": "Manibhadra Tenaments",
    "stopCode": 2009,
    "stationCode": 2037,
    "stopType": "MUNICIPAL_BUS",
    "shortStopName": null,
    "Position": {
      "stopLongitude": "72.564615",
      "stopLatitude": "23.11048"
    },
    "RouteCodes": null,
    "Sequence": 5,
    "routeFlow": null
  },
  {
    "stopName": "Sanskar Society",
    "stopCode": 2010,
    "stationCode": 2583,
    "stopType": "MUNICIPAL_BUS",
    "shortStopName": null,
    "Position": {
      "stopLongitude": "72.565595",
      "stopLatitude": "23.108133"
    },
    "RouteCodes": null,
    "Sequence": 6,
    "routeFlow": null
  },
  {
    "stopName": "Vallabh Park",
    "stopCode": 2120,
    "stationCode": 3002,
    "stopType": "MUNICIPAL_BUS",
    "shortStopName": null,
    "Position": {
      "stopLongitude": "72.57652",
      "stopLatitude": "23.101405"
    },
    "RouteCodes": null,
    "Sequence": 10,
    "routeFlow": null
  },
  {
    "stopName": "Chandkheda Cross Road",
    "stopCode": 2121,
    "stationCode": 1358,
    "stopType": "MUNICIPAL_BUS",
    "shortStopName": null,
    "Position": {
      "stopLongitude": "72.578166",
      "stopLatitude": "23.10184"
    },
    "RouteCodes": null,
    "Sequence": 11,
    "routeFlow": null
  },
  {
    "stopName": "Railway Colony (Kali Bridge Cross Road)",
    "stopCode": 2123,
    "stationCode": 2428,
    "stopType": "MUNICIPAL_BUS",
    "shortStopName": null,
    "Position": {
      "stopLongitude": "72.580508",
      "stopLatitude": "23.097558"
    },
    "RouteCodes": null,
    "Sequence": 12,
    "routeFlow": null
  },
  {
    "stopName": "Railway School",
    "stopCode": 2124,
    "stationCode": 2434,
    "stopType": "MUNICIPAL_BUS",
    "shortStopName": null,
    "Position": {
      "stopLongitude": "72.582151",
      "stopLatitude": "23.094661"
    },
    "RouteCodes": null,
    "Sequence": 13,
    "routeFlow": null
  },
  {
    "stopName": "Railway Colony Hospital",
    "stopCode": 2125,
    "stationCode": 2430,
    "stopType": "MUNICIPAL_BUS",
    "shortStopName": null,
    "Position": {
      "stopLongitude": "72.583288",
      "stopLatitude": "23.093683"
    },
    "RouteCodes": null,
    "Sequence": 14,
    "routeFlow": null
  },
  {
    "stopName": "Jawahar Chowk (Sabarmati)",
    "stopCode": 2127,
    "stationCode": 1769,
    "stopType": "MUNICIPAL_BUS",
    "shortStopName": null,
    "Position": {
      "stopLongitude": "72.585121",
      "stopLatitude": "23.092605"
    },
    "RouteCodes": null,
    "Sequence": 16,
    "routeFlow": null
  },
  {
    "stopName": "Jawahar School",
    "stopCode": 2128,
    "stationCode": 1770,
    "stopType": "MUNICIPAL_BUS",
    "shortStopName": null,
    "Position": {
      "stopLongitude": "72.585555",
      "stopLatitude": "23.090541"
    },
    "RouteCodes": null,
    "Sequence": 17,
    "routeFlow": null
  },
  {
    "stopName": "Kabir Chowk",
    "stopCode": 2206,
    "stationCode": 1814,
    "stopType": "MUNICIPAL_BUS",
    "shortStopName": null,
    "Position": {
      "stopLongitude": "72.585133",
      "stopLatitude": "23.087511"
    },
    "RouteCodes": null,
    "Sequence": 18,
    "routeFlow": null
  },
  {
    "stopName": "Church",
    "stopCode": 2207,
    "stationCode": 1395,
    "stopType": "MUNICIPAL_BUS",
    "shortStopName": null,
    "Position": {
      "stopLongitude": "72.585486",
      "stopLatitude": "23.084856"
    },
    "RouteCodes": null,
    "Sequence": 19,
    "routeFlow": null
  },
  {
    "stopName": "Gram Panchayat Office",
    "stopCode": 2208,
    "stationCode": 1601,
    "stopType": "MUNICIPAL_BUS",
    "shortStopName": null,
    "Position": {
      "stopLongitude": "72.587869",
      "stopLatitude": "23.081054"
    },
    "RouteCodes": null,
    "Sequence": 20,
    "routeFlow": null
  },
  {
    "stopName": "Dharmnagar",
    "stopCode": 2209,
    "stationCode": 1457,
    "stopType": "MUNICIPAL_BUS",
    "shortStopName": null,
    "Position": {
      "stopLongitude": "72.590203",
      "stopLatitude": "23.077705"
    },
    "RouteCodes": null,
    "Sequence": 21,
    "routeFlow": null
  },
  {
    "stopName": "Power House",
    "stopCode": 2210,
    "stationCode": 2353,
    "stopType": "MUNICIPAL_BUS",
    "shortStopName": null,
    "Position": {
      "stopLongitude": "72.59159",
      "stopLatitude": "23.074358"
    },
    "RouteCodes": null,
    "Sequence": 22,
    "routeFlow": null
  },
  {
    "stopName": "Shahibag Underbridge",
    "stopCode": 2351,
    "stationCode": 2681,
    "stopType": "MUNICIPAL_BUS",
    "shortStopName": null,
    "Position": {
      "stopLongitude": "72.590305",
      "stopLatitude": "23.051766"
    },
    "RouteCodes": null,
    "Sequence": 26,
    "routeFlow": null
  },
  {
    "stopName": "Siddheshwar Ganesh Mandir",
    "stopCode": 3508,
    "stationCode": 2788,
    "stopType": "MUNICIPAL_BUS",
    "shortStopName": null,
    "Position": {
      "stopLongitude": "72.585",
      "stopLatitude": "23.094481"
    },
    "RouteCodes": null,
    "Sequence": 15,
    "routeFlow": null
  },
  {
    "stopName": "Tragad Gam",
    "stopCode": 3576,
    "stationCode": 2947,
    "stopType": "MUNICIPAL_BUS",
    "shortStopName": null,
    "Position": {
      "stopLongitude": "72.558653",
      "stopLatitude": "23.127078"
    },
    "RouteCodes": null,
    "Sequence": 1,
    "routeFlow": null
  },
  {
    "stopName": "Bhathiji Maharajnu Mandir",
    "stopCode": 3579,
    "stationCode": 1282,
    "stopType": "MUNICIPAL_BUS",
    "shortStopName": null,
    "Position": {
      "stopLongitude": "72.561293",
      "stopLatitude": "23.118585"
    },
    "RouteCodes": null,
    "Sequence": 3,
    "routeFlow": null
  },
  {
    "stopName": "Varahi Society",
    "stopCode": 4769,
    "stationCode": 3012,
    "stopType": "MUNICIPAL_BUS",
    "shortStopName": null,
    "Position": {
      "stopLongitude": "72.574971",
      "stopLatitude": "23.100688"
    },
    "RouteCodes": null,
    "Sequence": 9,
    "routeFlow": null
  },
  {
    "stopName": "Ravalwas",
    "stopCode": 4772,
    "stationCode": 2492,
    "stopType": "MUNICIPAL_BUS",
    "shortStopName": null,
    "Position": {
      "stopLongitude": "72.559923",
      "stopLatitude": "23.12533"
    },
    "RouteCodes": null,
    "Sequence": 2,
    "routeFlow": null
  },
  {
    "stopName": "Tejendranagar Society",
    "stopCode": 4773,
    "stationCode": 2923,
    "stopType": "MUNICIPAL_BUS",
    "shortStopName": null,
    "Position": {
      "stopLongitude": "72.563885",
      "stopLatitude": "23.112293"
    },
    "RouteCodes": null,
    "Sequence": 4,
    "routeFlow": null
  },
  {
    "stopName": "Abunagar Society (Ioc Road)",
    "stopCode": 5568,
    "stationCode": 1060,
    "stopType": "MUNICIPAL_BUS",
    "shortStopName": null,
    "Position": {
      "stopLongitude": "72.567913",
      "stopLatitude": "23.103831"
    },
    "RouteCodes": null,
    "Sequence": 7,
    "routeFlow": null
  },
  {
    "stopName": "Sabarmati 'D' Cabin",
    "stopCode": 5569,
    "stationCode": 2530,
    "stopType": "MUNICIPAL_BUS",
    "shortStopName": null,
    "Position": {
      "stopLongitude": "72.570058",
      "stopLatitude": "23.102643"
    },
    "RouteCodes": null,
    "Sequence": 8,
    "routeFlow": null
  }
]