[
  {
    "stopName": "Chandkheda Gam",
    "stopCode": 3547,
    "stationCode": 1359,
    "stopType": "MUNICIPAL_BUS",
    "shortStopName": null,
    "Position": {
      "stopLongitude": "72.582473",
      "stopLatitude": "23.115126"
    },
    "RouteCodes": null,
    "Sequence": 1,
    "routeFlow": "LINESTRING (72.58249 23.11512, 72.58191 23.11509, 72.58138 23.11502, 72.58087 23.11487, 72.58011 23.11459, 72.58011 23.11459, 72.57882 23.1141, 72.57823 23.11387, 72.57671 23.11322, 72.57647 23.1131, 72.57647 23.1131, 72.57562 23.11265, 72.57541 23.11253, 72.57428 23.11208, 72.57322 23.11169, 72.57322 23.11169, 72.57269 23.11149, 72.5715 23.11102, 72.57128 23.11094, 72.57061 23.11072, 72.57056 23.11071, 72.57056 23.11071, 72.56983 23.11049, 72.56911 23.11031, 72.56869 23.11017, 72.56826 23.11006, 72.5678 23.1099, 72.56759 23.10974, 72.56742 23.10962, 72.56742 23.10962, 72.56733 23.10953, 72.56638 23.10843, 72.56636 23.10841, 72.56576 23.10777, 72.56566 23.1079, 72.56559 23.10804, 72.56555 23.10815, 72.56553 23.10818, 72.5645 23.11074, 72.5645 23.11074, 72.56377 23.11249, 72.56377 23.11249, 72.56277 23.11495, 72.56272 23.11502, 72.56268 23.11505, 72.56254 23.11507, 72.56239 23.11504, 72.56239 23.11504, 72.56218 23.11502, 72.56208 23.11505, 72.56201 23.11514, 72.56195 23.1153, 72.56191 23.11554, 72.56164 23.11754, 72.56155 23.11806, 72.56151 23.11822, 72.56143 23.11834, 72.56129 23.11851, 72.56118 23.11861, 72.56118 23.11861, 72.56076 23.11895, 72.56067 23.11908, 72.5606 23.11923, 72.56049 23.11978, 72.56027 23.12049, 72.5602 23.12076, 72.56014 23.1214, 72.56011 23.12176, 72.56011 23.12177, 72.56008 23.12214, 72.56006 23.12261, 72.56015 23.12323, 72.56016 23.12357, 72.5601 23.12422, 72.56002 23.12477, 72.55992 23.12531, 72.55991 23.12533, 72.55991 23.12533, 72.55988 23.12542, 72.55965 23.12563, 72.55909 23.12604, 72.55909 23.12604, 72.55894 23.12615, 72.55887 23.12627, 72.55879 23.12662, 72.55869 23.12683, 72.55847 23.12706)"
  },
  {
    "stopName": "Gujarat Housing Board (Chandkheda)",
    "stopCode": 3548,
    "stationCode": 1618,
    "stopType": "MUNICIPAL_BUS",
    "shortStopName": null,
    "Position": {
      "stopLongitude": "72.580106",
      "stopLatitude": "23.114603"
    },
    "RouteCodes": null,
    "Sequence": 2,
    "routeFlow": null
  },
  {
    "stopName": "Manikrupa Prathamik School",
    "stopCode": 3549,
    "stationCode": 2041,
    "stopType": "MUNICIPAL_BUS",
    "shortStopName": null,
    "Position": {
      "stopLongitude": "72.576476",
      "stopLatitude": "23.113095"
    },
    "RouteCodes": null,
    "Sequence": 3,
    "routeFlow": null
  },
  {
    "stopName": "Sneh Plaza",
    "stopCode": 3550,
    "stationCode": 2811,
    "stopType": "MUNICIPAL_BUS",
    "shortStopName": null,
    "Position": {
      "stopLongitude": "72.573225",
      "stopLatitude": "23.111686"
    },
    "RouteCodes": null,
    "Sequence": 4,
    "routeFlow": null
  },
  {
    "stopName": "Padmaprabhunagar",
    "stopCode": 3551,
    "stationCode": 2279,
    "stopType": "MUNICIPAL_BUS",
    "shortStopName": null,
    "Position": {
      "stopLongitude": "72.570563",
      "stopLatitude": "23.110706"
    },
    "RouteCodes": null,
    "Sequence": 5,
    "routeFlow": null
  },
  {
    "stopName": "Man sarovar",
    "stopCode": 3552,
    "stationCode": 2051,
    "stopType": "MUNICIPAL_BUS",
    "shortStopName": null,
    "Position": {
      "stopLongitude": "72.567426",
      "stopLatitude": "23.109615"
    },
    "RouteCodes": null,
    "Sequence": 6,
    "routeFlow": null
  },
  {
    "stopName": "Manavnagar",
    "stopCode": 3553,
    "stationCode": 2024,
    "stopType": "MUNICIPAL_BUS",
    "shortStopName": null,
    "Position": {
      "stopLongitude": "72.566353",
      "stopLatitude": "23.108413"
    },
    "RouteCodes": null,
    "Sequence": 7,
    "routeFlow": null
  },
  {
    "stopName": "Sanskar Society",
    "stopCode": 3554,
    "stationCode": 2583,
    "stopType": "MUNICIPAL_BUS",
    "shortStopName": null,
    "Position": {
      "stopLongitude": "72.565541",
      "stopLatitude": "23.108183"
    },
    "RouteCodes": null,
    "Sequence": 8,
    "routeFlow": null
  },
  {
    "stopName": "Dhartinagar",
    "stopCode": 3556,
    "stationCode": 1460,
    "stopType": "MUNICIPAL_BUS",
    "shortStopName": null,
    "Position": {
      "stopLongitude": "72.563741",
      "stopLatitude": "23.112479"
    },
    "RouteCodes": null,
    "Sequence": 10,
    "routeFlow": null
  },
  {
    "stopName": "Uma Bhavani Society",
    "stopCode": 3557,
    "stationCode": 2962,
    "stopType": "MUNICIPAL_BUS",
    "shortStopName": null,
    "Position": {
      "stopLongitude": "72.562385",
      "stopLatitude": "23.115055"
    },
    "RouteCodes": null,
    "Sequence": 11,
    "routeFlow": null
  },
  {
    "stopName": "Bhathiji Maharajnu Mandir",
    "stopCode": 3559,
    "stationCode": 1282,
    "stopType": "MUNICIPAL_BUS",
    "shortStopName": null,
    "Position": {
      "stopLongitude": "72.561154",
      "stopLatitude": "23.118581"
    },
    "RouteCodes": null,
    "Sequence": 12,
    "routeFlow": null
  },
  {
    "stopName": "Anand Vihar Flats",
    "stopCode": 3560,
    "stationCode": 5074,
    "stopType": "MUNICIPAL_BUS",
    "shortStopName": null,
    "Position": {
      "stopLongitude": "72.56006",
      "stopLatitude": "23.121761"
    },
    "RouteCodes": null,
    "Sequence": 13,
    "routeFlow": null
  },
  {
    "stopName": "Jogni Matanu Mandir",
    "stopCode": 3561,
    "stationCode": 1798,
    "stopType": "MUNICIPAL_BUS",
    "shortStopName": null,
    "Position": {
      "stopLongitude": "72.55906",
      "stopLatitude": "23.126006"
    },
    "RouteCodes": null,
    "Sequence": 15,
    "routeFlow": null
  },
  {
    "stopName": "Tragad Gam",
    "stopCode": 3562,
    "stationCode": 2947,
    "stopType": "MUNICIPAL_BUS",
    "shortStopName": null,
    "Position": {
      "stopLongitude": "72.558458",
      "stopLatitude": "23.127056"
    },
    "RouteCodes": null,
    "Sequence": 16,
    "routeFlow": null
  },
  {
    "stopName": "Ravalwas",
    "stopCode": 5601,
    "stationCode": 2492,
    "stopType": "MUNICIPAL_BUS",
    "shortStopName": null,
    "Position": {
      "stopLongitude": "72.559896",
      "stopLatitude": "23.125327"
    },
    "RouteCodes": null,
    "Sequence": 14,
    "routeFlow": null
  },
  {
    "stopName": "Manibhadra Tenaments",
    "stopCode": 8405,
    "stationCode": 2037,
    "stopType": "MUNICIPAL_BUS",
    "shortStopName": null,
    "Position": {
      "stopLongitude": "72.5645",
      "stopLatitude": "23.110735"
    },
    "RouteCodes": null,
    "Sequence": 9,
    "routeFlow": null
  }
]