[
  {
    "stopName": "Civil Hospital",
    "stopCode": 1092,
    "stationCode": 1398,
    "stopType": "MUNICIPAL_BUS",
    "shortStopName": null,
    "Position": {
      "stopLongitude": "72.602518",
      "stopLatitude": "23.049418"
    },
    "RouteCodes": null,
    "Sequence": 1,
    "routeFlow": "LINESTRING (72.60251 23.04938, 72.60576 23.04897, 72.6057 23.04877, 72.6057 23.04877, 72.60566 23.04868, 72.60541 23.04812, 72.60515 23.04773, 72.60493 23.0473, 72.60493 23.0473, 72.60489 23.04718, 72.60476 23.04696, 72.60477 23.04695, 72.60477 23.04693, 72.60475 23.04689, 72.60471 23.04686, 72.60466 23.04673, 72.60462 23.04669, 72.60432 23.04594, 72.60432 23.04594, 72.60424 23.04559, 72.60422 23.0453, 72.60424 23.04531, 72.60427 23.0453, 72.6043 23.0453, 72.60435 23.04526, 72.60438 23.04521, 72.60438 23.04515, 72.60437 23.04514, 72.60445 23.04506, 72.6046 23.0449, 72.60491 23.04436, 72.60486 23.04409, 72.60486 23.04409, 72.60478 23.04362, 72.60485 23.0436, 72.60487 23.04361, 72.60491 23.04362, 72.60496 23.0436, 72.60497 23.04358, 72.60523 23.0438, 72.60562 23.04409, 72.60578 23.04421, 72.60611 23.04432, 72.60651 23.04447, 72.60668 23.04455, 72.60667 23.04456, 72.60697 23.04478, 72.60712 23.04489, 72.60712 23.04494, 72.60718 23.04502, 72.60727 23.04511, 72.60727 23.04512, 72.60727 23.04513, 72.60727 23.04516, 72.60729 23.04518, 72.60736 23.04521, 72.6077 23.04528, 72.60912 23.04545, 72.60964 23.04549, 72.60966 23.04552, 72.60969 23.04554, 72.60975 23.04554, 72.6098 23.04551, 72.60982 23.04547, 72.60982 23.04547, 72.60982 23.04544, 72.60982 23.04542, 72.60989 23.04523, 72.61032 23.04386, 72.61044 23.04331, 72.61069 23.04254, 72.6108 23.0422, 72.61109 23.04138, 72.61127 23.04094, 72.61141 23.04057, 72.61167 23.03942, 72.61189 23.03854, 72.61197 23.03821, 72.61198 23.03854, 72.61198 23.03854, 72.61197 23.03821, 72.61199 23.03805, 72.61206 23.0376, 72.61214 23.03711, 72.61231 23.03654, 72.61219 23.03651, 72.61149 23.03632, 72.61135 23.0362, 72.61116 23.03606, 72.61116 23.03606, 72.61074 23.03581, 72.61025 23.03553, 72.6099 23.03535, 72.60926 23.0351, 72.60914 23.03499, 72.60895 23.0346, 72.60895 23.0346, 72.60881 23.03419, 72.60879 23.03404, 72.60881 23.03377, 72.60893 23.03344, 72.60894 23.03342, 72.60918 23.03345, 72.60941 23.03346, 72.6096 23.03344, 72.60967 23.03337, 72.6105 23.03209, 72.61062 23.03195, 72.61071 23.03187, 72.61084 23.03183, 72.61126 23.03183, 72.61128 23.03183, 72.61128 23.03183, 72.61133 23.03181, 72.61137 23.03177, 72.61136 23.03171, 72.61133 23.03167, 72.6113 23.03166, 72.61129 23.03166, 72.61115 23.03148, 72.61103 23.03145, 72.60999 23.03094, 72.60968 23.03081, 72.60968 23.03081, 72.60905 23.03055, 72.60862 23.03039, 72.60845 23.03035, 72.60787 23.03011, 72.60755 23.02998, 72.60753 23.02997, 72.60739 23.02989, 72.60729 23.02986, 72.60727 23.02985, 72.60722 23.02985, 72.60718 23.02986, 72.60716 23.0299, 72.60715 23.02994, 72.60716 23.02996, 72.60677 23.03017, 72.60473 23.03096, 72.60458 23.03106, 72.60429 23.03116, 72.60424 23.0312, 72.60424 23.0312, 72.60396 23.03149, 72.60362 23.03186, 72.60349 23.03205, 72.6032 23.03269, 72.6031 23.03295, 72.60309 23.03295, 72.60308 23.03295, 72.60307 23.03295, 72.60305 23.03296, 72.60303 23.03297, 72.60302 23.03301, 72.60303 23.03301, 72.60303 23.03302, 72.60273 23.0331, 72.60192 23.03318, 72.60113 23.03322, 72.60102 23.0332, 72.60085 23.03314, 72.60052 23.03299, 72.60017 23.03271, 72.59985 23.03235, 72.59924 23.0317, 72.59906 23.03154, 72.59912 23.0314, 72.59919 23.03135, 72.59939 23.03124, 72.60013 23.03139, 72.60024 23.03134, 72.6003 23.03124, 72.60033 23.03077, 72.60032 23.03024, 72.60032 23.03024, 72.60029 23.02853, 72.6003 23.02786, 72.60029 23.02661, 72.60029 23.02623, 72.60026 23.0256, 72.60024 23.02532, 72.60018 23.02505, 72.60013 23.02486, 72.60007 23.02477, 72.59925 23.02348, 72.59906 23.02317, 72.59899 23.02305, 72.59893 23.0229, 72.59891 23.02273, 72.59896 23.0223, 72.598835 23.022264, 72.59884 23.02221, 72.59881 23.02232, 72.59873 23.02248, 72.59854 23.02284, 72.59852 23.02303, 72.59854 23.02316, 72.59859 23.02323, 72.59863 23.02326, 72.59875 23.0233, 72.59887 23.02334, 72.59895 23.02328, 72.59903 23.02321, 72.59906 23.02317, 72.59902 23.02311, 72.59896 23.02298, 72.59891 23.02273, 72.59896 23.0223, 72.59904 23.02197, 72.59908 23.02179, 72.599056 23.021781, 72.599103 23.021394, 72.599177 23.021018, 72.599275 23.020621, 72.599338 23.020225, 72.599361 23.019968, 72.599289 23.01965, 72.599276 23.01956, 72.59923 23.019465, 72.599109 23.019245, 72.599071 23.019163, 72.599047 23.019072, 72.59905 23.01897, 72.59905 23.018975, 72.598736 23.018792, 72.598529 23.018615, 72.59833 23.018455, 72.59818 23.018342, 72.597674 23.018042, 72.597153 23.017782, 72.596467 23.017524, 72.596142 23.017434, 72.59592 23.01732, 72.595917 23.01732, 72.595742 23.017328, 72.595577 23.017312, 72.595263 23.017255, 72.59491 23.017216, 72.594593 23.017157, 72.594151 23.017088, 72.593696 23.017004, 72.593355 23.016947, 72.592987 23.016882, 72.59228 23.01678, 72.59228 23.01678, 72.59107 23.01671, 72.59104 23.01669, 72.59103 23.01668, 72.59105 23.01653, 72.59098 23.01606, 72.59096 23.01564, 72.59102 23.01515, 72.59129 23.01403, 72.59133 23.01383, 72.59136 23.01363, 72.59144 23.01347, 72.59146 23.01324, 72.59146 23.01324, 72.59159 23.01136, 72.59169 23.01047, 72.59171 23.01009, 72.5917 23.0093, 72.5917 23.0093, 72.59166 23.0083, 72.59162 23.00793, 72.59158 23.00772, 72.59117 23.00662, 72.59112 23.00649, 72.59112 23.00649, 72.59031 23.0045, 72.59003 23.00366, 72.59003 23.00366, 72.58975 23.00293, 72.58967 23.00269, 72.58962 23.00238, 72.58962 23.00238, 72.58955 23.00192, 72.58957 23.00167, 72.58957 23.00082, 72.58957 23.00082, 72.58958 22.99938, 72.5896 22.99871, 72.5896 22.99871, 72.58961 22.99846, 72.58964 22.99837, 72.58965 22.99836, 72.58968 22.99832, 72.58968 22.9983, 72.58968 22.99829, 72.59009 22.99831, 72.59151 22.99835, 72.59152 22.99836, 72.59155 22.99837, 72.59157 22.99837, 72.59162 22.99836, 72.59164 22.99835, 72.59266 22.99838, 72.59266 22.99838, 72.59327 22.9984, 72.59348 22.99829, 72.59468 22.99738, 72.59468 22.99738, 72.59541 22.99682, 72.59614 22.99623, 72.59643 22.9961, 72.59645 22.99612, 72.59649 22.99612, 72.59654 22.99611, 72.59657 22.99607, 72.59764 22.99584, 72.59764 22.99584, 72.59925 22.99554, 72.59996 22.99544, 72.60081 22.99538, 72.60135 22.99535, 72.60135 22.99535, 72.60343 22.99526, 72.60416 22.99524, 72.60415 22.99515, 72.60413 22.99473, 72.60413 22.99473, 72.60405 22.99329, 72.60405 22.99329, 72.60398 22.99144, 72.60397 22.9909, 72.60394 22.99043, 72.60404 22.99037, 72.60404 22.99037, 72.60394 22.99043, 72.60393 22.99033, 72.60381 22.98911, 72.6038 22.98909, 72.60374 22.98867, 72.60367 22.98845, 72.60357 22.98847, 72.60314 22.98856, 72.60239 22.98866, 72.60174 22.98871, 72.60156 22.9887, 72.60156 22.9887, 72.60126 22.98868, 72.60088 22.98867, 72.60064 22.9887, 72.60004 22.98876, 72.59943 22.98879, 72.59829 22.98877, 72.59829 22.98877, 72.59741 22.9888, 72.59689 22.98882, 72.59631 22.98882, 72.59597 22.98881, 72.59595 22.98867, 72.59596 22.98858, 72.596 22.98844, 72.596 22.98844, 72.5962 22.98769, 72.59638 22.98713, 72.59656 22.9867, 72.59656 22.9867, 72.59698 22.98547, 72.5972 22.98484, 72.5972 22.98484, 72.59767 22.98344, 72.59791 22.98277, 72.59793 22.98271, 72.59794 22.98271, 72.59796 22.9827, 72.59798 22.98268, 72.59799 22.98264, 72.59798 22.9826, 72.59795 22.98257, 72.59793 22.98257, 72.59803 22.98233, 72.59811 22.98236, 72.59827 22.98195, 72.59828 22.98184, 72.59839 22.98165, 72.59892 22.98092, 72.59892 22.98092, 72.59931 22.98033, 72.5995 22.98004, 72.59959 22.97986, 72.59963 22.97972, 72.59966 22.97953, 72.59977 22.97922, 72.59987 22.97894, 72.60009 22.97849, 72.60015 22.97836, 72.60015 22.97836, 72.60053 22.97795, 72.60062 22.97793, 72.60071 22.97784, 72.60097 22.97753, 72.60125 22.97704, 72.60137 22.97681, 72.60166 22.97635, 72.6017 22.9763, 72.6017 22.9763, 72.60192 22.97595, 72.60241 22.97524, 72.60295 22.97442, 72.60328 22.97405, 72.60328 22.97405, 72.60403 22.97313, 72.60406 22.97314, 72.60406 22.97314, 72.60403 22.97313, 72.60408 22.97307, 72.60422 22.97291, 72.60511 22.97176, 72.60581 22.97081, 72.60581 22.97081, 72.60623 22.97016, 72.60648 22.96975, 72.60675 22.9693, 72.60711 22.9686, 72.60712 22.96851, 72.60719 22.9684, 72.60752 22.96785, 72.60764 22.96763, 72.60764 22.96763, 72.60781 22.96733, 72.60792 22.96721, 72.60825 22.96663, 72.60874 22.9658, 72.60892 22.96551, 72.60936 22.96473, 72.60936 22.96473, 72.6095 22.96449, 72.61017 22.96328, 72.61035 22.96288, 72.61057 22.96235, 72.61068 22.96197, 72.61068 22.96197, 72.61123 22.96012, 72.61123 22.96012, 72.61133 22.95982, 72.61145 22.95964, 72.61167 22.95913, 72.6118 22.95881, 72.61197 22.95841, 72.61205 22.95813, 72.61204 22.95761, 72.61202 22.95748, 72.61201 22.95743, 72.61201 22.95697, 72.61205 22.95656, 72.61203 22.95591, 72.61206 22.95572, 72.61212 22.9555, 72.61235 22.95499, 72.61254 22.95469, 72.61269 22.9544, 72.61275 22.95422, 72.61277 22.95392, 72.6128 22.95369, 72.6128 22.95369, 72.61283 22.9536, 72.61288 22.95352, 72.61294 22.9534, 72.61316 22.9533, 72.61358 22.95312, 72.61371 22.95308, 72.61388 22.95304, 72.61388 22.95304, 72.61418 22.95302, 72.61507 22.95307, 72.61587 22.95295, 72.61587 22.95295, 72.61636 22.95286, 72.61647 22.95282, 72.61667 22.95271, 72.61716 22.95238, 72.61746 22.95208, 72.61775 22.95186, 72.61774 22.95184, 72.61821 22.95157, 72.61882 22.95131, 72.61919 22.95119, 72.6197 22.95103, 72.62065 22.95072, 72.62155 22.95042, 72.62178 22.95036, 72.62199 22.95034, 72.62226 22.95033, 72.62244 22.95035, 72.62244 22.95036, 72.62283 22.95038, 72.62346 22.95037, 72.62372 22.95035, 72.62384 22.9503, 72.62456 22.95013, 72.62462 22.95011, 72.62532 22.94993, 72.62546 22.94992, 72.62555 22.9499, 72.62578 22.9499, 72.62605 22.94992, 72.62645 22.94997, 72.62679 22.95003, 72.62689 22.95008, 72.62713 22.95013, 72.62713 22.95013, 72.6279 22.95027, 72.62838 22.95031, 72.62885 22.95036, 72.62928 22.95037, 72.62989 22.95031, 72.63025 22.9503, 72.63025 22.9503, 72.63062 22.9503, 72.63112 22.95049, 72.63216 22.95086, 72.63218 22.95087, 72.63184 22.95191, 72.63136 22.95345, 72.63137 22.95345, 72.63124 22.95401, 72.6312 22.95405, 72.63115 22.95406, 72.63109 22.95407, 72.63108 22.95413, 72.63106 22.95423, 72.63094 22.95455, 72.63086 22.95478, 72.63057 22.95548, 72.63001 22.95679, 72.6298 22.95726, 72.6298 22.95726, 72.62909 22.95887)"
  },
  {
    "stopName": "Sarangpur",
    "stopCode": 1489,
    "stationCode": 2593,
    "stopType": "MUNICIPAL_BUS",
    "shortStopName": null,
    "Position": {
      "stopLongitude": "72.598729",
      "stopLatitude": "23.022186"
    },
    "RouteCodes": null,
    "Sequence": 16,
    "routeFlow": null
  },
  {
    "stopName": "Kalupur Terminus",
    "stopCode": 1715,
    "stationCode": 1840,
    "stopType": "MUNICIPAL_BUS",
    "shortStopName": null,
    "Position": {
      "stopLongitude": "72.600373",
      "stopLatitude": "23.030241"
    },
    "RouteCodes": null,
    "Sequence": 15,
    "routeFlow": null
  },
  {
    "stopName": "Sarangpur Darwaja (BRT)",
    "stopCode": 1716,
    "stationCode": 102,
    "stopType": "MUNICIPAL_BUS",
    "shortStopName": null,
    "Position": {
      "stopLongitude": "72.599039",
      "stopLatitude": "23.021785"
    },
    "RouteCodes": null,
    "Sequence": 17,
    "routeFlow": null
  },
  {
    "stopName": "Karnamukteshwar Mahadev (BRT)",
    "stopCode": 1717,
    "stationCode": 101,
    "stopType": "MUNICIPAL_BUS",
    "shortStopName": null,
    "Position": {
      "stopLongitude": "72.599081",
      "stopLatitude": "23.01893"
    },
    "RouteCodes": null,
    "Sequence": 18,
    "routeFlow": null
  },
  {
    "stopName": "Raypur Darwaja (BRT)",
    "stopCode": 1718,
    "stationCode": 100,
    "stopType": "MUNICIPAL_BUS",
    "shortStopName": null,
    "Position": {
      "stopLongitude": "72.595923",
      "stopLatitude": "23.017318"
    },
    "RouteCodes": null,
    "Sequence": 19,
    "routeFlow": null
  },
  {
    "stopName": "Astodiya Darwaja (BRT)",
    "stopCode": 1719,
    "stationCode": 99,
    "stopType": "MUNICIPAL_BUS",
    "shortStopName": null,
    "Position": {
      "stopLongitude": "72.592286",
      "stopLatitude": "23.016735"
    },
    "RouteCodes": null,
    "Sequence": 20,
    "routeFlow": null
  },
  {
    "stopName": "Majur Gam",
    "stopCode": 2228,
    "stationCode": 2016,
    "stopType": "MUNICIPAL_BUS",
    "shortStopName": null,
    "Position": {
      "stopLongitude": "72.591678",
      "stopLatitude": "23.009298"
    },
    "RouteCodes": null,
    "Sequence": 22,
    "routeFlow": null
  },
  {
    "stopName": "Bhulabhai Park",
    "stopCode": 2229,
    "stationCode": 1302,
    "stopType": "MUNICIPAL_BUS",
    "shortStopName": null,
    "Position": {
      "stopLongitude": "72.59113",
      "stopLatitude": "23.006485"
    },
    "RouteCodes": null,
    "Sequence": 23,
    "routeFlow": null
  },
  {
    "stopName": "Mangal Park",
    "stopCode": 2230,
    "stationCode": 2031,
    "stopType": "MUNICIPAL_BUS",
    "shortStopName": null,
    "Position": {
      "stopLongitude": "72.590043",
      "stopLatitude": "23.003641"
    },
    "RouteCodes": null,
    "Sequence": 24,
    "routeFlow": null
  },
  {
    "stopName": "Vorano Rozo",
    "stopCode": 2495,
    "stationCode": 3079,
    "stopType": "MUNICIPAL_BUS",
    "shortStopName": null,
    "Position": {
      "stopLongitude": "72.611171",
      "stopLatitude": "23.036045"
    },
    "RouteCodes": null,
    "Sequence": 9,
    "routeFlow": null
  },
  {
    "stopName": "Bhagwatinagar Society",
    "stopCode": 2496,
    "stationCode": 1264,
    "stopType": "MUNICIPAL_BUS",
    "shortStopName": null,
    "Position": {
      "stopLongitude": "72.608986",
      "stopLatitude": "23.03459"
    },
    "RouteCodes": null,
    "Sequence": 10,
    "routeFlow": null
  },
  {
    "stopName": "Saraspur Char Rasta",
    "stopCode": 2498,
    "stationCode": 2596,
    "stopType": "MUNICIPAL_BUS",
    "shortStopName": null,
    "Position": {
      "stopLongitude": "72.609691",
      "stopLatitude": "23.030789"
    },
    "RouteCodes": null,
    "Sequence": 12,
    "routeFlow": null
  },
  {
    "stopName": "Dr.Ambedkar Hall (Saraspur)",
    "stopCode": 2499,
    "stationCode": 1468,
    "stopType": "MUNICIPAL_BUS",
    "shortStopName": null,
    "Position": {
      "stopLongitude": "72.607565",
      "stopLatitude": "23.02995"
    },
    "RouteCodes": null,
    "Sequence": 13,
    "routeFlow": null
  },
  {
    "stopName": "Shrinagar Mills",
    "stopCode": 2500,
    "stationCode": 2751,
    "stopType": "MUNICIPAL_BUS",
    "shortStopName": null,
    "Position": {
      "stopLongitude": "72.604189",
      "stopLatitude": "23.031156"
    },
    "RouteCodes": null,
    "Sequence": 14,
    "routeFlow": null
  },
  {
    "stopName": "Shahalam Tollnaka",
    "stopCode": 2866,
    "stationCode": 2679,
    "stopType": "MUNICIPAL_BUS",
    "shortStopName": null,
    "Position": {
      "stopLongitude": "72.589681",
      "stopLatitude": "23.002373"
    },
    "RouteCodes": null,
    "Sequence": 25,
    "routeFlow": null
  },
  {
    "stopName": "P&T Quarters (Shahalam)",
    "stopCode": 2867,
    "stationCode": 2272,
    "stopType": "MUNICIPAL_BUS",
    "shortStopName": null,
    "Position": {
      "stopLongitude": "72.589673",
      "stopLatitude": "22.998713"
    },
    "RouteCodes": null,
    "Sequence": 27,
    "routeFlow": null
  },
  {
    "stopName": "Nilamkunj",
    "stopCode": 2868,
    "stationCode": 2224,
    "stopType": "MUNICIPAL_BUS",
    "shortStopName": null,
    "Position": {
      "stopLongitude": "72.592661",
      "stopLatitude": "22.998401"
    },
    "RouteCodes": null,
    "Sequence": 28,
    "routeFlow": null
  },
  {
    "stopName": "Pragati Society",
    "stopCode": 2869,
    "stationCode": 2359,
    "stopType": "MUNICIPAL_BUS",
    "shortStopName": null,
    "Position": {
      "stopLongitude": "72.594701",
      "stopLatitude": "22.997403"
    },
    "RouteCodes": null,
    "Sequence": 29,
    "routeFlow": null
  },
  {
    "stopName": "Bhairavnath",
    "stopCode": 2870,
    "stationCode": 1269,
    "stopType": "MUNICIPAL_BUS",
    "shortStopName": null,
    "Position": {
      "stopLongitude": "72.597648",
      "stopLatitude": "22.995891"
    },
    "RouteCodes": null,
    "Sequence": 30,
    "routeFlow": null
  },
  {
    "stopName": "Vallabhwadi",
    "stopCode": 2871,
    "stationCode": 3006,
    "stopType": "MUNICIPAL_BUS",
    "shortStopName": null,
    "Position": {
      "stopLongitude": "72.601348",
      "stopLatitude": "22.995343"
    },
    "RouteCodes": null,
    "Sequence": 31,
    "routeFlow": null
  },
  {
    "stopName": "Jawahar Chowk (Maninagar)",
    "stopCode": 3166,
    "stationCode": 1768,
    "stopType": "MUNICIPAL_BUS",
    "shortStopName": null,
    "Position": {
      "stopLongitude": "72.604153",
      "stopLatitude": "22.994733"
    },
    "RouteCodes": null,
    "Sequence": 32,
    "routeFlow": null
  },
  {
    "stopName": "Prakashnagar",
    "stopCode": 3167,
    "stationCode": 2368,
    "stopType": "MUNICIPAL_BUS",
    "shortStopName": null,
    "Position": {
      "stopLongitude": "72.604063",
      "stopLatitude": "22.993286"
    },
    "RouteCodes": null,
    "Sequence": 33,
    "routeFlow": null
  },
  {
    "stopName": "Ishwarnagar",
    "stopCode": 3219,
    "stationCode": 1729,
    "stopType": "MUNICIPAL_BUS",
    "shortStopName": null,
    "Position": {
      "stopLongitude": "72.603833",
      "stopLatitude": "22.989108"
    },
    "RouteCodes": null,
    "Sequence": 35,
    "routeFlow": null
  },
  {
    "stopName": "Isanpur",
    "stopCode": 3224,
    "stationCode": 1725,
    "stopType": "MUNICIPAL_BUS",
    "shortStopName": null,
    "Position": {
      "stopLongitude": "72.600183",
      "stopLatitude": "22.978378"
    },
    "RouteCodes": null,
    "Sequence": 43,
    "routeFlow": null
  },
  {
    "stopName": "Shardaben Hospital",
    "stopCode": 3438,
    "stationCode": 2708,
    "stopType": "MUNICIPAL_BUS",
    "shortStopName": null,
    "Position": {
      "stopLongitude": "72.611281",
      "stopLatitude": "23.031841"
    },
    "RouteCodes": null,
    "Sequence": 11,
    "routeFlow": null
  },
  {
    "stopName": "S.T. Stand",
    "stopCode": 3812,
    "stationCode": 2526,
    "stopType": "MUNICIPAL_BUS",
    "shortStopName": null,
    "Position": {
      "stopLongitude": "72.591495",
      "stopLatitude": "23.01324"
    },
    "RouteCodes": null,
    "Sequence": 21,
    "routeFlow": null
  },
  {
    "stopName": "Roza",
    "stopCode": 4063,
    "stationCode": 2511,
    "stopType": "MUNICIPAL_BUS",
    "shortStopName": null,
    "Position": {
      "stopLongitude": "72.612081",
      "stopLatitude": "22.957468"
    },
    "RouteCodes": null,
    "Sequence": 52,
    "routeFlow": null
  },
  {
    "stopName": "Rajeshwari Society",
    "stopCode": 4253,
    "stationCode": 2446,
    "stopType": "MUNICIPAL_BUS",
    "shortStopName": null,
    "Position": {
      "stopLongitude": "72.595981",
      "stopLatitude": "22.988436"
    },
    "RouteCodes": null,
    "Sequence": 38,
    "routeFlow": null
  },
  {
    "stopName": "Vairatnagar (Lotus School)",
    "stopCode": 4254,
    "stationCode": 2994,
    "stopType": "MUNICIPAL_BUS",
    "shortStopName": null,
    "Position": {
      "stopLongitude": "72.597223",
      "stopLatitude": "22.984848"
    },
    "RouteCodes": null,
    "Sequence": 40,
    "routeFlow": null
  },
  {
    "stopName": "Govindwadi",
    "stopCode": 4255,
    "stationCode": 1599,
    "stopType": "MUNICIPAL_BUS",
    "shortStopName": null,
    "Position": {
      "stopLongitude": "72.59807",
      "stopLatitude": "22.982343"
    },
    "RouteCodes": null,
    "Sequence": 41,
    "routeFlow": null
  },
  {
    "stopName": "Lake View Society",
    "stopCode": 4256,
    "stationCode": 1952,
    "stopType": "MUNICIPAL_BUS",
    "shortStopName": null,
    "Position": {
      "stopLongitude": "72.59894",
      "stopLatitude": "22.980929"
    },
    "RouteCodes": null,
    "Sequence": 42,
    "routeFlow": null
  },
  {
    "stopName": "Government Quarters (Shahalam)",
    "stopCode": 4274,
    "stationCode": 1598,
    "stopType": "MUNICIPAL_BUS",
    "shortStopName": null,
    "Position": {
      "stopLongitude": "72.589628",
      "stopLatitude": "23.000815"
    },
    "RouteCodes": null,
    "Sequence": 26,
    "routeFlow": null
  },
  {
    "stopName": "Jethabhaini Vav",
    "stopCode": 4275,
    "stationCode": 1782,
    "stopType": "MUNICIPAL_BUS",
    "shortStopName": null,
    "Position": {
      "stopLongitude": "72.603283",
      "stopLatitude": "22.974051"
    },
    "RouteCodes": null,
    "Sequence": 45,
    "routeFlow": null
  },
  {
    "stopName": "Paras Nagar",
    "stopCode": 4276,
    "stationCode": 2305,
    "stopType": "MUNICIPAL_BUS",
    "shortStopName": null,
    "Position": {
      "stopLongitude": "72.604053",
      "stopLatitude": "22.973153"
    },
    "RouteCodes": null,
    "Sequence": 46,
    "routeFlow": null
  },
  {
    "stopName": "Manokamna Society",
    "stopCode": 4277,
    "stationCode": 2052,
    "stopType": "MUNICIPAL_BUS",
    "shortStopName": null,
    "Position": {
      "stopLongitude": "72.60586",
      "stopLatitude": "22.970836"
    },
    "RouteCodes": null,
    "Sequence": 47,
    "routeFlow": null
  },
  {
    "stopName": "Gebansha Pir",
    "stopCode": 4278,
    "stationCode": 1540,
    "stopType": "MUNICIPAL_BUS",
    "shortStopName": null,
    "Position": {
      "stopLongitude": "72.60766",
      "stopLatitude": "22.967643"
    },
    "RouteCodes": null,
    "Sequence": 48,
    "routeFlow": null
  },
  {
    "stopName": "Saiyadni Wadi",
    "stopCode": 4279,
    "stationCode": 2555,
    "stopType": "MUNICIPAL_BUS",
    "shortStopName": null,
    "Position": {
      "stopLongitude": "72.609386",
      "stopLatitude": "22.964741"
    },
    "RouteCodes": null,
    "Sequence": 49,
    "routeFlow": null
  },
  {
    "stopName": "Gokul Society",
    "stopCode": 4280,
    "stationCode": 1573,
    "stopType": "MUNICIPAL_BUS",
    "shortStopName": null,
    "Position": {
      "stopLongitude": "72.610733",
      "stopLatitude": "22.961985"
    },
    "RouteCodes": null,
    "Sequence": 50,
    "routeFlow": null
  },
  {
    "stopName": "Ambe mata nu Mandir",
    "stopCode": 4281,
    "stationCode": 2229,
    "stopType": "MUNICIPAL_BUS",
    "shortStopName": null,
    "Position": {
      "stopLongitude": "72.622438",
      "stopLatitude": "22.950343"
    },
    "RouteCodes": null,
    "Sequence": 57,
    "routeFlow": null
  },
  {
    "stopName": "Urmijivan Society",
    "stopCode": 4282,
    "stationCode": 2974,
    "stopType": "MUNICIPAL_BUS",
    "shortStopName": null,
    "Position": {
      "stopLongitude": "72.627125",
      "stopLatitude": "22.950132"
    },
    "RouteCodes": null,
    "Sequence": 58,
    "routeFlow": null
  },
  {
    "stopName": "Vatva Railway Colony",
    "stopCode": 4283,
    "stationCode": 3028,
    "stopType": "MUNICIPAL_BUS",
    "shortStopName": null,
    "Position": {
      "stopLongitude": "72.631328",
      "stopLatitude": "22.953442"
    },
    "RouteCodes": null,
    "Sequence": 60,
    "routeFlow": null
  },
  {
    "stopName": "Bibi Talav",
    "stopCode": 4515,
    "stationCode": 1308,
    "stopType": "MUNICIPAL_BUS",
    "shortStopName": null,
    "Position": {
      "stopLongitude": "72.611285",
      "stopLatitude": "22.960135"
    },
    "RouteCodes": null,
    "Sequence": 51,
    "routeFlow": null
  },
  {
    "stopName": "Panini Taanki(Vatva)",
    "stopCode": 4526,
    "stationCode": 5098,
    "stopType": "MUNICIPAL_BUS",
    "shortStopName": null,
    "Position": {
      "stopLongitude": "72.613883",
      "stopLatitude": "22.953075"
    },
    "RouteCodes": null,
    "Sequence": 54,
    "routeFlow": null
  },
  {
    "stopName": "Kashiba Municipal General Hospital",
    "stopCode": 4539,
    "stationCode": 1863,
    "stopType": "MUNICIPAL_BUS",
    "shortStopName": null,
    "Position": {
      "stopLongitude": "72.615875",
      "stopLatitude": "22.952971"
    },
    "RouteCodes": null,
    "Sequence": 55,
    "routeFlow": null
  },
  {
    "stopName": "Shraddhakunj Society",
    "stopCode": 4540,
    "stationCode": 2732,
    "stopType": "MUNICIPAL_BUS",
    "shortStopName": null,
    "Position": {
      "stopLongitude": "72.630248",
      "stopLatitude": "22.950298"
    },
    "RouteCodes": null,
    "Sequence": 59,
    "routeFlow": null
  },
  {
    "stopName": "Mahalakshmi Corner (Vatva)",
    "stopCode": 4784,
    "stationCode": 1999,
    "stopType": "MUNICIPAL_BUS",
    "shortStopName": null,
    "Position": {
      "stopLongitude": "72.617786",
      "stopLatitude": "22.951901"
    },
    "RouteCodes": null,
    "Sequence": 56,
    "routeFlow": null
  },
  {
    "stopName": "Vatva Gam",
    "stopCode": 4804,
    "stationCode": 3025,
    "stopType": "MUNICIPAL_BUS",
    "shortStopName": null,
    "Position": {
      "stopLongitude": "72.612875",
      "stopLatitude": "22.953706"
    },
    "RouteCodes": null,
    "Sequence": 53,
    "routeFlow": null
  },
  {
    "stopName": "Jahangirpura",
    "stopCode": 4942,
    "stationCode": 1740,
    "stopType": "MUNICIPAL_BUS",
    "shortStopName": null,
    "Position": {
      "stopLongitude": "72.605003",
      "stopLatitude": "23.047265"
    },
    "RouteCodes": null,
    "Sequence": 3,
    "routeFlow": null
  },
  {
    "stopName": "Asarwa Chakla",
    "stopCode": 4943,
    "stationCode": 1170,
    "stopType": "MUNICIPAL_BUS",
    "shortStopName": null,
    "Position": {
      "stopLongitude": "72.604926",
      "stopLatitude": "23.044081"
    },
    "RouteCodes": null,
    "Sequence": 5,
    "routeFlow": null
  },
  {
    "stopName": "Vatva Cross Road",
    "stopCode": 5745,
    "stationCode": 3024,
    "stopType": "MUNICIPAL_BUS",
    "shortStopName": null,
    "Position": {
      "stopLongitude": "72.601706",
      "stopLatitude": "22.976299"
    },
    "RouteCodes": null,
    "Sequence": 44,
    "routeFlow": null
  },
  {
    "stopName": "Vatva Railway Fatak",
    "stopCode": 8380,
    "stationCode": 7294,
    "stopType": "MUNICIPAL_BUS",
    "shortStopName": null,
    "Position": {
      "stopLongitude": "72.629771",
      "stopLatitude": "22.95725"
    },
    "RouteCodes": null,
    "Sequence": 61,
    "routeFlow": null
  },
  {
    "stopName": "Vatva Railway Station",
    "stopCode": 8729,
    "stationCode": 6112,
    "stopType": "MUNICIPAL_BUS",
    "shortStopName": null,
    "Position": {
      "stopLongitude": "72.62907",
      "stopLatitude": "22.95886"
    },
    "RouteCodes": null,
    "Sequence": 62,
    "routeFlow": null
  },
  {
    "stopName": "Hirabhai Tower (Uttamnagar)",
    "stopCode": 8740,
    "stationCode": 6118,
    "stopType": "MUNICIPAL_BUS",
    "shortStopName": null,
    "Position": {
      "stopLongitude": "72.604055",
      "stopLatitude": "22.990385"
    },
    "RouteCodes": null,
    "Sequence": 34,
    "routeFlow": null
  },
  {
    "stopName": "Chamunda Overbridge",
    "stopCode": 9205,
    "stationCode": 6336,
    "stopType": "MUNICIPAL_BUS",
    "shortStopName": null,
    "Position": {
      "stopLongitude": "72.612019",
      "stopLatitude": "23.038543"
    },
    "RouteCodes": null,
    "Sequence": 8,
    "routeFlow": null
  },
  {
    "stopName": "Chamanpura Choktha",
    "stopCode": 9207,
    "stationCode": 6337,
    "stopType": "MUNICIPAL_BUS",
    "shortStopName": null,
    "Position": {
      "stopLongitude": "72.609847",
      "stopLatitude": "23.045469"
    },
    "RouteCodes": null,
    "Sequence": 7,
    "routeFlow": null
  },
  {
    "stopName": "Asarva Talav",
    "stopCode": 9209,
    "stationCode": 6338,
    "stopType": "MUNICIPAL_BUS",
    "shortStopName": null,
    "Position": {
      "stopLongitude": "72.606644",
      "stopLatitude": "23.044594"
    },
    "RouteCodes": null,
    "Sequence": 6,
    "routeFlow": null
  },
  {
    "stopName": "Prabhu Nagar",
    "stopCode": 9211,
    "stationCode": 6339,
    "stopType": "MUNICIPAL_BUS",
    "shortStopName": null,
    "Position": {
      "stopLongitude": "72.604359",
      "stopLatitude": "23.045927"
    },
    "RouteCodes": null,
    "Sequence": 4,
    "routeFlow": null
  },
  {
    "stopName": "Cancer Hospital",
    "stopCode": 9213,
    "stationCode": 1334,
    "stopType": "MUNICIPAL_BUS",
    "shortStopName": null,
    "Position": {
      "stopLongitude": "72.605738",
      "stopLatitude": "23.048756"
    },
    "RouteCodes": null,
    "Sequence": 2,
    "routeFlow": null
  },
  {
    "stopName": "Vrundavan Society",
    "stopCode": 9334,
    "stationCode": 6399,
    "stopType": "MUNICIPAL_BUS",
    "shortStopName": null,
    "Position": {
      "stopLongitude": "72.601564",
      "stopLatitude": "22.988712"
    },
    "RouteCodes": null,
    "Sequence": 36,
    "routeFlow": null
  },
  {
    "stopName": "Sunil Society",
    "stopCode": 9336,
    "stationCode": 6400,
    "stopType": "MUNICIPAL_BUS",
    "shortStopName": null,
    "Position": {
      "stopLongitude": "72.598292",
      "stopLatitude": "22.988781"
    },
    "RouteCodes": null,
    "Sequence": 37,
    "routeFlow": null
  },
  {
    "stopName": "Lalita Society",
    "stopCode": 9338,
    "stationCode": 6401,
    "stopType": "MUNICIPAL_BUS",
    "shortStopName": null,
    "Position": {
      "stopLongitude": "72.596597",
      "stopLatitude": "22.986707"
    },
    "RouteCodes": null,
    "Sequence": 39,
    "routeFlow": null
  }
]