[
  {
    "stopName": "Vinay Vidya Mandir",
    "stopCode": 1617,
    "stationCode": 3051,
    "stopType": "MUNICIPAL_BUS",
    "shortStopName": null,
    "Position": {
      "stopLongitude": "72.518043",
      "stopLatitude": "23.052485"
    },
    "RouteCodes": null,
    "Sequence": 2,
    "routeFlow": "LINESTRING (72.51654 23.04972, 72.51702 23.04974, 72.51724 23.05031, 72.51782 23.05182, 72.51804 23.05249, 72.51804 23.05249, 72.51829 23.05324, 72.51874 23.05482, 72.51916 23.05624, 72.51916 23.05624, 72.51954 23.0576, 72.51985 23.0586, 72.52018 23.05852, 72.52032 23.05849, 72.52039 23.0585, 72.52045 23.05857, 72.52056 23.05889, 72.52059 23.05898, 72.52086 23.05885, 72.52085 23.05883, 72.52284 23.05791, 72.52304 23.05829, 72.52304 23.05829, 72.52408 23.0603, 72.52434 23.06082, 72.52433 23.06082, 72.52469 23.06153, 72.52469 23.06153, 72.52546 23.06299, 72.52555 23.06329, 72.52558 23.06357, 72.52559 23.06393, 72.52601 23.06394, 72.52601 23.06394, 72.52922 23.06403, 72.52922 23.06403, 72.52985 23.06404, 72.53004 23.06407, 72.53016 23.06412, 72.53036 23.06427, 72.53046 23.06419, 72.53074 23.06405, 72.53093 23.06395, 72.53093 23.06395, 72.53136 23.06374, 72.5317 23.06355, 72.53259 23.06307, 72.53374 23.06242, 72.53375 23.06243, 72.53406 23.0622, 72.53419 23.06207, 72.53507 23.06112, 72.53544 23.06075, 72.5359 23.06023, 72.53634 23.05961, 72.53641 23.05947, 72.5365 23.05954, 72.53665 23.05986, 72.53672 23.06004, 72.5367 23.06004, 72.53691 23.06051, 72.53709 23.0609, 72.53736 23.06135, 72.53773 23.06216, 72.53789 23.06264, 72.53793 23.06273, 72.53797 23.06271, 72.53818 23.06323, 72.5386 23.06413, 72.53901 23.06514, 72.53901 23.06514, 72.53904 23.06521, 72.53894 23.06596, 72.53902 23.06647, 72.53902 23.06647, 72.53909 23.06767, 72.53912 23.06813, 72.53924 23.06812, 72.53972 23.06806, 72.54009 23.06812, 72.54009 23.06812, 72.54054 23.06819, 72.54072 23.0685, 72.54082 23.06865, 72.54094 23.06875, 72.5411 23.06884, 72.54136 23.06891, 72.54241 23.06867, 72.54241 23.06867, 72.54284 23.06856, 72.54337 23.06833, 72.54374 23.0682, 72.54382 23.06819, 72.54391 23.06821, 72.54366 23.06876, 72.54366 23.06876, 72.54293 23.07034, 72.54293 23.07034, 72.54182 23.07255, 72.54118 23.07385, 72.54087 23.07434, 72.54067 23.07462, 72.53927 23.07623, 72.53918 23.07631, 72.53902 23.07641, 72.5387 23.07653, 72.53847 23.07656, 72.53846 23.07654, 72.5384 23.07652, 72.53834 23.07653, 72.5383 23.07657, 72.5383 23.07662, 72.53831 23.07665, 72.53776 23.07736, 72.53768 23.07748, 72.53768 23.07748, 72.53669 23.07891, 72.53669 23.07891, 72.53627 23.07952, 72.53591 23.08013, 72.5356 23.08077, 72.53558 23.08079, 72.53558 23.08079, 72.53548 23.08094, 72.5354 23.08102, 72.53495 23.0814, 72.53419 23.08198, 72.53398 23.08218, 72.53398 23.08218, 72.5332 23.08293, 72.53205 23.08407, 72.53197 23.08416, 72.53197 23.08416, 72.53149 23.08469, 72.53049 23.08593, 72.53037 23.08604, 72.53027 23.08609, 72.52984 23.08615, 72.52873 23.08626, 72.52873 23.08626, 72.52829 23.08629, 72.5274 23.08319, 72.52734 23.08298, 72.52734 23.08298, 72.52631 23.07956, 72.52631 23.07956, 72.52597 23.07836, 72.52545 23.07643, 72.52534 23.07612, 72.52485 23.0745, 72.52484 23.07446, 72.52485 23.07448, 72.52455 23.07459, 72.52475 23.07522, 72.52511 23.07637, 72.5251 23.07639, 72.5251 23.07641, 72.52493 23.0765, 72.52473 23.07652, 72.52369 23.07647, 72.52293 23.07643, 72.52234 23.07641, 72.52161 23.07643, 72.52141 23.07647, 72.52141 23.07647, 72.52007 23.07671, 72.51851 23.07705, 72.51838 23.07706, 72.51838 23.07706, 72.51834 23.07704, 72.51801 23.07564, 72.5178 23.07485, 72.5178 23.07485, 72.5174 23.07331, 72.5174 23.07331, 72.51718 23.07248, 72.51706 23.07214, 72.51701 23.07195, 72.51702 23.07195, 72.51704 23.07194, 72.51706 23.07192, 72.51708 23.07189, 72.51708 23.07184, 72.51704 23.07176, 72.51702 23.07175, 72.51702 23.07174, 72.51673 23.07052, 72.51667 23.0703, 72.51667 23.0703, 72.51637 23.06924, 72.51631 23.06895, 72.51631 23.06895, 72.51594 23.06721, 72.5158 23.06666, 72.5158 23.06667, 72.51525 23.06455, 72.51498 23.06348, 72.51489 23.06293, 72.51483 23.06245, 72.51485 23.06178, 72.51482 23.06015, 72.51482 23.05956, 72.51489 23.05933, 72.51479 23.05931, 72.51479 23.05931, 72.51367 23.05902, 72.51321 23.05886, 72.51303 23.05879, 72.51158 23.05819, 72.51125 23.05804, 72.51053 23.05775, 72.51053 23.05775, 72.51002 23.05754, 72.50913 23.05714, 72.50841 23.05685, 72.50717 23.05635, 72.50665 23.05616, 72.50617 23.05598, 72.5062 23.05594, 72.5062 23.05594, 72.50696 23.05495, 72.50753 23.0542, 72.50753 23.0542, 72.50788 23.0537, 72.50802 23.05342, 72.50807 23.05327, 72.50813 23.05295, 72.50815 23.05276, 72.50817 23.05218, 72.50807 23.05077, 72.50806 23.05049, 72.50813 23.05048, 72.50813 23.05048, 72.50821 23.05044, 72.50843 23.0504, 72.50867 23.05039, 72.50899 23.05039, 72.50943 23.05037, 72.50984 23.05039, 72.51027 23.05043, 72.51056 23.05036, 72.51074 23.05026, 72.5111 23.05015, 72.51156 23.05007, 72.51201 23.05007, 72.5125 23.0501, 72.51368 23.05, 72.51403 23.05, 72.51425 23.04999, 72.5149 23.0498, 72.51502 23.04979, 72.51519 23.04981, 72.51566 23.04983, 72.51654 23.04993)"
  },
  {
    "stopName": "Raja Palace (Chakshu Bank)",
    "stopCode": 1618,
    "stationCode": 2439,
    "stopType": "MUNICIPAL_BUS",
    "shortStopName": null,
    "Position": {
      "stopLongitude": "72.519141",
      "stopLatitude": "23.056245"
    },
    "RouteCodes": null,
    "Sequence": 3,
    "routeFlow": null
  },
  {
    "stopName": "R.C.Technical",
    "stopCode": 1686,
    "stationCode": 2404,
    "stopType": "MUNICIPAL_BUS",
    "shortStopName": null,
    "Position": {
      "stopLongitude": "72.527288",
      "stopLatitude": "23.08299"
    },
    "RouteCodes": null,
    "Sequence": 27,
    "routeFlow": null
  },
  {
    "stopName": "Gujarat High Court",
    "stopCode": 1687,
    "stationCode": 1617,
    "stopType": "MUNICIPAL_BUS",
    "shortStopName": null,
    "Position": {
      "stopLongitude": "72.526306",
      "stopLatitude": "23.07956"
    },
    "RouteCodes": null,
    "Sequence": 28,
    "routeFlow": null
  },
  {
    "stopName": "Ramdev Masala",
    "stopCode": 1688,
    "stationCode": 2466,
    "stopType": "MUNICIPAL_BUS",
    "shortStopName": null,
    "Position": {
      "stopLongitude": "72.524843",
      "stopLatitude": "23.074458"
    },
    "RouteCodes": null,
    "Sequence": 29,
    "routeFlow": null
  },
  {
    "stopName": "Gulab Tower",
    "stopCode": 2240,
    "stationCode": 1631,
    "stopType": "MUNICIPAL_BUS",
    "shortStopName": null,
    "Position": {
      "stopLongitude": "72.526011",
      "stopLatitude": "23.06397"
    },
    "RouteCodes": null,
    "Sequence": 8,
    "routeFlow": null
  },
  {
    "stopName": "Nirman Tower (Sattadhar)",
    "stopCode": 2241,
    "stationCode": 2240,
    "stopType": "MUNICIPAL_BUS",
    "shortStopName": null,
    "Position": {
      "stopLongitude": "72.529215",
      "stopLatitude": "23.064086"
    },
    "RouteCodes": null,
    "Sequence": 9,
    "routeFlow": null
  },
  {
    "stopName": "Sarthak School (Sattadhar Cross Road)",
    "stopCode": 2242,
    "stationCode": 2638,
    "stopType": "MUNICIPAL_BUS",
    "shortStopName": null,
    "Position": {
      "stopLongitude": "72.53094",
      "stopLatitude": "23.063962"
    },
    "RouteCodes": null,
    "Sequence": 10,
    "routeFlow": null
  },
  {
    "stopName": "Sarvodaynagar",
    "stopCode": 2915,
    "stationCode": 2645,
    "stopType": "MUNICIPAL_BUS",
    "shortStopName": null,
    "Position": {
      "stopLongitude": "72.533773",
      "stopLatitude": "23.06246"
    },
    "RouteCodes": null,
    "Sequence": 11,
    "routeFlow": null
  },
  {
    "stopName": "Mrudul Park",
    "stopCode": 3393,
    "stationCode": 2103,
    "stopType": "MUNICIPAL_BUS",
    "shortStopName": null,
    "Position": {
      "stopLongitude": "72.537683",
      "stopLatitude": "23.077483"
    },
    "RouteCodes": null,
    "Sequence": 21,
    "routeFlow": null
  },
  {
    "stopName": "Sayona City",
    "stopCode": 3394,
    "stationCode": 2665,
    "stopType": "MUNICIPAL_BUS",
    "shortStopName": null,
    "Position": {
      "stopLongitude": "72.53668",
      "stopLatitude": "23.078908"
    },
    "RouteCodes": null,
    "Sequence": 22,
    "routeFlow": null
  },
  {
    "stopName": "Avadhpuri",
    "stopCode": 3395,
    "stationCode": 1200,
    "stopType": "MUNICIPAL_BUS",
    "shortStopName": null,
    "Position": {
      "stopLongitude": "72.535576",
      "stopLatitude": "23.08079"
    },
    "RouteCodes": null,
    "Sequence": 23,
    "routeFlow": null
  },
  {
    "stopName": "Nirman Tower (Sola)",
    "stopCode": 3396,
    "stationCode": 2241,
    "stopType": "MUNICIPAL_BUS",
    "shortStopName": null,
    "Position": {
      "stopLongitude": "72.533963",
      "stopLatitude": "23.082161"
    },
    "RouteCodes": null,
    "Sequence": 24,
    "routeFlow": null
  },
  {
    "stopName": "Prabhat Chowk",
    "stopCode": 3971,
    "stationCode": 2355,
    "stopType": "MUNICIPAL_BUS",
    "shortStopName": null,
    "Position": {
      "stopLongitude": "72.543671",
      "stopLatitude": "23.068761"
    },
    "RouteCodes": null,
    "Sequence": 18,
    "routeFlow": null
  },
  {
    "stopName": "Chhaya Flats",
    "stopCode": 3972,
    "stationCode": 1379,
    "stopType": "MUNICIPAL_BUS",
    "shortStopName": null,
    "Position": {
      "stopLongitude": "72.54292",
      "stopLatitude": "23.070338"
    },
    "RouteCodes": null,
    "Sequence": 19,
    "routeFlow": null
  },
  {
    "stopName": "Bhuyangdev Society",
    "stopCode": 4203,
    "stationCode": 1307,
    "stopType": "MUNICIPAL_BUS",
    "shortStopName": null,
    "Position": {
      "stopLongitude": "72.536645",
      "stopLatitude": "23.060061"
    },
    "RouteCodes": null,
    "Sequence": 12,
    "routeFlow": null
  },
  {
    "stopName": "Suvarna Bunglows",
    "stopCode": 4210,
    "stationCode": 2883,
    "stopType": "MUNICIPAL_BUS",
    "shortStopName": null,
    "Position": {
      "stopLongitude": "72.514793",
      "stopLatitude": "23.059262"
    },
    "RouteCodes": null,
    "Sequence": 37,
    "routeFlow": null
  },
  {
    "stopName": "Ayna Complex",
    "stopCode": 4211,
    "stationCode": 1201,
    "stopType": "MUNICIPAL_BUS",
    "shortStopName": null,
    "Position": {
      "stopLongitude": "72.510535",
      "stopLatitude": "23.057748"
    },
    "RouteCodes": null,
    "Sequence": 38,
    "routeFlow": null
  },
  {
    "stopName": "Hebatpur Cross Road",
    "stopCode": 4212,
    "stationCode": 1675,
    "stopType": "MUNICIPAL_BUS",
    "shortStopName": null,
    "Position": {
      "stopLongitude": "72.506204",
      "stopLatitude": "23.055942"
    },
    "RouteCodes": null,
    "Sequence": 39,
    "routeFlow": null
  },
  {
    "stopName": "C.P.Nagar",
    "stopCode": 4228,
    "stationCode": 1325,
    "stopType": "MUNICIPAL_BUS",
    "shortStopName": null,
    "Position": {
      "stopLongitude": "72.537899",
      "stopLatitude": "23.062737"
    },
    "RouteCodes": null,
    "Sequence": 13,
    "routeFlow": null
  },
  {
    "stopName": "Karmacharinagar",
    "stopCode": 4229,
    "stationCode": 1855,
    "stopType": "MUNICIPAL_BUS",
    "shortStopName": null,
    "Position": {
      "stopLongitude": "72.538998",
      "stopLatitude": "23.065141"
    },
    "RouteCodes": null,
    "Sequence": 14,
    "routeFlow": null
  },
  {
    "stopName": "Somnath Chowk (Chanakyapuri Approach)",
    "stopCode": 4233,
    "stationCode": 2825,
    "stopType": "MUNICIPAL_BUS",
    "shortStopName": null,
    "Position": {
      "stopLongitude": "72.538476",
      "stopLatitude": "23.076527"
    },
    "RouteCodes": null,
    "Sequence": 20,
    "routeFlow": null
  },
  {
    "stopName": "Fun Point",
    "stopCode": 4238,
    "stationCode": 1502,
    "stopType": "MUNICIPAL_BUS",
    "shortStopName": null,
    "Position": {
      "stopLongitude": "72.521406",
      "stopLatitude": "23.076471"
    },
    "RouteCodes": null,
    "Sequence": 30,
    "routeFlow": null
  },
  {
    "stopName": "Sola Bhagwat Vidyapith",
    "stopCode": 4507,
    "stationCode": 2817,
    "stopType": "MUNICIPAL_BUS",
    "shortStopName": null,
    "Position": {
      "stopLongitude": "72.528721",
      "stopLatitude": "23.086253"
    },
    "RouteCodes": null,
    "Sequence": 26,
    "routeFlow": null
  },
  {
    "stopName": "Shilpi Residency",
    "stopCode": 4666,
    "stationCode": 2717,
    "stopType": "MUNICIPAL_BUS",
    "shortStopName": null,
    "Position": {
      "stopLongitude": "72.52465",
      "stopLatitude": "23.061543"
    },
    "RouteCodes": null,
    "Sequence": 7,
    "routeFlow": null
  },
  {
    "stopName": "R.C.Technical",
    "stopCode": 4668,
    "stationCode": 2404,
    "stopType": "MUNICIPAL_BUS",
    "shortStopName": null,
    "Position": {
      "stopLongitude": "72.531966",
      "stopLatitude": "23.084161"
    },
    "RouteCodes": null,
    "Sequence": 25,
    "routeFlow": null
  },
  {
    "stopName": "Sarkhej-Gandhinagar Cross Road",
    "stopCode": 4997,
    "stationCode": 2634,
    "stopType": "MUNICIPAL_BUS",
    "shortStopName": null,
    "Position": {
      "stopLongitude": "72.520868",
      "stopLatitude": "23.058858"
    },
    "RouteCodes": null,
    "Sequence": 4,
    "routeFlow": null
  },
  {
    "stopName": "Auda Garden",
    "stopCode": 4998,
    "stationCode": 1199,
    "stopType": "MUNICIPAL_BUS",
    "shortStopName": null,
    "Position": {
      "stopLongitude": "72.523011",
      "stopLatitude": "23.0583"
    },
    "RouteCodes": null,
    "Sequence": 5,
    "routeFlow": null
  },
  {
    "stopName": "Someshwar Park",
    "stopCode": 4999,
    "stationCode": 2824,
    "stopType": "MUNICIPAL_BUS",
    "shortStopName": null,
    "Position": {
      "stopLongitude": "72.524316",
      "stopLatitude": "23.060826"
    },
    "RouteCodes": null,
    "Sequence": 6,
    "routeFlow": null
  },
  {
    "stopName": "Ghatlodiya Gam",
    "stopCode": 5491,
    "stationCode": 1547,
    "stopType": "MUNICIPAL_BUS",
    "shortStopName": null,
    "Position": {
      "stopLongitude": "72.540068",
      "stopLatitude": "23.068216"
    },
    "RouteCodes": null,
    "Sequence": 16,
    "routeFlow": null
  },
  {
    "stopName": "Nutan Vidya Vihar",
    "stopCode": 5492,
    "stationCode": 2251,
    "stopType": "MUNICIPAL_BUS",
    "shortStopName": null,
    "Position": {
      "stopLongitude": "72.542421",
      "stopLatitude": "23.068733"
    },
    "RouteCodes": null,
    "Sequence": 17,
    "routeFlow": null
  },
  {
    "stopName": "Thaltej Metro Station",
    "stopCode": 6217,
    "stationCode": 7054,
    "stopType": "MUNICIPAL_BUS",
    "shortStopName": null,
    "Position": {
      "stopLongitude": "72.516542",
      "stopLatitude": "23.049893"
    },
    "RouteCodes": null,
    "Sequence": 42,
    "routeFlow": null
  },
  {
    "stopName": "Thaltej Metro Station",
    "stopCode": 6218,
    "stationCode": 7054,
    "stopType": "MUNICIPAL_BUS",
    "shortStopName": null,
    "Position": {
      "stopLongitude": "72.516542",
      "stopLatitude": "23.049708"
    },
    "RouteCodes": null,
    "Sequence": 1,
    "routeFlow": null
  },
  {
    "stopName": "Maruti Society",
    "stopCode": 6374,
    "stationCode": 7129,
    "stopType": "MUNICIPAL_BUS",
    "shortStopName": null,
    "Position": {
      "stopLongitude": "72.539001",
      "stopLatitude": "23.066469"
    },
    "RouteCodes": null,
    "Sequence": 15,
    "routeFlow": null
  },
  {
    "stopName": "Raviaraj Society",
    "stopCode": 6377,
    "stationCode": 7130,
    "stopType": "MUNICIPAL_BUS",
    "shortStopName": null,
    "Position": {
      "stopLongitude": "72.518386",
      "stopLatitude": "23.077043"
    },
    "RouteCodes": null,
    "Sequence": 31,
    "routeFlow": null
  },
  {
    "stopName": "Dharti Homes",
    "stopCode": 6378,
    "stationCode": 7131,
    "stopType": "MUNICIPAL_BUS",
    "shortStopName": null,
    "Position": {
      "stopLongitude": "72.517783",
      "stopLatitude": "23.074855"
    },
    "RouteCodes": null,
    "Sequence": 32,
    "routeFlow": null
  },
  {
    "stopName": "Sola Gam",
    "stopCode": 6380,
    "stationCode": 7132,
    "stopType": "MUNICIPAL_BUS",
    "shortStopName": null,
    "Position": {
      "stopLongitude": "72.51742",
      "stopLatitude": "23.073309"
    },
    "RouteCodes": null,
    "Sequence": 33,
    "routeFlow": null
  },
  {
    "stopName": "CIMS Hospital",
    "stopCode": 6382,
    "stationCode": 7133,
    "stopType": "MUNICIPAL_BUS",
    "shortStopName": null,
    "Position": {
      "stopLongitude": "72.516676",
      "stopLatitude": "23.070295"
    },
    "RouteCodes": null,
    "Sequence": 34,
    "routeFlow": null
  },
  {
    "stopName": "Shital Park",
    "stopCode": 6384,
    "stationCode": 7134,
    "stopType": "MUNICIPAL_BUS",
    "shortStopName": null,
    "Position": {
      "stopLongitude": "72.516302",
      "stopLatitude": "23.068946"
    },
    "RouteCodes": null,
    "Sequence": 35,
    "routeFlow": null
  },
  {
    "stopName": "Anurag Bunglows",
    "stopCode": 6386,
    "stationCode": 7135,
    "stopType": "MUNICIPAL_BUS",
    "shortStopName": null,
    "Position": {
      "stopLongitude": "72.515809",
      "stopLatitude": "23.06668"
    },
    "RouteCodes": null,
    "Sequence": 36,
    "routeFlow": null
  },
  {
    "stopName": "Thaltej Gam",
    "stopCode": 6388,
    "stationCode": 2939,
    "stopType": "MUNICIPAL_BUS",
    "shortStopName": null,
    "Position": {
      "stopLongitude": "72.50814",
      "stopLatitude": "23.050514"
    },
    "RouteCodes": null,
    "Sequence": 41,
    "routeFlow": null
  },
  {
    "stopName": "Shree Naran Dham",
    "stopCode": 8800,
    "stationCode": 6147,
    "stopType": "MUNICIPAL_BUS",
    "shortStopName": null,
    "Position": {
      "stopLongitude": "72.507595",
      "stopLatitude": "23.054243"
    },
    "RouteCodes": null,
    "Sequence": 40,
    "routeFlow": null
  }
]