[
  {
    "stopName": "New York Complex",
    "stopCode": 1614,
    "stationCode": 2216,
    "stopType": "MUNICIPAL_BUS",
    "shortStopName": null,
    "Position": {
      "stopLongitude": "72.513245",
      "stopLatitude": "23.041928"
    },
    "RouteCodes": null,
    "Sequence": 8,
    "routeFlow": "LINESTRING (72.49461 23.04132, 72.4957 23.04123, 72.49757 23.04112, 72.49899 23.04098, 72.49931 23.04096, 72.49933 23.04096, 72.50103 23.04082, 72.50102 23.04079, 72.50193 23.04074, 72.5028 23.04065, 72.50396 23.0406, 72.50396 23.0406, 72.50505 23.04055, 72.50663 23.0404, 72.50717 23.04035, 72.50717 23.04035, 72.50744 23.04028, 72.5089 23.03978, 72.5103 23.03927, 72.51032 23.03932, 72.51159 23.03887, 72.51189 23.03899, 72.51199 23.03919, 72.51199 23.03919, 72.51261 23.04057, 72.51294 23.04126, 72.51326 23.04192, 72.51329 23.04191, 72.51573 23.04692, 72.51573 23.04692, 72.51596 23.0474, 72.51666 23.04891, 72.51702 23.04974, 72.51654 23.04972, 72.51654 23.04972, 72.51702 23.04974, 72.51722 23.04974, 72.51751 23.04974, 72.51741 23.04949, 72.51727 23.04916, 72.51731 23.04914, 72.51727 23.04916, 72.51696 23.04846, 72.51692 23.04837, 72.51679 23.0481, 72.51617 23.04681, 72.51576 23.04597, 72.51564 23.04573, 72.51568 23.04571, 72.51564 23.04573, 72.51478 23.04398, 72.5143 23.043, 72.51389 23.04212, 72.51372 23.04174, 72.51333 23.04102, 72.51326 23.04098, 72.51322 23.0409, 72.51306 23.0406, 72.51299 23.04046, 72.51299 23.04046, 72.51215 23.03877, 72.5121 23.03866, 72.5123 23.03857, 72.51272 23.03838, 72.51271 23.03835, 72.51425 23.03769, 72.51425 23.03769, 72.51602 23.03694, 72.51602 23.03694, 72.51637 23.03681, 72.51639 23.03682, 72.51642 23.03682, 72.51649 23.0368, 72.51651 23.03677, 72.51652 23.03675, 72.51821 23.03603, 72.51894 23.03573, 72.52014 23.03522, 72.52014 23.03522, 72.52151 23.03463, 72.52329 23.03377, 72.52329 23.03377, 72.52361 23.03363, 72.52396 23.03342, 72.52424 23.03325, 72.5244 23.03311, 72.52466 23.03286, 72.52502 23.03247, 72.52513 23.0323, 72.52529 23.03205, 72.52554 23.0318, 72.52606 23.03143)"
  },
  {
    "stopName": "Guru Govind Dham",
    "stopCode": 1615,
    "stationCode": 1634,
    "stopType": "MUNICIPAL_BUS",
    "shortStopName": null,
    "Position": {
      "stopLongitude": "72.51574",
      "stopLatitude": "23.046911"
    },
    "RouteCodes": null,
    "Sequence": 9,
    "routeFlow": null
  },
  {
    "stopName": "Guru Govind Dham",
    "stopCode": 1693,
    "stationCode": 1634,
    "stopType": "MUNICIPAL_BUS",
    "shortStopName": null,
    "Position": {
      "stopLongitude": "72.515675",
      "stopLatitude": "23.045713"
    },
    "RouteCodes": null,
    "Sequence": 11,
    "routeFlow": null
  },
  {
    "stopName": "New York Complex",
    "stopCode": 1694,
    "stationCode": 2216,
    "stopType": "MUNICIPAL_BUS",
    "shortStopName": null,
    "Position": {
      "stopLongitude": "72.512986",
      "stopLatitude": "23.040463"
    },
    "RouteCodes": null,
    "Sequence": 12,
    "routeFlow": null
  },
  {
    "stopName": "Parijat Bunglows",
    "stopCode": 3182,
    "stationCode": 2309,
    "stopType": "MUNICIPAL_BUS",
    "shortStopName": null,
    "Position": {
      "stopLongitude": "72.514278",
      "stopLatitude": "23.037743"
    },
    "RouteCodes": null,
    "Sequence": 14,
    "routeFlow": null
  },
  {
    "stopName": "Judges Bunglows",
    "stopCode": 3183,
    "stationCode": 1800,
    "stopType": "MUNICIPAL_BUS",
    "shortStopName": null,
    "Position": {
      "stopLongitude": "72.516046",
      "stopLatitude": "23.036995"
    },
    "RouteCodes": null,
    "Sequence": 15,
    "routeFlow": null
  },
  {
    "stopName": "Premchandnagar",
    "stopCode": 3184,
    "stationCode": 2381,
    "stopType": "MUNICIPAL_BUS",
    "shortStopName": null,
    "Position": {
      "stopLongitude": "72.520143",
      "stopLatitude": "23.035226"
    },
    "RouteCodes": null,
    "Sequence": 16,
    "routeFlow": null
  },
  {
    "stopName": "Goyal Park",
    "stopCode": 3185,
    "stationCode": 1600,
    "stopType": "MUNICIPAL_BUS",
    "shortStopName": null,
    "Position": {
      "stopLongitude": "72.523308",
      "stopLatitude": "23.033801"
    },
    "RouteCodes": null,
    "Sequence": 17,
    "routeFlow": null
  },
  {
    "stopName": "Mansi Complex",
    "stopCode": 3186,
    "stationCode": 2053,
    "stopType": "MUNICIPAL_BUS",
    "shortStopName": null,
    "Position": {
      "stopLongitude": "72.52609",
      "stopLatitude": "23.031471"
    },
    "RouteCodes": null,
    "Sequence": 18,
    "routeFlow": null
  },
  {
    "stopName": "Sindhu Bhavan",
    "stopCode": 4979,
    "stationCode": 2803,
    "stopType": "MUNICIPAL_BUS",
    "shortStopName": null,
    "Position": {
      "stopLongitude": "72.501033",
      "stopLatitude": "23.040873"
    },
    "RouteCodes": null,
    "Sequence": 3,
    "routeFlow": null
  },
  {
    "stopName": "K.K.Farm",
    "stopCode": 4980,
    "stationCode": 1809,
    "stopType": "MUNICIPAL_BUS",
    "shortStopName": null,
    "Position": {
      "stopLongitude": "72.503966",
      "stopLatitude": "23.040655"
    },
    "RouteCodes": null,
    "Sequence": 4,
    "routeFlow": null
  },
  {
    "stopName": "Friends Avenue",
    "stopCode": 4981,
    "stationCode": 1500,
    "stopType": "MUNICIPAL_BUS",
    "shortStopName": null,
    "Position": {
      "stopLongitude": "72.507178",
      "stopLatitude": "23.040408"
    },
    "RouteCodes": null,
    "Sequence": 5,
    "routeFlow": null
  },
  {
    "stopName": "Mahisagar Kathiyawadi Hotel",
    "stopCode": 4982,
    "stationCode": 2013,
    "stopType": "MUNICIPAL_BUS",
    "shortStopName": null,
    "Position": {
      "stopLongitude": "72.51034",
      "stopLatitude": "23.039373"
    },
    "RouteCodes": null,
    "Sequence": 6,
    "routeFlow": null
  },
  {
    "stopName": "Pakwan",
    "stopCode": 4983,
    "stationCode": 2282,
    "stopType": "MUNICIPAL_BUS",
    "shortStopName": null,
    "Position": {
      "stopLongitude": "72.512713",
      "stopLatitude": "23.038361"
    },
    "RouteCodes": null,
    "Sequence": 13,
    "routeFlow": null
  },
  {
    "stopName": "Time Square Grand",
    "stopCode": 5936,
    "stationCode": 6528,
    "stopType": "MUNICIPAL_BUS",
    "shortStopName": null,
    "Position": {
      "stopLongitude": "72.499309",
      "stopLatitude": "23.040928"
    },
    "RouteCodes": null,
    "Sequence": 2,
    "routeFlow": null
  },
  {
    "stopName": "Thaltej Metro Station",
    "stopCode": 6218,
    "stationCode": 7054,
    "stopType": "MUNICIPAL_BUS",
    "shortStopName": null,
    "Position": {
      "stopLongitude": "72.516542",
      "stopLatitude": "23.049708"
    },
    "RouteCodes": null,
    "Sequence": 10,
    "routeFlow": null
  },
  {
    "stopName": "Sindhu Bhavan Road(Multi level parking)",
    "stopCode": 8147,
    "stationCode": 7202,
    "stopType": "MUNICIPAL_BUS",
    "shortStopName": null,
    "Position": {
      "stopLongitude": "72.494616",
      "stopLatitude": "23.04135"
    },
    "RouteCodes": null,
    "Sequence": 1,
    "routeFlow": null
  },
  {
    "stopName": "Pakwan",
    "stopCode": 8148,
    "stationCode": 2282,
    "stopType": "MUNICIPAL_BUS",
    "shortStopName": null,
    "Position": {
      "stopLongitude": "72.511988",
      "stopLatitude": "23.039186"
    },
    "RouteCodes": null,
    "Sequence": 7,
    "routeFlow": null
  }
]