[
  {
    "stopName": "Navarangpura",
    "stopCode": 1150,
    "stationCode": 2189,
    "stopType": "MUNICIPAL_BUS",
    "shortStopName": null,
    "Position": {
      "stopLongitude": "72.564193",
      "stopLatitude": "23.03552"
    },
    "RouteCodes": null,
    "Sequence": 10,
    "routeFlow": "LINESTRING (72.5643 23.01456, 72.5637 23.01495, 72.5636 23.01504, 72.56323 23.01538, 72.56299 23.01559, 72.56266 23.016, 72.56217 23.01678, 72.56195 23.01718, 72.56166 23.01775, 72.56144 23.01819, 72.56117 23.01883, 72.56083 23.01979, 72.56084 23.01979, 72.56072 23.02007, 72.56069 23.02014, 72.56042 23.02011, 72.55973 23.02003, 72.55938 23.01998, 72.55827 23.01986, 72.55807 23.01981, 72.55741 23.01959, 72.55724 23.02017, 72.55705 23.02066, 72.557 23.02079, 72.557 23.02079, 72.55648 23.02195, 72.55619 23.02243, 72.55615 23.02245, 72.55609 23.02252, 72.55609 23.02259, 72.55611 23.02263, 72.55612 23.02263, 72.55612 23.0227, 72.55603 23.02324, 72.55603 23.02324, 72.55599 23.02361, 72.55597 23.02398, 72.55603 23.02452, 72.55613 23.02495, 72.55621 23.02518, 72.55646 23.02572, 72.55646 23.02572, 72.55693 23.02665, 72.5575 23.02776, 72.5581 23.02884, 72.5581 23.02884, 72.55873 23.02995, 72.55899 23.0304, 72.55932 23.03107, 72.55938 23.0312, 72.55938 23.0312, 72.55992 23.03241, 72.56003 23.03269, 72.56024 23.03331, 72.56043 23.03396, 72.56053 23.03436, 72.56053 23.03436, 72.56078 23.03547, 72.56089 23.03597, 72.56101 23.03634, 72.56113 23.03664, 72.56147 23.03649, 72.56147 23.03649, 72.56293 23.03585, 72.56375 23.03555, 72.5639 23.03563, 72.56419 23.03552)"
  },
  {
    "stopName": "Paldi",
    "stopCode": 1968,
    "stationCode": 2284,
    "stopType": "MUNICIPAL_BUS",
    "shortStopName": null,
    "Position": {
      "stopLongitude": "72.564306",
      "stopLatitude": "23.014568"
    },
    "RouteCodes": null,
    "Sequence": 1,
    "routeFlow": null
  },
  {
    "stopName": "Sharda Mandir",
    "stopCode": 1970,
    "stationCode": 2705,
    "stopType": "MUNICIPAL_BUS",
    "shortStopName": null,
    "Position": {
      "stopLongitude": "72.560808",
      "stopLatitude": "23.019781"
    },
    "RouteCodes": null,
    "Sequence": 2,
    "routeFlow": null
  },
  {
    "stopName": "Panchvati",
    "stopCode": 3831,
    "stationCode": 2294,
    "stopType": "MUNICIPAL_BUS",
    "shortStopName": null,
    "Position": {
      "stopLongitude": "72.55603",
      "stopLatitude": "23.023238"
    },
    "RouteCodes": null,
    "Sequence": 4,
    "routeFlow": null
  },
  {
    "stopName": "Patel Society",
    "stopCode": 3832,
    "stationCode": 2325,
    "stopType": "MUNICIPAL_BUS",
    "shortStopName": null,
    "Position": {
      "stopLongitude": "72.556496",
      "stopLatitude": "23.025701"
    },
    "RouteCodes": null,
    "Sequence": 5,
    "routeFlow": null
  },
  {
    "stopName": "Lal Bangla (Cg Road)",
    "stopCode": 3833,
    "stationCode": 1959,
    "stopType": "MUNICIPAL_BUS",
    "shortStopName": null,
    "Position": {
      "stopLongitude": "72.558105",
      "stopLatitude": "23.028833"
    },
    "RouteCodes": null,
    "Sequence": 6,
    "routeFlow": null
  },
  {
    "stopName": "Parimal Garden",
    "stopCode": 4408,
    "stationCode": 2311,
    "stopType": "MUNICIPAL_BUS",
    "shortStopName": null,
    "Position": {
      "stopLongitude": "72.556981",
      "stopLatitude": "23.020783"
    },
    "RouteCodes": null,
    "Sequence": 3,
    "routeFlow": null
  },
  {
    "stopName": "Telephone Exchange (Cg Road)",
    "stopCode": 4409,
    "stationCode": 2927,
    "stopType": "MUNICIPAL_BUS",
    "shortStopName": null,
    "Position": {
      "stopLongitude": "72.559373",
      "stopLatitude": "23.031205"
    },
    "RouteCodes": null,
    "Sequence": 7,
    "routeFlow": null
  },
  {
    "stopName": "Municipal Market",
    "stopCode": 5253,
    "stationCode": 2120,
    "stopType": "MUNICIPAL_BUS",
    "shortStopName": null,
    "Position": {
      "stopLongitude": "72.560525",
      "stopLatitude": "23.034363"
    },
    "RouteCodes": null,
    "Sequence": 8,
    "routeFlow": null
  },
  {
    "stopName": "Swastik Char Rasta",
    "stopCode": 8273,
    "stationCode": 2901,
    "stopType": "MUNICIPAL_BUS",
    "shortStopName": null,
    "Position": {
      "stopLongitude": "72.561487",
      "stopLatitude": "23.036521"
    },
    "RouteCodes": null,
    "Sequence": 9,
    "routeFlow": null
  }
]