[
  {
    "stopName": "Pushpakunj-Shukladada Chowk",
    "stopCode": 2235,
    "stationCode": 2400,
    "stopType": "MUNICIPAL_BUS",
    "shortStopName": null,
    "Position": {
      "stopLongitude": "72.598783",
      "stopLatitude": "23.002841"
    },
    "RouteCodes": null,
    "Sequence": 3,
    "routeFlow": "LINESTRING (72.5987 23.0089, 72.59849 23.00866, 72.59818 23.00824, 72.59796 23.00813, 72.5977 23.00801, 72.59754 23.00791, 72.59731 23.00775, 72.59718 23.00763, 72.59694 23.00736, 72.59694 23.00736, 72.59669 23.00708, 72.59632 23.00674, 72.59698 23.00577, 72.59742 23.00498, 72.59766 23.00449, 72.59778 23.0042, 72.59797 23.00363, 72.59814 23.0032, 72.59824 23.00304, 72.59837 23.00296, 72.59877 23.00282, 72.59878 23.00283, 72.59916 23.0027, 72.59923 23.0027, 72.59932 23.0025, 72.5995 23.00204, 72.5996 23.00187, 72.59989 23.00128, 72.60013 23.00085, 72.60045 23.0003, 72.60045 23.0003, 72.60078 22.9998, 72.60098 22.99953, 72.60131 22.99914, 72.6015 22.99889, 72.60162 22.99877, 72.60164 22.99879, 72.60187 22.9986, 72.60232 22.99832, 72.60256 22.99817, 72.60319 22.99788, 72.60389 22.99758, 72.60388 22.99756, 72.60457 22.99738, 72.60481 22.99735, 72.60581 22.99728, 72.60646 22.99727, 72.60646 22.99727, 72.60742 22.99726, 72.60816 22.99731, 72.60826 22.99732, 72.60826 22.99733, 72.60847 22.99736, 72.60905 22.99751, 72.60962 22.9977, 72.61011 22.9979, 72.61104 22.99833, 72.61127 22.99846, 72.61128 22.99841, 72.61139 22.99819, 72.61161 22.99772)"
  },
  {
    "stopName": "Krushna bag",
    "stopCode": 2238,
    "stationCode": 1924,
    "stopType": "MUNICIPAL_BUS",
    "shortStopName": null,
    "Position": {
      "stopLongitude": "72.603876",
      "stopLatitude": "22.997546"
    },
    "RouteCodes": null,
    "Sequence": 6,
    "routeFlow": null
  },
  {
    "stopName": "Maninagar Char Rasta",
    "stopCode": 2239,
    "stationCode": 2043,
    "stopType": "MUNICIPAL_BUS",
    "shortStopName": null,
    "Position": {
      "stopLongitude": "72.608258",
      "stopLatitude": "22.997366"
    },
    "RouteCodes": null,
    "Sequence": 8,
    "routeFlow": null
  },
  {
    "stopName": "Football Ground",
    "stopCode": 3214,
    "stationCode": 1499,
    "stopType": "MUNICIPAL_BUS",
    "shortStopName": null,
    "Position": {
      "stopLongitude": "72.596965",
      "stopLatitude": "23.007338"
    },
    "RouteCodes": null,
    "Sequence": 2,
    "routeFlow": null
  },
  {
    "stopName": "Maninagar",
    "stopCode": 3215,
    "stationCode": 2042,
    "stopType": "MUNICIPAL_BUS",
    "shortStopName": null,
    "Position": {
      "stopLongitude": "72.611666",
      "stopLatitude": "22.99774"
    },
    "RouteCodes": null,
    "Sequence": 9,
    "routeFlow": null
  },
  {
    "stopName": "Vyayam Vidyalay",
    "stopCode": 4869,
    "stationCode": 3085,
    "stopType": "MUNICIPAL_BUS",
    "shortStopName": null,
    "Position": {
      "stopLongitude": "72.59873",
      "stopLatitude": "23.008873"
    },
    "RouteCodes": null,
    "Sequence": 1,
    "routeFlow": null
  },
  {
    "stopName": "Shelat Bhuvan",
    "stopCode": 4872,
    "stationCode": 2712,
    "stopType": "MUNICIPAL_BUS",
    "shortStopName": null,
    "Position": {
      "stopLongitude": "72.600502",
      "stopLatitude": "23.000322"
    },
    "RouteCodes": null,
    "Sequence": 4,
    "routeFlow": null
  },
  {
    "stopName": "Rambag",
    "stopCode": 4873,
    "stationCode": 2464,
    "stopType": "MUNICIPAL_BUS",
    "shortStopName": null,
    "Position": {
      "stopLongitude": "72.601649",
      "stopLatitude": "22.998795"
    },
    "RouteCodes": null,
    "Sequence": 5,
    "routeFlow": null
  },
  {
    "stopName": "Jain Upashray",
    "stopCode": 6143,
    "stationCode": 7017,
    "stopType": "MUNICIPAL_BUS",
    "shortStopName": null,
    "Position": {
      "stopLongitude": "72.606462",
      "stopLatitude": "22.997316"
    },
    "RouteCodes": null,
    "Sequence": 7,
    "routeFlow": null
  }
]