[
  {
    "stopName": "Shakuntal Bunglows",
    "stopCode": 2529,
    "stationCode": 2693,
    "stopType": "MUNICIPAL_BUS",
    "shortStopName": null,
    "Position": {
      "stopLongitude": "72.666881",
      "stopLatitude": "23.050381"
    },
    "RouteCodes": null,
    "Sequence": 1,
    "routeFlow": "LINESTRING (72.66688 23.05038, 72.66935 23.05008, 72.66935 23.0501, 72.66991 23.05003, 72.66992 23.05003, 72.66994 23.05004, 72.66999 23.05005, 72.67003 23.05003, 72.67004 23.05002, 72.67004 23.05001, 72.67019 23.05002, 72.67046 23.04999, 72.67078 23.04995, 72.67121 23.04991, 72.67138 23.04991, 72.67244 23.05026, 72.67319 23.0505, 72.67319 23.0505, 72.67448 23.05088, 72.67448 23.05088, 72.67622 23.05138, 72.67726 23.05171, 72.67726 23.05171, 72.67943 23.05243, 72.67943 23.05243, 72.6796 23.05246, 72.67989 23.05242, 72.68131 23.0521, 72.68132 23.0521, 72.68135 23.0521, 72.68141 23.05208, 72.68141 23.05207, 72.68166 23.05205)"
  },
  {
    "stopName": "Vaikunth Bunglows",
    "stopCode": 4333,
    "stationCode": 2991,
    "stopType": "MUNICIPAL_BUS",
    "shortStopName": null,
    "Position": {
      "stopLongitude": "72.669351",
      "stopLatitude": "23.050103"
    },
    "RouteCodes": null,
    "Sequence": 2,
    "routeFlow": null
  },
  {
    "stopName": "Devsrushti",
    "stopCode": 4814,
    "stationCode": 1450,
    "stopType": "MUNICIPAL_BUS",
    "shortStopName": null,
    "Position": {
      "stopLongitude": "72.673186",
      "stopLatitude": "23.05051"
    },
    "RouteCodes": null,
    "Sequence": 3,
    "routeFlow": null
  },
  {
    "stopName": "Prerana Bunglows",
    "stopCode": 4815,
    "stationCode": 2382,
    "stopType": "MUNICIPAL_BUS",
    "shortStopName": null,
    "Position": {
      "stopLongitude": "72.674476",
      "stopLatitude": "23.050898"
    },
    "RouteCodes": null,
    "Sequence": 4,
    "routeFlow": null
  },
  {
    "stopName": "Shri Saurashtra Patel Samaj",
    "stopCode": 4816,
    "stationCode": 2744,
    "stopType": "MUNICIPAL_BUS",
    "shortStopName": null,
    "Position": {
      "stopLongitude": "72.677256",
      "stopLatitude": "23.051716"
    },
    "RouteCodes": null,
    "Sequence": 5,
    "routeFlow": null
  },
  {
    "stopName": "Devsya States",
    "stopCode": 4817,
    "stationCode": 1451,
    "stopType": "MUNICIPAL_BUS",
    "shortStopName": null,
    "Position": {
      "stopLongitude": "72.679413",
      "stopLatitude": "23.052463"
    },
    "RouteCodes": null,
    "Sequence": 6,
    "routeFlow": null
  },
  {
    "stopName": "Bhakti Circle",
    "stopCode": 4818,
    "stationCode": 1271,
    "stopType": "MUNICIPAL_BUS",
    "shortStopName": null,
    "Position": {
      "stopLongitude": "72.68166",
      "stopLatitude": "23.052071"
    },
    "RouteCodes": null,
    "Sequence": 7,
    "routeFlow": null
  }
]