[
  {
    "stopName": "Chandkheda Gam",
    "stopCode": 1653,
    "stationCode": 1359,
    "stopType": "MUNICIPAL_BUS",
    "shortStopName": null,
    "Position": {
      "stopLongitude": "72.582648",
      "stopLatitude": "23.116256"
    },
    "RouteCodes": null,
    "Sequence": 24,
    "routeFlow": "LINESTRING (72.59167 23.08914, 72.59288 23.09096, 72.59288 23.09096, 72.59388 23.09249, 72.59388 23.09249, 72.5946 23.09359, 72.59475 23.09383, 72.59503 23.09424, 72.59507 23.09427, 72.59522 23.09448, 72.59528 23.09458, 72.59528 23.09475, 72.59534 23.09484, 72.59541 23.09493, 72.59541 23.09493, 72.5958 23.09541, 72.59608 23.09582, 72.59621 23.09601, 72.5962 23.09606, 72.59621 23.09609, 72.59657 23.09667, 72.59658 23.09667, 72.59682 23.09704, 72.59711 23.09744, 72.59759 23.09792, 72.59783 23.09818, 72.5983 23.09863, 72.5983 23.09863, 72.60054 23.10076, 72.60054 23.10076, 72.60106 23.10127, 72.60128 23.10155, 72.60138 23.10178, 72.60218 23.10339, 72.60218 23.10339, 72.60243 23.1039, 72.60278 23.1047, 72.60283 23.10478, 72.60283 23.10478, 72.60292 23.10497, 72.60333 23.10576, 72.60375 23.10664, 72.60392 23.107, 72.60395 23.10705, 72.60395 23.10705, 72.60469 23.10857, 72.60469 23.10857, 72.60521 23.10974, 72.60558 23.11046, 72.60567 23.1106, 72.60581 23.1107, 72.60581 23.1107, 72.60595 23.11085, 72.60585 23.11093, 72.60548 23.11125, 72.6052 23.11155, 72.60485 23.11128, 72.60485 23.11128, 72.60341 23.1101, 72.60281 23.10964, 72.60281 23.10964, 72.60239 23.10932, 72.60147 23.10856, 72.59986 23.10728, 72.59986 23.10728, 72.59876 23.10639, 72.59876 23.10639, 72.59764 23.10553, 72.5976 23.10548, 72.5976 23.10546, 72.5976 23.10542, 72.59758 23.10537, 72.59752 23.10531, 72.59744 23.10528, 72.59736 23.10529, 72.5973 23.10532, 72.59725 23.10539, 72.59724 23.10548, 72.59726 23.10553, 72.59724 23.10579, 72.59718 23.10591, 72.59712 23.10608, 72.59701 23.10657, 72.59701 23.10657, 72.5969 23.10731, 72.59686 23.10746, 72.59674 23.10774, 72.59658 23.10799, 72.59636 23.1083, 72.59605 23.10861, 72.59589 23.10874, 72.59589 23.10874, 72.59545 23.10898, 72.5949 23.10916, 72.59457 23.10921, 72.59446 23.10921, 72.59345 23.10918, 72.593 23.10918, 72.593 23.10918, 72.59135 23.10912, 72.59095 23.10911, 72.59095 23.10911, 72.58909 23.10907, 72.58909 23.10907, 72.58747 23.10907, 72.58631 23.10906, 72.5856 23.10908, 72.5856 23.10908, 72.58516 23.1091, 72.58501 23.10908, 72.58482 23.10904, 72.58479 23.10916, 72.58435 23.11054, 72.58435 23.11054, 72.58408 23.1114, 72.58388 23.11201, 72.58356 23.1131, 72.58293 23.11525, 72.58259 23.11621, 72.58264 23.11625, 72.58234 23.11717, 72.58221 23.11751, 72.58211 23.11777, 72.58202 23.11813, 72.58199 23.11829, 72.58197 23.11864, 72.58195 23.11904, 72.58195 23.11948, 72.58205 23.12017, 72.58234 23.12161, 72.58234 23.12161, 72.58253 23.1225, 72.58257 23.12268, 72.58257 23.12268, 72.5827 23.12314, 72.58295 23.12397, 72.58317 23.12485, 72.5833 23.12534, 72.5833 23.12534, 72.58429 23.12905, 72.58462 23.12995, 72.58479 23.13047, 72.58505 23.13041, 72.58541 23.13037)"
  },
  {
    "stopName": "Siddhi Complex",
    "stopCode": 1654,
    "stationCode": 2790,
    "stopType": "MUNICIPAL_BUS",
    "shortStopName": null,
    "Position": {
      "stopLongitude": "72.582323",
      "stopLatitude": "23.121608"
    },
    "RouteCodes": null,
    "Sequence": 25,
    "routeFlow": null
  },
  {
    "stopName": "Gokul Dham",
    "stopCode": 1655,
    "stationCode": 1569,
    "stopType": "MUNICIPAL_BUS",
    "shortStopName": null,
    "Position": {
      "stopLongitude": "72.582562",
      "stopLatitude": "23.122678"
    },
    "RouteCodes": null,
    "Sequence": 26,
    "routeFlow": null
  },
  {
    "stopName": "Balbindar Auto",
    "stopCode": 1656,
    "stationCode": 1230,
    "stopType": "MUNICIPAL_BUS",
    "shortStopName": null,
    "Position": {
      "stopLongitude": "72.58322",
      "stopLatitude": "23.125355"
    },
    "RouteCodes": null,
    "Sequence": 27,
    "routeFlow": null
  },
  {
    "stopName": "Shivshakti Nagar (Chandkheda)",
    "stopCode": 2187,
    "stationCode": 2730,
    "stopType": "MUNICIPAL_BUS",
    "shortStopName": null,
    "Position": {
      "stopLongitude": "72.584356",
      "stopLatitude": "23.110545"
    },
    "RouteCodes": null,
    "Sequence": 23,
    "routeFlow": null
  },
  {
    "stopName": "Gandhibag (Acher)",
    "stopCode": 2427,
    "stationCode": 1521,
    "stopType": "MUNICIPAL_BUS",
    "shortStopName": null,
    "Position": {
      "stopLongitude": "72.591656",
      "stopLatitude": "23.08915"
    },
    "RouteCodes": null,
    "Sequence": 1,
    "routeFlow": null
  },
  {
    "stopName": "Nirantnagar",
    "stopCode": 2428,
    "stationCode": 2235,
    "stopType": "MUNICIPAL_BUS",
    "shortStopName": null,
    "Position": {
      "stopLongitude": "72.592861",
      "stopLatitude": "23.090968"
    },
    "RouteCodes": null,
    "Sequence": 2,
    "routeFlow": null
  },
  {
    "stopName": "Indiranagar",
    "stopCode": 2429,
    "stationCode": 1711,
    "stopType": "MUNICIPAL_BUS",
    "shortStopName": null,
    "Position": {
      "stopLongitude": "72.59389",
      "stopLatitude": "23.092485"
    },
    "RouteCodes": null,
    "Sequence": 3,
    "routeFlow": null
  },
  {
    "stopName": "Narendra Modi Stadium",
    "stopCode": 2430,
    "stationCode": 1624,
    "stopType": "MUNICIPAL_BUS",
    "shortStopName": null,
    "Position": {
      "stopLongitude": "72.595405",
      "stopLatitude": "23.094935"
    },
    "RouteCodes": null,
    "Sequence": 4,
    "routeFlow": null
  },
  {
    "stopName": "Sangath Bunglows",
    "stopCode": 2431,
    "stationCode": 2573,
    "stopType": "MUNICIPAL_BUS",
    "shortStopName": null,
    "Position": {
      "stopLongitude": "72.596568",
      "stopLatitude": "23.096675"
    },
    "RouteCodes": null,
    "Sequence": 5,
    "routeFlow": null
  },
  {
    "stopName": "Shri Ashrambapu Ashram Cross Road",
    "stopCode": 2432,
    "stationCode": 2736,
    "stopType": "MUNICIPAL_BUS",
    "shortStopName": null,
    "Position": {
      "stopLongitude": "72.5983",
      "stopLatitude": "23.098631"
    },
    "RouteCodes": null,
    "Sequence": 6,
    "routeFlow": null
  },
  {
    "stopName": "Sahajanand Park",
    "stopCode": 2433,
    "stationCode": 2544,
    "stopType": "MUNICIPAL_BUS",
    "shortStopName": null,
    "Position": {
      "stopLongitude": "72.600513",
      "stopLatitude": "23.100778"
    },
    "RouteCodes": null,
    "Sequence": 7,
    "routeFlow": null
  },
  {
    "stopName": "Akashdarshan Society",
    "stopCode": 2434,
    "stationCode": 1088,
    "stopType": "MUNICIPAL_BUS",
    "shortStopName": null,
    "Position": {
      "stopLongitude": "72.602195",
      "stopLatitude": "23.103386"
    },
    "RouteCodes": null,
    "Sequence": 8,
    "routeFlow": null
  },
  {
    "stopName": "Motera Gam",
    "stopCode": 2435,
    "stationCode": 2097,
    "stopType": "MUNICIPAL_BUS",
    "shortStopName": null,
    "Position": {
      "stopLongitude": "72.602833",
      "stopLatitude": "23.10478"
    },
    "RouteCodes": null,
    "Sequence": 9,
    "routeFlow": null
  },
  {
    "stopName": "Maruti Nandan-1",
    "stopCode": 2436,
    "stationCode": 2060,
    "stopType": "MUNICIPAL_BUS",
    "shortStopName": null,
    "Position": {
      "stopLongitude": "72.603935",
      "stopLatitude": "23.10705"
    },
    "RouteCodes": null,
    "Sequence": 10,
    "routeFlow": null
  },
  {
    "stopName": "Narnarayan Party Plot",
    "stopCode": 2437,
    "stationCode": 2169,
    "stopType": "MUNICIPAL_BUS",
    "shortStopName": null,
    "Position": {
      "stopLongitude": "72.604658",
      "stopLatitude": "23.108585"
    },
    "RouteCodes": null,
    "Sequence": 11,
    "routeFlow": null
  },
  {
    "stopName": "Shrushti Arcade",
    "stopCode": 2438,
    "stationCode": 2766,
    "stopType": "MUNICIPAL_BUS",
    "shortStopName": null,
    "Position": {
      "stopLongitude": "72.605803",
      "stopLatitude": "23.110708"
    },
    "RouteCodes": null,
    "Sequence": 12,
    "routeFlow": null
  },
  {
    "stopName": "Fire Station Cross Road",
    "stopCode": 2439,
    "stationCode": 2096,
    "stopType": "MUNICIPAL_BUS",
    "shortStopName": null,
    "Position": {
      "stopLongitude": "72.604875",
      "stopLatitude": "23.111246"
    },
    "RouteCodes": null,
    "Sequence": 13,
    "routeFlow": null
  },
  {
    "stopName": "Visamo Society",
    "stopCode": 2440,
    "stationCode": 3062,
    "stopType": "MUNICIPAL_BUS",
    "shortStopName": null,
    "Position": {
      "stopLongitude": "72.599871",
      "stopLatitude": "23.107261"
    },
    "RouteCodes": null,
    "Sequence": 15,
    "routeFlow": null
  },
  {
    "stopName": "Ashok Vihar",
    "stopCode": 2441,
    "stationCode": 1181,
    "stopType": "MUNICIPAL_BUS",
    "shortStopName": null,
    "Position": {
      "stopLongitude": "72.59877",
      "stopLatitude": "23.106383"
    },
    "RouteCodes": null,
    "Sequence": 16,
    "routeFlow": null
  },
  {
    "stopName": "Sarkari Engg. College",
    "stopCode": 2442,
    "stationCode": 2620,
    "stopType": "MUNICIPAL_BUS",
    "shortStopName": null,
    "Position": {
      "stopLongitude": "72.597056",
      "stopLatitude": "23.10658"
    },
    "RouteCodes": null,
    "Sequence": 17,
    "routeFlow": null
  },
  {
    "stopName": "Shitiratna Bunglows",
    "stopCode": 2443,
    "stationCode": 2721,
    "stopType": "MUNICIPAL_BUS",
    "shortStopName": null,
    "Position": {
      "stopLongitude": "72.595915",
      "stopLatitude": "23.108763"
    },
    "RouteCodes": null,
    "Sequence": 18,
    "routeFlow": null
  },
  {
    "stopName": "Swagat Bunglows",
    "stopCode": 2444,
    "stationCode": 2884,
    "stopType": "MUNICIPAL_BUS",
    "shortStopName": null,
    "Position": {
      "stopLongitude": "72.592998",
      "stopLatitude": "23.109165"
    },
    "RouteCodes": null,
    "Sequence": 19,
    "routeFlow": null
  },
  {
    "stopName": "Sakar School",
    "stopCode": 2445,
    "stationCode": 2557,
    "stopType": "MUNICIPAL_BUS",
    "shortStopName": null,
    "Position": {
      "stopLongitude": "72.590953",
      "stopLatitude": "23.109111"
    },
    "RouteCodes": null,
    "Sequence": 20,
    "routeFlow": null
  },
  {
    "stopName": "Sahajanand Bunglows (Chandkheda)",
    "stopCode": 2446,
    "stationCode": 2539,
    "stopType": "MUNICIPAL_BUS",
    "shortStopName": null,
    "Position": {
      "stopLongitude": "72.589088",
      "stopLatitude": "23.109066"
    },
    "RouteCodes": null,
    "Sequence": 21,
    "routeFlow": null
  },
  {
    "stopName": "Santokba Hospital",
    "stopCode": 2447,
    "stationCode": 2587,
    "stopType": "MUNICIPAL_BUS",
    "shortStopName": null,
    "Position": {
      "stopLongitude": "72.585598",
      "stopLatitude": "23.109086"
    },
    "RouteCodes": null,
    "Sequence": 22,
    "routeFlow": null
  },
  {
    "stopName": "Zundal Circle",
    "stopCode": 5841,
    "stationCode": 6487,
    "stopType": "MUNICIPAL_BUS",
    "shortStopName": null,
    "Position": {
      "stopLongitude": "72.585404",
      "stopLatitude": "23.130353"
    },
    "RouteCodes": null,
    "Sequence": 28,
    "routeFlow": null
  },
  {
    "stopName": "Shree Rajendra shanti vihar",
    "stopCode": 8769,
    "stationCode": 6131,
    "stopType": "MUNICIPAL_BUS",
    "shortStopName": null,
    "Position": {
      "stopLongitude": "72.602823",
      "stopLatitude": "23.109629"
    },
    "RouteCodes": null,
    "Sequence": 14,
    "routeFlow": null
  }
]